{"html_attributions": [], "next_page_token": "AW30NDxhtOkrqSH0QRj89GRSJ2JFdLEEWx-GUN6jY8-8AGbSHe_4x4vBeYcuUhyal3i0RV6AVZvfXxhV29derAkSuSHqQ-ysl90WVWrdiT0NESsO7sdVqgJ_x_SyONMH24mhN9soSqj0w6ttsEdYCJJv5MQsjE1STeE7LioNmodJQOg75Iq7ybSecFcwRr7M8VxxQpkxpkVHjy6ncJ_7MrkUjvX0GQsw1Wm2jFYLnW3HO-zF34fHhM8seRvAUlHZ-m3PEjYlGoDonNlhTLwo0VWKCVoz_zcu1Aja7bb4iZWfIPefyrb_Fx1RGEHH4LyYBZ5ALoqvrFTwAuJK9yXK4USTAQ9c3whzA_vOBE74H5-LqN3ltELMIw-Q4LWc7SKSIw7CrrocOC73TutISxatJy4oTKhQyGZbLNyb6FpVbPCW9JNVY6JTiCzb", "results": [{"business_status": "OPERATIONAL", "geometry": {"location": {"lat": 41.10508129999999, "lng": 29.0562774}, "viewport": {"northeast": {"lat": 41.10627383029149, "lng": 29.05759498029149}, "southwest": {"lat": 41.10357586970849, "lng": 29.0548970197085}}}, "icon": "https://maps.gstatic.com/mapfiles/place_api/icons/v1/png_71/cafe-71.png", "icon_background_color": "#FF9E67", "icon_mask_base_uri": "https://maps.gstatic.com/mapfiles/place_api/icons/v2/cafe_pinlet", "name": "Sheesha Cafe", "opening_hours": {"open_now": true}, "photos": [{"height": 1080, "html_attributions": ["<a href=\"https://maps.google.com/maps/contrib/101599462208939880550\">\u0645\u062d\u0645\u062f \u0628\u0646 \u0633\u0627\u0644\u0645</a>"], "photo_reference": "AW30NDwmF5YuOhLPGylQ50gWVCg5FpWXuNjFWfyRKy81zXWy-VNpYusYXIXGopQH2phlIW7ZdSA1bEEQx339N5Sh-5OrdsQ1kOGLt9zg3Ad-_BMS1ieJvnyB4MdOWSYJ5iCxxgEzf-apk45T2kPfHtIbyGm9dzy0cYuOReXJIUDW951gXfIC", "width": 1920}], "place_id": "ChIJuWOKAnPKyhQR3SIfFPJIDQs", "plus_code": {"compound_code": "4344+2G Sar\u0131yer/\u0130stanbul, Turkey", "global_code": "8GHF4344+2G"}, "price_level": 2, "rating": 4, "reference": "ChIJuWOKAnPKyhQR3SIfFPJIDQs", "scope": "GOOGLE", "types": ["cafe", "food", "point_of_interest", "establishment"], "user_ratings_total": 227, "vicinity": "Emirgan, Do\u011fru Muvakkithane Caddesi No:6"}, {"business_status": "OPERATIONAL", "geometry": {"location": {"lat": 41.1070317, "lng": 29.0572909}, "viewport": {"northeast": {"lat": 41.1085132302915, "lng": 29.0586852802915}, "southwest": {"lat": 41.1058152697085, "lng": 29.0559873197085}}}, "icon": "https://maps.gstatic.com/mapfiles/place_api/icons/v1/png_71/restaurant-71.png", "icon_background_color": "#FF9E67", "icon_mask_base_uri": "https://maps.gstatic.com/mapfiles/place_api/icons/v2/restaurant_pinlet", "name": "Huqqa Emirgan", "opening_hours": {"open_now": true}, "photos": [{"height": 9000, "html_attributions": ["<a href=\"https://maps.google.com/maps/contrib/103387664710301325297\">Abdulkadir \u0130tri</a>"], "photo_reference": "AW30NDz9PTVPvYLH9552siD4eS5Jk7us-X_uFdREF3wBg83XCRc7C_2VB7DmSIFGE76939aN5L4go6wlIfOe4dpfPa2A5kB2T1YH--fP5z-d6Gmm_p8_ZI7_gFwocj0P0xgnac_huzOOVFV-UuoeaL7jCU26eC-pED_f9mp7Ao8H4ujsPvNQ", "width": 12000}], "place_id": "ChIJ9z7y_nHKyhQRBP1FVFDi0Lc", "plus_code": {"compound_code": "4344+RW Sar\u0131yer/\u0130stanbul, Turkey", "global_code": "8GHF4344+RW"}, "price_level": 3, "rating": 4.7, "reference": "ChIJ9z7y_nHKyhQRBP1FVFDi0Lc", "scope": "GOOGLE", "types": ["restaurant", "cafe", "food", "point_of_interest", "establishment"], "user_ratings_total": 6827, "vicinity": "Emirgan, Kalam\u0131\u015f Sokak No:1"}, {"business_status": "OPERATIONAL", "geometry": {"location": {"lat": 41.1095491, "lng": 29.0586219}, "viewport": {"northeast": {"lat": 41.1109248802915, "lng": 29.0600229302915}, "southwest": {"lat": 41.1082269197085, "lng": 29.0573249697085}}}, "icon": "https://maps.gstatic.com/mapfiles/place_api/icons/v1/png_71/restaurant-71.png", "icon_background_color": "#FF9E67", "icon_mask_base_uri": "https://maps.gstatic.com/mapfiles/place_api/icons/v2/restaurant_pinlet", "name": "La Boom", "opening_hours": {"open_now": true}, "photos": [{"height": 3000, "html_attributions": ["<a href=\"https://maps.google.com/maps/contrib/114761940082184771347\">Franck VERCHERE</a>"], "photo_reference": "AW30NDxVB7m8PZTbI6ZSdha7O0bUlDt4EVWIZDWY3XZ5Y_BELmJWOUS8wkBJVDKpXNS4K1fLmA85wN4Qxjd11lJ4iB4oJULebihcvYxRis3MmBjHt0WuWjUuedPG0UCB7R-nV8afWXn2KVenn3mRGg9YUB3Lfp5yXc0NjppuPJBNdod_vv5k", "width": 4000}], "place_id": "ChIJSdvuxm_KyhQR2Gbm_5Ifay8", "plus_code": {"compound_code": "4355+RC Sar\u0131yer/\u0130stanbul, Turkey", "global_code": "8GHF4355+RC"}, "price_level": 4, "rating": 3.8, "reference": "ChIJSdvuxm_KyhQR2Gbm_5Ifay8", "scope": "GOOGLE", "types": ["restaurant", "cafe", "food", "point_of_interest", "establishment"], "user_ratings_total": 494, "vicinity": "Emirgan, Sak\u0131p Sabanc\u0131 Caddesi No:14/A"}, {"business_status": "OPERATIONAL", "geometry": {"location": {"lat": 41.1049705, "lng": 29.05601559999999}, "viewport": {"northeast": {"lat": 41.1062308302915, "lng": 29.0573507802915}, "southwest": {"lat": 41.1035328697085, "lng": 29.0546528197085}}}, "icon": "https://maps.gstatic.com/mapfiles/place_api/icons/v1/png_71/cafe-71.png", "icon_background_color": "#FF9E67", "icon_mask_base_uri": "https://maps.gstatic.com/mapfiles/place_api/icons/v2/cafe_pinlet", "name": "Divan Kahvesi", "opening_hours": {"open_now": true}, "photos": [{"height": 1600, "html_attributions": ["<a href=\"https://maps.google.com/maps/contrib/110992335221111423557\">Yasemin Bektas</a>"], "photo_reference": "AW30NDxzp3zIGCRYdWYb-RotdoOFsYwppkaolxyi5eFoyvpkot_akJCVXbx6NiRDlJqoR2SarkSQiwhwCdoBBnRPFEg2VVVQdXaTsoqJvoDfFXu8MSmBwZLrFzuFlXJY9C6P3nZYX5FpuAc5y4Zs1r8Dj5UQq-IRyWNXUt3eKRyMUIYSoPjA", "width": 900}], "place_id": "ChIJ2yLfyXLKyhQRR5O7X9gAZI4", "plus_code": {"compound_code": "4334+XC Sar\u0131yer/\u0130stanbul, Turkey", "global_code": "8GHF4334+XC"}, "rating": 4.4, "reference": "ChIJ2yLfyXLKyhQRR5O7X9gAZI4", "scope": "GOOGLE", "types": ["cafe", "food", "point_of_interest", "establishment"], "user_ratings_total": 25, "vicinity": "Emirgan, Do\u011fru Muvakkithane Caddesi No:10/A"}, {"business_status": "OPERATIONAL", "geometry": {"location": {"lat": 41.10474809999999, "lng": 29.0555934}, "viewport": {"northeast": {"lat": 41.10613388029149, "lng": 29.0569429802915}, "southwest": {"lat": 41.1034359197085, "lng": 29.0542450197085}}}, "icon": "https://maps.gstatic.com/mapfiles/place_api/icons/v1/png_71/restaurant-71.png", "icon_background_color": "#FF9E67", "icon_mask_base_uri": "https://maps.gstatic.com/mapfiles/place_api/icons/v2/restaurant_pinlet", "name": "Keyf-i Emirgan", "opening_hours": {"open_now": true}, "photos": [{"height": 1535, "html_attributions": ["<a href=\"https://maps.google.com/maps/contrib/117783888807803193834\">Keyf-i Emirgan</a>"], "photo_reference": "AW30NDw9PXwnGrqo9cSmn0ViGnNB8kt6gqXTfBGs580Id45i7i4qtUYp-sJcX3YrdFIX0dUoyC3hdt_msvxKCT7aBfDyv4duaJpK3FISQ8Yd8g383pvCUTr1-FYltEfDd3N0g2vdi8QLCvqNhDytpz7MAJUeBWqT7BIhW8i8nUNtNgaQ3fCZ", "width": 2048}], "place_id": "ChIJ4T7a8HLKyhQRqvCZXZqD138", "plus_code": {"compound_code": "4334+V6 Sar\u0131yer/\u0130stanbul, Turkey", "global_code": "8GHF4334+V6"}, "rating": 4.3, "reference": "ChIJ4T7a8HLKyhQRqvCZXZqD138", "scope": "GOOGLE", "types": ["restaurant", "cafe", "food", "point_of_interest", "establishment"], "user_ratings_total": 20, "vicinity": "Emirgan, Do\u011fru Muvakkithane Caddesi 7/A"}, {"business_status": "OPERATIONAL", "geometry": {"location": {"lat": 41.1050966, "lng": 29.0473014}, "viewport": {"northeast": {"lat": 41.1064947302915, "lng": 29.04869723029149}, "southwest": {"lat": 41.1037967697085, "lng": 29.0459992697085}}}, "icon": "https://maps.gstatic.com/mapfiles/place_api/icons/v1/png_71/cafe-71.png", "icon_background_color": "#FF9E67", "icon_mask_base_uri": "https://maps.gstatic.com/mapfiles/place_api/icons/v2/cafe_pinlet", "name": "Misk Floral Cafe", "opening_hours": {"open_now": false}, "photos": [{"height": 1346, "html_attributions": ["<a href=\"https://maps.google.com/maps/contrib/112375900200162128657\">Misk Floral Cafe</a>"], "photo_reference": "AW30NDw-HlYo7wgvf35AAsodltMldhn2JEE69SlVrXkdYaUHFQIxF09nLeM6phfAYwaEV73NdT9izEWAIYOHWPOvPhTAvimB5_0c6PxIkTMOEkS_YImSHQanW_Rn7sCK-QRKkTYq1rtvft2YROAn4G-4BG5V1txPPdc7dpF2S3ciTkFpSWML", "width": 2016}], "place_id": "ChIJ7SUttQrKyhQR3q3kt7g223s", "plus_code": {"compound_code": "424W+2W Sar\u0131yer/\u0130stanbul, Turkey", "global_code": "8GHF424W+2W"}, "price_level": 3, "rating": 4.3, "reference": "ChIJ7SUttQrKyhQR3q3kt7g223s", "scope": "GOOGLE", "types": ["cafe", "florist", "store", "food", "point_of_interest", "establishment"], "user_ratings_total": 350, "vicinity": "Re\u015fitpa\u015fa, Emirgan Sokak No:22"}, {"business_status": "OPERATIONAL", "geometry": {"location": {"lat": 41.103132, "lng": 29.055739}, "viewport": {"northeast": {"lat": 41.1044622302915, "lng": 29.0571423302915}, "southwest": {"lat": 41.1017642697085, "lng": 29.05444436970851}}}, "icon": "https://maps.gstatic.com/mapfiles/place_api/icons/v1/png_71/restaurant-71.png", "icon_background_color": "#FF9E67", "icon_mask_base_uri": "https://maps.gstatic.com/mapfiles/place_api/icons/v2/restaurant_pinlet", "name": "Ta\u015f Kahve Emirgan", "opening_hours": {"open_now": true}, "photos": [{"height": 4082, "html_attributions": ["<a href=\"https://maps.google.com/maps/contrib/101541817392495715611\">Ta\u015f Kahve Emirgan</a>"], "photo_reference": "AW30NDzA9pqgUDEqQ5YMZDvGMN-ZQ-3uloHdDk8QOji0GN9y1xsEIrN3JRSW6ixMQa6VIEPOnanSmEml7WGbvbXJdJ_NfLF0Xk2m3qxwc71tYj7tD31IjmaRbf9ZN8QWTzOuglu_wd5vHY2IWIh5m2ym1li31TJKpC2xaqsejnrc8EsXsQIx", "width": 6124}], "place_id": "ChIJjTi5znLKyhQRbe25IunjzKA", "plus_code": {"compound_code": "4334+77 Sar\u0131yer/\u0130stanbul, Turkey", "global_code": "8GHF4334+77"}, "price_level": 2, "rating": 4.1, "reference": "ChIJjTi5znLKyhQRbe25IunjzKA", "scope": "GOOGLE", "types": ["restaurant", "cafe", "store", "food", "point_of_interest", "establishment"], "user_ratings_total": 1203, "vicinity": "Emirgan, Sak\u0131p Sabanc\u0131 Caddesi No:60"}, {"business_status": "CLOSED_TEMPORARILY", "geometry": {"location": {"lat": 41.103905, "lng": 29.047297}, "viewport": {"northeast": {"lat": 41.1052879302915, "lng": 29.0486810302915}, "southwest": {"lat": 41.1025899697085, "lng": 29.0459830697085}}}, "icon": "https://maps.gstatic.com/mapfiles/place_api/icons/v1/png_71/cafe-71.png", "icon_background_color": "#FF9E67", "icon_mask_base_uri": "https://maps.gstatic.com/mapfiles/place_api/icons/v2/cafe_pinlet", "name": "\u00d6zen Cafe", "permanently_closed": true, "place_id": "ChIJz49wlQrKyhQRTwn98sWY2CI", "plus_code": {"compound_code": "423W+HW Sar\u0131yer/\u0130stanbul, Turkey", "global_code": "8GHF423W+HW"}, "rating": 5, "reference": "ChIJz49wlQrKyhQRTwn98sWY2CI", "scope": "GOOGLE", "types": ["cafe", "food", "point_of_interest", "establishment"], "user_ratings_total": 2, "vicinity": "Re\u015fitpa\u015fa, Tuncay Artun Caddesi No:1"}, {"business_status": "CLOSED_TEMPORARILY", "geometry": {"location": {"lat": 41.1147101, "lng": 29.0585123}, "viewport": {"northeast": {"lat": 41.1160043302915, "lng": 29.0598162302915}, "southwest": {"lat": 41.1133063697085, "lng": 29.0571182697085}}}, "icon": "https://maps.gstatic.com/mapfiles/place_api/icons/v1/png_71/restaurant-71.png", "icon_background_color": "#FF9E67", "icon_mask_base_uri": "https://maps.gstatic.com/mapfiles/place_api/icons/v2/restaurant_pinlet", "name": "Konteynerwafflepoints", "permanently_closed": true, "photos": [{"height": 2988, "html_attributions": ["<a href=\"https://maps.google.com/maps/contrib/107071657358188079485\">Kemal Torun</a>"], "photo_reference": "AW30NDz2lBpvzhY321lyhq9VlgKFagMlATQulyy87xFd1Ei3u02V64chCJKx8ulYhV9DkHRwoXsm9kc4kxPLrnGZzhr0MI5F3lBwS91u4hrurOQcluUUwWiRSwZj1b73ub6ptzdNTTcrFqDUnauuGQgKRf7A74bxDGG7EYiGJGqG3rzf2J4q", "width": 5312}], "place_id": "ChIJNacOuGTKyhQRZ_qia7QDlxE", "plus_code": {"compound_code": "4375+VC Sar\u0131yer/\u0130stanbul, Turkey", "global_code": "8GHF4375+VC"}, "rating": 5, "reference": "ChIJNacOuGTKyhQRZ_qia7QDlxE", "scope": "GOOGLE", "types": ["restaurant", "cafe", "food", "point_of_interest", "establishment"], "user_ratings_total": 1, "vicinity": "\u0130stinye, \u0130stinye Caddesi No:34"}, {"business_status": "OPERATIONAL", "geometry": {"location": {"lat": 41.1110823, "lng": 29.0440492}, "viewport": {"northeast": {"lat": 41.1123964802915, "lng": 29.0453439302915}, "southwest": {"lat": 41.1096985197085, "lng": 29.0426459697085}}}, "icon": "https://maps.gstatic.com/mapfiles/place_api/icons/v1/png_71/cafe-71.png", "icon_background_color": "#FF9E67", "icon_mask_base_uri": "https://maps.gstatic.com/mapfiles/place_api/icons/v2/cafe_pinlet", "name": "Konteynerwafflepoint's", "photos": [{"height": 1600, "html_attributions": ["<a href=\"https://maps.google.com/maps/contrib/100137672182186364619\">H .m.a</a>"], "photo_reference": "AW30NDzvMP-t8is-5Raf6DfKh65yrcBvkydGLfIhlXZwH1lC0V_boSBMbRC9WRF1mGcBLjSrKz7wgWUU-YYh8Izd-vgOWKel4GdzxrZwBRXGgvd8rkJFewAeKGnyuz8zHY2IAqzeTRGcJZhQ80QEgNnuiD5DQaUNQn_oYvAwsntfPXRadKiz", "width": 1200}], "place_id": "ChIJm-Jajom1yhQRkO4aGbZvyD0", "plus_code": {"compound_code": "426V+CJ Sar\u0131yer/\u0130stanbul, Turkey", "global_code": "8GHF426V+CJ"}, "rating": 3.7, "reference": "ChIJm-Jajom1yhQRkO4aGbZvyD0", "scope": "GOOGLE", "types": ["cafe", "food", "point_of_interest", "establishment"], "user_ratings_total": 18, "vicinity": "Re\u015fitpa\u015fa, \u015eahintepesi \u00c7ay Bah\u00e7esi No:74"}, {"business_status": "OPERATIONAL", "geometry": {"location": {"lat": 41.11358609999999, "lng": 29.060425}, "viewport": {"northeast": {"lat": 41.11498358029149, "lng": 29.0618099802915}, "southwest": {"lat": 41.11228561970849, "lng": 29.0591120197085}}}, "icon": "https://maps.gstatic.com/mapfiles/place_api/icons/v1/png_71/cafe-71.png", "icon_background_color": "#FF9E67", "icon_mask_base_uri": "https://maps.gstatic.com/mapfiles/place_api/icons/v2/cafe_pinlet", "name": "Playground Love", "opening_hours": {"open_now": true}, "photos": [{"height": 3024, "html_attributions": ["<a href=\"https://maps.google.com/maps/contrib/106954379860674258862\">Mehmet Bak\u0131r Dilber</a>"], "photo_reference": "AW30NDy_rSMcvhCEfiWdZSs7j5qHIw523Qou_To6qOwEqvWcBiWD32WHgr-4MsagSEhgXZgEEQF7kpWP5f32ZQnMtc9AIOYgatirxmRMH-HJaxElwgRL4n6w-oneGKTxxQei4zLdYxWpF3i_EDntDCPE0scwj20c2VMNvv2S_Rvrabn0wDwy", "width": 4032}], "place_id": "ChIJUcT192TKyhQRPu1IHNiLw6A", "plus_code": {"compound_code": "4376+C5 Sar\u0131yer/\u0130stanbul, Turkey", "global_code": "8GHF4376+C5"}, "price_level": 2, "rating": 3.6, "reference": "ChIJUcT192TKyhQRPu1IHNiLw6A", "scope": "GOOGLE", "types": ["cafe", "food", "point_of_interest", "establishment"], "user_ratings_total": 885, "vicinity": "\u0130stinye, \u0130stinye Caddesi No:1"}, {"business_status": "OPERATIONAL", "geometry": {"location": {"lat": 41.1157472, "lng": 29.0499977}, "viewport": {"northeast": {"lat": 41.1171215302915, "lng": 29.0513226302915}, "southwest": {"lat": 41.1144235697085, "lng": 29.0486246697085}}}, "icon": "https://maps.gstatic.com/mapfiles/place_api/icons/v1/png_71/cafe-71.png", "icon_background_color": "#FF9E67", "icon_mask_base_uri": "https://maps.gstatic.com/mapfiles/place_api/icons/v2/cafe_pinlet", "name": "Kahve D\u00fcnyas\u0131 - \u0130stinye", "opening_hours": {"open_now": true}, "photos": [{"height": 1920, "html_attributions": ["<a href=\"https://maps.google.com/maps/contrib/106658048267171659075\">AYTA\u00c7 G\u00dcLER</a>"], "photo_reference": "AW30NDz5N-MOX7keLYRvyE5slU8qmtudf-0K-tyKpFQqI4BtpLf9vssdb-AGI32J_5xAL9w0hQNhs5pLo-Vq2Jdqfl8Lr62JuxeZn9xJxsDfVCYxwkDmpIW4zYFUtc5E29YGNqmFKo3YwEmCPHp2MDFAgJark5hCWeacCeMV6mmKmkmkjS8s", "width": 1080}], "place_id": "ChIJq5bKBYK1yhQRMaoOY0LfE7M", "plus_code": {"compound_code": "428X+7X Sar\u0131yer/\u0130stanbul, Turkey", "global_code": "8GHF428X+7X"}, "price_level": 2, "rating": 4.2, "reference": "ChIJq5bKBYK1yhQRMaoOY0LfE7M", "scope": "GOOGLE", "types": ["cafe", "store", "food", "point_of_interest", "establishment"], "user_ratings_total": 726, "vicinity": "\u0130stinye, \u00c7ay\u0131r Caddesi No: 65"}, {"business_status": "OPERATIONAL", "geometry": {"location": {"lat": 41.113242, "lng": 29.061565}, "viewport": {"northeast": {"lat": 41.1146657802915, "lng": 29.0628985302915}, "southwest": {"lat": 41.1119678197085, "lng": 29.0602005697085}}}, "icon": "https://maps.gstatic.com/mapfiles/place_api/icons/v1/png_71/cafe-71.png", "icon_background_color": "#FF9E67", "icon_mask_base_uri": "https://maps.gstatic.com/mapfiles/place_api/icons/v2/cafe_pinlet", "name": "\u0130skele \u0130zmir Lokmac\u0131s\u0131", "opening_hours": {"open_now": true}, "photos": [{"height": 3024, "html_attributions": ["<a href=\"https://maps.google.com/maps/contrib/116528838666435579155\">Hakan Sahin</a>"], "photo_reference": "AW30NDxYYGmvzJaJ6ogimwCyxzuTy-10-JaCUxebiWMwH4vqEC-_UAvERtZ-olzmn0TuqARKykiLVWhgT3gdLhTmSmXHUizPAd6fQkKVFrci5PpTCeeNH73vIf7Fv5vP-phtl6BUSBC8YYGKADx7YRwM1gVE3AbDs50voVvLmRqk9XjoS5Y", "width": 4032}], "place_id": "ChIJTdt2WGTKyhQRKY2Sjnufn6s", "plus_code": {"compound_code": "4376+7J Sar\u0131yer/\u0130stanbul, Turkey", "global_code": "8GHF4376+7J"}, "price_level": 2, "rating": 3.8, "reference": "ChIJTdt2WGTKyhQRKY2Sjnufn6s", "scope": "GOOGLE", "types": ["cafe", "restaurant", "food", "point_of_interest", "establishment"], "user_ratings_total": 1224, "vicinity": "\u0130stinye Mahallesi, \u0130skele \u00c7\u0131kmaz\u0131, \u0130stinye Caddesi No:3"}, {"business_status": "OPERATIONAL", "geometry": {"location": {"lat": 41.100832, "lng": 29.054707}, "viewport": {"northeast": {"lat": 41.1021770802915, "lng": 29.0561292302915}, "southwest": {"lat": 41.0994791197085, "lng": 29.0534312697085}}}, "icon": "https://maps.gstatic.com/mapfiles/place_api/icons/v1/png_71/restaurant-71.png", "icon_background_color": "#FF9E67", "icon_mask_base_uri": "https://maps.gstatic.com/mapfiles/place_api/icons/v2/restaurant_pinlet", "name": "Emirgan Fincan", "opening_hours": {"open_now": true}, "photos": [{"height": 3264, "html_attributions": ["<a href=\"https://maps.google.com/maps/contrib/104485857881622904364\">Emirgan Fincan</a>"], "photo_reference": "AW30NDx7_CS_2aNo1N5nm5ld0BH5NZIZ93Sq6j6PdOuEACo-HlxRKoQjuGKWuOmXHJacgW6Vi2B_B6gJXPPRAM3pvUfuEiA_xWFV1hicCs_n22Vi4HtJvPAbUC1MwWEaYO5ushFlIA0UP68lPRgN3KHPjZcp-Y5U1RZ3B9JmgltWt7sE4v9i", "width": 2448}], "place_id": "ChIJ3wEoAA3KyhQRRooeZoajJkw", "plus_code": {"compound_code": "4323+8V Sar\u0131yer/\u0130stanbul, Turkey", "global_code": "8GHF4323+8V"}, "rating": 4.1, "reference": "ChIJ3wEoAA3KyhQRRooeZoajJkw", "scope": "GOOGLE", "types": ["cafe", "liquor_store", "store", "restaurant", "food", "point_of_interest", "establishment"], "user_ratings_total": 589, "vicinity": "Emirgan, Sak\u0131p Sabanc\u0131 Caddesi 84/1"}, {"business_status": "OPERATIONAL", "geometry": {"location": {"lat": 41.1085635, "lng": 29.0534778}, "viewport": {"northeast": {"lat": 41.1098612802915, "lng": 29.0548837302915}, "southwest": {"lat": 41.1071633197085, "lng": 29.0521857697085}}}, "icon": "https://maps.gstatic.com/mapfiles/place_api/icons/v1/png_71/cafe-71.png", "icon_background_color": "#FF9E67", "icon_mask_base_uri": "https://maps.gstatic.com/mapfiles/place_api/icons/v2/cafe_pinlet", "name": "\u0627\u0645\u0631\u064a\u0643\u0627\u0646", "opening_hours": {"open_now": true}, "photos": [{"height": 480, "html_attributions": ["<a href=\"https://maps.google.com/maps/contrib/112570527749052556512\">Ziya U\u011fur</a>"], "photo_reference": "AW30NDyLPexf5zoVAjNcTKqmEJNTCtPXX5Ht3BTVOD2DxS2n5z4nel7xzE_xwBFRTtlhaqT5gVFjLjef9bRL-ns_Q1IAjhaZjgrgo9Ajb9T5QQJeXFWb7qLsgl5IpDZJCaoFOoTQKPmiRs0oKk5wDeOpGGRyFf1I3MqJAX_FE1Ku3orpBnr1", "width": 640}], "place_id": "ChIJE8QxZnHKyhQR4aQqEuE5Hjw", "plus_code": {"compound_code": "4353+C9 Sar\u0131yer/\u0130stanbul, Turkey", "global_code": "8GHF4353+C9"}, "rating": 3.8, "reference": "ChIJE8QxZnHKyhQR4aQqEuE5Hjw", "scope": "GOOGLE", "types": ["cafe", "food", "point_of_interest", "establishment"], "user_ratings_total": 17, "vicinity": "Emirgan, No:, Emirgan Korusu \u0130\u00e7i Yolu No:12"}, {"business_status": "OPERATIONAL", "geometry": {"location": {"lat": 41.109355, "lng": 29.052556}, "viewport": {"northeast": {"lat": 41.1104189802915, "lng": 29.0537727302915}, "southwest": {"lat": 41.1077210197085, "lng": 29.0510747697085}}}, "icon": "https://maps.gstatic.com/mapfiles/place_api/icons/v1/png_71/restaurant-71.png", "icon_background_color": "#FF9E67", "icon_mask_base_uri": "https://maps.gstatic.com/mapfiles/place_api/icons/v2/restaurant_pinlet", "name": "Miniat\u00fcrk, Beltur", "photos": [{"height": 1158, "html_attributions": ["<a href=\"https://maps.google.com/maps/contrib/117484232614183681302\">Natali Kenan</a>"], "photo_reference": "AW30NDwegAzjZtpRd0gvM8CkSFNkBqEBrEVXCP9C3uipsKGJtPN242MoD8noHoHqntZYS6NUD0olNZByVUxz3a0XMS10Vds6oKNfY3b4s88Do2FgSQDWqDy4jJwGyPzWgk9D7YUORSf7xadYLrYECclMaXxJiMVuA4kpCC5jNtRKcRWM_u3P", "width": 720}], "place_id": "ChIJn2feR3HKyhQROfwcs5LbWFc", "plus_code": {"compound_code": "4353+P2 Sar\u0131yer/\u0130stanbul, Turkey", "global_code": "8GHF4353+P2"}, "price_level": 2, "rating": 3.8, "reference": "ChIJn2feR3HKyhQROfwcs5LbWFc", "scope": "GOOGLE", "types": ["restaurant", "cafe", "food", "point_of_interest", "establishment"], "user_ratings_total": 10, "vicinity": "Emirgan, Emirgan Korusu \u0130\u00e7i Yolu"}, {"business_status": "CLOSED_TEMPORARILY", "geometry": {"location": {"lat": 41.1073494, "lng": 29.056573}, "viewport": {"northeast": {"lat": 41.1087138802915, "lng": 29.0578616802915}, "southwest": {"lat": 41.1060159197085, "lng": 29.0551637197085}}}, "icon": "https://maps.gstatic.com/mapfiles/place_api/icons/v1/png_71/cafe-71.png", "icon_background_color": "#FF9E67", "icon_mask_base_uri": "https://maps.gstatic.com/mapfiles/place_api/icons/v2/cafe_pinlet", "name": "Tulip Cafe", "permanently_closed": true, "photos": [{"height": 2322, "html_attributions": ["<a href=\"https://maps.google.com/maps/contrib/110281312764411785510\">Song\u00fcl \u0130\u015fcan</a>"], "photo_reference": "AW30NDw73ljQ4mX7HEEfiUpyrP9XtyAfaEPA_glKxqMIjbPAn3qt64UCAccCiUy9VcpW3Lk_h0qsWn7UWS5HU6BLshNolLz8GEdTk2vB5ExDIKeBu0tUGUBU89sBpPisIPXgaCF-sgXFusvsV_6uIxwy-dlbtAZUhXkvnzR1RVs1IJ1ch6ex", "width": 4128}], "place_id": "ChIJWb7k9HHKyhQRwisVC4-q_5Y", "plus_code": {"compound_code": "4344+WJ Sar\u0131yer/\u0130stanbul, Turkey", "global_code": "8GHF4344+WJ"}, "rating": 4, "reference": "ChIJWb7k9HHKyhQRwisVC4-q_5Y", "scope": "GOOGLE", "types": ["cafe", "food", "point_of_interest", "establishment"], "user_ratings_total": 8, "vicinity": "Emirgan, Koruyolu Caddesi No:12"}, {"business_status": "CLOSED_TEMPORARILY", "geometry": {"location": {"lat": 41.1073933, "lng": 29.0576533}, "viewport": {"northeast": {"lat": 41.10872763029149, "lng": 29.0590450802915}, "southwest": {"lat": 41.1060296697085, "lng": 29.0563471197085}}}, "icon": "https://maps.gstatic.com/mapfiles/place_api/icons/v1/png_71/cafe-71.png", "icon_background_color": "#FF9E67", "icon_mask_base_uri": "https://maps.gstatic.com/mapfiles/place_api/icons/v2/cafe_pinlet", "name": "Cafe Sarayi", "permanently_closed": true, "photos": [{"height": 780, "html_attributions": ["<a href=\"https://maps.google.com/maps/contrib/110125873042048244904\">Michael SA</a>"], "photo_reference": "AW30NDzw44MCsC0Rvf-5Gb2jpCyGdIWlnJb30Ej2ozYkJA8XwZ0hU6PvhYPgNrctX1-p2kQ8KQGI-aV02NWJmJ7R3hWtlMwuU8KVRu9jM_RH35eA11ILqpf_M2BW35PKnFTwtpccRiS5L3wnF1NW2aPTk0i9pYL8pC41KC0vqhNYCJYT0MxU", "width": 1040}], "place_id": "ChIJR3kV_nHKyhQRzdOLq5VKClo", "plus_code": {"compound_code": "4345+X3 Sar\u0131yer/\u0130stanbul, Turkey", "global_code": "8GHF4345+X3"}, "rating": 4.7, "reference": "ChIJR3kV_nHKyhQRzdOLq5VKClo", "scope": "GOOGLE", "types": ["cafe", "store", "restaurant", "food", "point_of_interest", "establishment"], "user_ratings_total": 7, "vicinity": "Emirgan, Sak\u0131p Sabanc\u0131 Caddesi No:32"}, {"business_status": "CLOSED_TEMPORARILY", "geometry": {"location": {"lat": 41.11317630000001, "lng": 29.053942}, "viewport": {"northeast": {"lat": 41.11452528029151, "lng": 29.0552909802915}, "southwest": {"lat": 41.11182731970851, "lng": 29.0525930197085}}}, "icon": "https://maps.gstatic.com/mapfiles/place_api/icons/v1/png_71/cafe-71.png", "icon_background_color": "#FF9E67", "icon_mask_base_uri": "https://maps.gstatic.com/mapfiles/place_api/icons/v2/cafe_pinlet", "name": "Dream Catcher Accessory & Cafe", "permanently_closed": true, "photos": [{"height": 2048, "html_attributions": ["<a href=\"https://maps.google.com/maps/contrib/105242197693938521407\">Dream Catcher Accessory &amp; Cafe</a>"], "photo_reference": "AW30NDyBYtut8NnOESVSLoJbv7d0d52-yK5LYgh98-CBeSaB4WgPVK8xD8aYV_A0kiUtbBta0N1yjxfGx1Dazzn7w9u1IvH7IhedZ4PKzl_fIZ9_HNS7NBTpVKly9rprQNdSczgBzkEw7TO7QYBkYQc7CeP85UbwLSn-Ux59g7-3Zzx73HZW", "width": 1152}], "place_id": "ChIJhxa0nW7LyhQRnLuXIBS-iWs", "plus_code": {"compound_code": "4373+7H Sar\u0131yer/\u0130stanbul, Turkey", "global_code": "8GHF4373+7H"}, "rating": 4.8, "reference": "ChIJhxa0nW7LyhQRnLuXIBS-iWs", "scope": "GOOGLE", "types": ["cafe", "food", "point_of_interest", "establishment"], "user_ratings_total": 5, "vicinity": "\u0130stinye, Ortak\u00e7\u0131 \u00c7\u0131kmaz\u0131, Sokak No:9C"}, {"business_status": "OPERATIONAL", "geometry": {"location": {"lat": 41.1131963, "lng": 29.05442390000001}, "viewport": {"northeast": {"lat": 41.1144108302915, "lng": 29.0560613302915}, "southwest": {"lat": 41.1117128697085, "lng": 29.05336336970851}}}, "icon": "https://maps.gstatic.com/mapfiles/place_api/icons/v1/png_71/generic_business-71.png", "icon_background_color": "#7B9EB0", "icon_mask_base_uri": "https://maps.gstatic.com/mapfiles/place_api/icons/v2/generic_pinlet", "name": "K\u00d6K CAFE & BALIK", "opening_hours": {"open_now": true}, "photos": [{"height": 4640, "html_attributions": ["<a href=\"https://maps.google.com/maps/contrib/106098539438552555214\">Mustafa G\u00f6kmen Co\u015fgun</a>"], "photo_reference": "AW30NDytXpsW1Brp7Ye6OqO8VWrwdN6esqyMkI8FrcyncjoKtBfug8PjkOHaI0cJT4_WBWBB4sNLpMVnN0rllhU134MQpqFeggvgb_IizdMt9HRehBcESvsS8OFwQ2xSy-HC-4KXz9fkkMYNLYBhn0mTp0qKsh0Pjcg2I9_QsgccjyQyAipF", "width": 3472}], "place_id": "ChIJJfNdZHrKyhQRw53tBacPgv8", "plus_code": {"compound_code": "4373+7Q Sar\u0131yer/\u0130stanbul, Turkey", "global_code": "8GHF4373+7Q"}, "rating": 3.8, "reference": "ChIJJfNdZHrKyhQRw53tBacPgv8", "scope": "GOOGLE", "types": ["cafe", "food", "point_of_interest", "establishment"], "user_ratings_total": 349, "vicinity": "\u0130stinye, \u0130stinye Caddesi No:5"}], "status": "OK"}