{"html_attributions": [], "next_page_token": "AW30NDyf8nef3FYV3FsYFVzeWmFb8GePD80ksxdBZ7VaRGpCxTHYmZ8Yryyc45wRFOZHiy4bUI5Z8lnFKlNGrjWGmRmjXk8N_7-fu0EHNOl_8__7J53-TX-_sda89iChbEFZj0gpUH0ck4YchlRvt9UiaewSvzyCUEALZLGpZSV8UN061q5P-dItVJQYiGbvRl-oOSL0XKGxsWHJ7cmp4jWGOSYpnEyNQBU7yvCmYpxl3kxNxiyn3xH2VwlUccwVkkT42Q3CUovmhSqZCzI0s0no7ExAj9NBRLLJccyYu1W6BgQdXdtNMVP3SkmpUxb-ibDCMwyMRuWlMXX-9x5wx6WRgaopdwcKe8LRDLeg0hy0OS9T5T6IhOuuIMIPQ8Jx_cgM27wFlg0Gaxz2RLs55Ym6ZZSoOk8JL4Y-nTu5ZTlhXjoZRJRv-QqK", "results": [{"business_status": "CLOSED_TEMPORARILY", "geometry": {"location": {"lat": 41.0228936, "lng": 29.0156189}, "viewport": {"northeast": {"lat": 41.02424653029149, "lng": 29.0170234302915}, "southwest": {"lat": 41.02154856970849, "lng": 29.01432546970851}}}, "icon": "https://maps.gstatic.com/mapfiles/place_api/icons/v1/png_71/cafe-71.png", "icon_background_color": "#FF9E67", "icon_mask_base_uri": "https://maps.gstatic.com/mapfiles/place_api/icons/v2/cafe_pinlet", "name": "Big Lions Cafe ve Restaurant", "permanently_closed": true, "photos": [{"height": 3024, "html_attributions": ["<a href=\"https://maps.google.com/maps/contrib/115987504782301768834\">Erdem Erdem</a>"], "photo_reference": "AW30NDx93NfI5bDjn1Er2hbTvRjx-WoDupWRkTKYWpFKfQJNYda6xQojxzcCecDZo6aRY_MQq5Epj0ni4Y7LkZjqSZjcdVLEQQj2uFrTBZnFOeJoGVawwYq0wpRSszWHqRCbEH7Q1-yIXTMwx5B9E9VdURBALadCZUjkL1aBeq-A5swx2KzV", "width": 4032}], "place_id": "ChIJnZL844u3yhQRRQ687NcNgE0", "plus_code": {"compound_code": "22F8+56 \u00dcsk\u00fcdar/\u0130stanbul, Turkey", "global_code": "8GHF22F8+56"}, "rating": 3.9, "reference": "ChIJnZL844u3yhQRRQ687NcNgE0", "scope": "GOOGLE", "types": ["cafe", "point_of_interest", "food", "establishment"], "user_ratings_total": 37, "vicinity": "Aziz Mahmut H\u00fcdayi, Hakimiyeti Milliye Caddesi No:58"}, {"business_status": "OPERATIONAL", "geometry": {"location": {"lat": 41.0162167, "lng": 29.0107322}, "viewport": {"northeast": {"lat": 41.0175313302915, "lng": 29.0119688802915}, "southwest": {"lat": 41.01483336970851, "lng": 29.0092709197085}}}, "icon": "https://maps.gstatic.com/mapfiles/place_api/icons/v1/png_71/cafe-71.png", "icon_background_color": "#FF9E67", "icon_mask_base_uri": "https://maps.gstatic.com/mapfiles/place_api/icons/v2/cafe_pinlet", "name": "Cafe 5. Cadde", "opening_hours": {"open_now": true}, "photos": [{"height": 900, "html_attributions": ["<a href=\"https://maps.google.com/maps/contrib/108598525538022550909\">Bulent Polat</a>"], "photo_reference": "AW30NDyo1bc5BLivsg4Amz5sqIMFTO6gzdt9ApAxu4mrOvo1OQdbGqENdU-_g1TRwMgJliedHFgXbMdvWWWEKNzjqZTIlVU51_ONsDQyrxKAjZdNc07YMiLahEUtsNzPV72g_I1oA0JUwgEQo2NTlq0uSq9Pt9EE9QQ_pETYqjp7WT4VYrie", "width": 1920}], "place_id": "ChIJ8yqioiS4yhQRvx3wEzoIdf4", "plus_code": {"compound_code": "2286+F7 \u00dcsk\u00fcdar/\u0130stanbul, Turkey", "global_code": "8GHF2286+F7"}, "price_level": 2, "rating": 3.9, "reference": "ChIJ8yqioiS4yhQRvx3wEzoIdf4", "scope": "GOOGLE", "types": ["cafe", "restaurant", "point_of_interest", "food", "establishment"], "user_ratings_total": 1993, "vicinity": "Salacak, \u00dcsk\u00fcdar Harem Sahil Yolu No:29"}, {"business_status": "CLOSED_TEMPORARILY", "geometry": {"location": {"lat": 41.020077, "lng": 29.00799}, "viewport": {"northeast": {"lat": 41.02140293029149, "lng": 29.0093047802915}, "southwest": {"lat": 41.0187049697085, "lng": 29.0066068197085}}}, "icon": "https://maps.gstatic.com/mapfiles/place_api/icons/v1/png_71/cafe-71.png", "icon_background_color": "#FF9E67", "icon_mask_base_uri": "https://maps.gstatic.com/mapfiles/place_api/icons/v2/cafe_pinlet", "name": "Telekom Teknik Elemanlari Dernegi", "permanently_closed": true, "photos": [{"height": 3264, "html_attributions": ["<a href=\"https://maps.google.com/maps/contrib/104127356428401772843\">\u0130brahim Tosun</a>"], "photo_reference": "AW30NDxj-pXj-1COILjJfb1JDFTAFZiPTM1J4qDicVuW05Fo4DKx9HR1Uv7jY4r1cx6MbUqDZH7DMgHCZlOjTklfih7cdrh8L_LAlHwbYLOlCLs6eGzZy92vSRi3kqeAjRxsf4YzG-1ByfReGeNWsNbruC_wCyP5bWXXgkq4eGCA6r_sGhde", "width": 2448}], "place_id": "ChIJl9e9Him4yhQRy7kMLSMA8WM", "plus_code": {"compound_code": "22C5+25 \u00dcsk\u00fcdar/\u0130stanbul, Turkey", "global_code": "8GHF22C5+25"}, "rating": 4.2, "reference": "ChIJl9e9Him4yhQRy7kMLSMA8WM", "scope": "GOOGLE", "types": ["cafe", "point_of_interest", "food", "establishment"], "user_ratings_total": 6, "vicinity": "Salacak, \u00dcsk\u00fcdar Harem Sahil Yolu No:17"}, {"business_status": "OPERATIONAL", "geometry": {"location": {"lat": 41.0203384, "lng": 29.0083046}, "viewport": {"northeast": {"lat": 41.0216456802915, "lng": 29.0095451302915}, "southwest": {"lat": 41.01894771970851, "lng": 29.0068471697085}}}, "icon": "https://maps.gstatic.com/mapfiles/place_api/icons/v1/png_71/cafe-71.png", "icon_background_color": "#FF9E67", "icon_mask_base_uri": "https://maps.gstatic.com/mapfiles/place_api/icons/v2/cafe_pinlet", "name": "MADO Salacak", "opening_hours": {"open_now": true}, "photos": [{"height": 4000, "html_attributions": ["<a href=\"https://maps.google.com/maps/contrib/115033991720128920708\">Ledia</a>"], "photo_reference": "AW30NDxWtjBMux0XUmjJkvHLfkl9kSl20xI3equyJNo91zPfFYaZaEgHL7xD9rIxedzqso1-TPXXhwbUHoeO2Wh-UXjgnx6Fgl6zu_Sjk3QuNLD5x3Gt3GI_gHIRRSvaRsbvTvWdsW4FBtmw6uZsYfv5-5nkbx_eOlbEAgPvdofq_7hhMzoq", "width": 3000}], "place_id": "ChIJ0azS4ii4yhQRoBMtVsNSNZU", "plus_code": {"compound_code": "22C5+48 \u00dcsk\u00fcdar/\u0130stanbul, Turkey", "global_code": "8GHF22C5+48"}, "price_level": 3, "rating": 3.8, "reference": "ChIJ0azS4ii4yhQRoBMtVsNSNZU", "scope": "GOOGLE", "types": ["cafe", "restaurant", "point_of_interest", "food", "establishment"], "user_ratings_total": 2073, "vicinity": "Salacak, Salacak \u0130skele Caddesi 161-2"}, {"business_status": "OPERATIONAL", "geometry": {"location": {"lat": 41.02495959999999, "lng": 29.0113108}, "viewport": {"northeast": {"lat": 41.02636008029149, "lng": 29.01274253029149}, "southwest": {"lat": 41.02366211970849, "lng": 29.0100445697085}}}, "icon": "https://maps.gstatic.com/mapfiles/place_api/icons/v1/png_71/restaurant-71.png", "icon_background_color": "#FF9E67", "icon_mask_base_uri": "https://maps.gstatic.com/mapfiles/place_api/icons/v2/restaurant_pinlet", "name": "Salacak Cafe & Restaurant", "opening_hours": {"open_now": true}, "photos": [{"height": 3840, "html_attributions": ["<a href=\"https://maps.google.com/maps/contrib/109089560485508210067\">Turgut TUN\u00c7</a>"], "photo_reference": "AW30NDzl5jJIqyKMyLo-EpWWaM1No3mgYR2pfJXWEE0viLjEon6E_pH00SuQkflnC6R0jH3fKP3F-PDa8L5AHGb45zEdBVKHSdlx6UsCazgeiw1vwrgKucvw4aOZUJA20Esnya7WwVz16QjgMntNUqW8mBg8_f9R5t53YQ7xgO1WQ_YAVxYE", "width": 2160}], "place_id": "ChIJMdltgYi3yhQRmzrKRW74mcQ", "plus_code": {"compound_code": "22F6+XG \u00dcsk\u00fcdar/\u0130stanbul, Turkey", "global_code": "8GHF22F6+XG"}, "rating": 3.6, "reference": "ChIJMdltgYi3yhQRmzrKRW74mcQ", "scope": "GOOGLE", "types": ["cafe", "restaurant", "point_of_interest", "food", "establishment"], "user_ratings_total": 157, "vicinity": "Mimar Sinan, \u00dcsk\u00fcdar Harem Sahil Yolu 47/A"}, {"business_status": "CLOSED_TEMPORARILY", "geometry": {"location": {"lat": 41.0243199, "lng": 29.0135572}, "viewport": {"northeast": {"lat": 41.0256805302915, "lng": 29.0149103302915}, "southwest": {"lat": 41.0229825697085, "lng": 29.0122123697085}}}, "icon": "https://maps.gstatic.com/mapfiles/place_api/icons/v1/png_71/cafe-71.png", "icon_background_color": "#FF9E67", "icon_mask_base_uri": "https://maps.gstatic.com/mapfiles/place_api/icons/v2/cafe_pinlet", "name": "Ahlul Keyf", "permanently_closed": true, "photos": [{"height": 1440, "html_attributions": ["<a href=\"https://maps.google.com/maps/contrib/113518595186015748350\">\u015fenol \u00f6z\u00e7evik</a>"], "photo_reference": "AW30NDxLNWlgKPd1tPHn3-mBuavCfbSPcsPBlYESXOB2-uujH4NcJof2OxbGdCr9aUDQAICQ9R4BA4LsqI0kKY-DXEG2DaVPEWP32CcTBhnfvSxpmrwNCZD1ovifzEByrBfu6WmBsS0Con8wnJZcmAqWdR-ZF1818mxNDuhR8RTUXPG3DIMX", "width": 2560}], "place_id": "ChIJ08Fa-Yi3yhQR85GxmijuoDQ", "plus_code": {"compound_code": "22F7+PC \u00dcsk\u00fcdar/\u0130stanbul, Turkey", "global_code": "8GHF22F7+PC"}, "rating": 3.3, "reference": "ChIJ08Fa-Yi3yhQR85GxmijuoDQ", "scope": "GOOGLE", "types": ["cafe", "point_of_interest", "food", "establishment"], "user_ratings_total": 32, "vicinity": "Aziz Mahmut H\u00fcdayi, Uncular Caddesi 33/A"}, {"business_status": "OPERATIONAL", "geometry": {"location": {"lat": 41.02443, "lng": 29.013635}, "viewport": {"northeast": {"lat": 41.0257413302915, "lng": 29.0149705802915}, "southwest": {"lat": 41.0230433697085, "lng": 29.0122726197085}}}, "icon": "https://maps.gstatic.com/mapfiles/place_api/icons/v1/png_71/generic_business-71.png", "icon_background_color": "#7B9EB0", "icon_mask_base_uri": "https://maps.gstatic.com/mapfiles/place_api/icons/v2/generic_pinlet", "name": "Mawar Cafe PS3", "opening_hours": {"open_now": true}, "photos": [{"height": 422, "html_attributions": ["<a href=\"https://maps.google.com/maps/contrib/115619172489423744948\">Mawi Cafe Playstation</a>"], "photo_reference": "AW30NDxDT3Vz6Fosh0AnwxLcd3wEpPY6qbWnVKqplnnZIWUBCZ32rbCbpep_rSl4BzJASRj3bffeTXZjQZtIPJoElTnfZPH40jEgoXrN0vkQYJiwvZFz04wOULiC2fvVPTWE5VYnUEc837OqaJo6ZL9K80T5wkyK_iG38PIcqMu0ZV_YXho", "width": 750}], "place_id": "ChIJs5x0_Ii3yhQRTXjwtq55uhE", "plus_code": {"compound_code": "22F7+QF \u00dcsk\u00fcdar/\u0130stanbul, Turkey", "global_code": "8GHF22F7+QF"}, "rating": 4.2, "reference": "ChIJs5x0_Ii3yhQRTXjwtq55uhE", "scope": "GOOGLE", "types": ["cafe", "point_of_interest", "food", "establishment"], "user_ratings_total": 138, "vicinity": "Mimar Sinan, Uncular Caddesi 26/A"}, {"business_status": "OPERATIONAL", "geometry": {"location": {"lat": 41.025051, "lng": 29.013688}, "viewport": {"northeast": {"lat": 41.0263719302915, "lng": 29.0150569802915}, "southwest": {"lat": 41.0236739697085, "lng": 29.0123590197085}}}, "icon": "https://maps.gstatic.com/mapfiles/place_api/icons/v1/png_71/cafe-71.png", "icon_background_color": "#FF9E67", "icon_mask_base_uri": "https://maps.gstatic.com/mapfiles/place_api/icons/v2/cafe_pinlet", "name": "Ottomania \u00c7ikolata&Kahve", "opening_hours": {"open_now": true}, "photos": [{"height": 1710, "html_attributions": ["<a href=\"https://maps.google.com/maps/contrib/106273884028861599845\">Ottomania</a>"], "photo_reference": "AW30NDws4k2wPZAfxcX4e5kiFKbi2W4dRZTsByYaq0N85BVtQfoLynEJZN4fbXoMd41GMqTJOZXRs1ftw0SrpwGZkOHh2iejt3Rt3d4l5OZw3O35QN9UKRUeRshXFj60S2kvp2OU0EZlzB5ojnrICbtEuVxbTGev1lBNhWIeFkXDeyYleHc", "width": 2552}], "place_id": "ChIJKaw34Yi3yhQR058tZPRZyYM", "plus_code": {"compound_code": "22G7+2F \u00dcsk\u00fcdar/\u0130stanbul, Turkey", "global_code": "8GHF22G7+2F"}, "price_level": 2, "rating": 4.1, "reference": "ChIJKaw34Yi3yhQR058tZPRZyYM", "scope": "GOOGLE", "types": ["cafe", "point_of_interest", "food", "establishment"], "user_ratings_total": 933, "vicinity": "Mimar Sinan, Do\u011fanc\u0131lar Caddesi NO :14"}, {"business_status": "OPERATIONAL", "geometry": {"location": {"lat": 41.0248327, "lng": 29.014214}, "viewport": {"northeast": {"lat": 41.0262258302915, "lng": 29.0155330302915}, "southwest": {"lat": 41.0235278697085, "lng": 29.0128350697085}}}, "icon": "https://maps.gstatic.com/mapfiles/place_api/icons/v1/png_71/cafe-71.png", "icon_background_color": "#FF9E67", "icon_mask_base_uri": "https://maps.gstatic.com/mapfiles/place_api/icons/v2/cafe_pinlet", "name": "Coffee Mihrimah", "opening_hours": {"open_now": true}, "photos": [{"height": 480, "html_attributions": ["<a href=\"https://maps.google.com/maps/contrib/111170314546481253776\">Murat Ahmedo\u011flu</a>"], "photo_reference": "AW30NDyQlR4ksRVjYEJxUhY_OcduYQ7pe1sopEtYe0zsP_jvjGbR37lbi8g-PwwmSLIhApLJ7e33vvTho_scZtNEKmmPvPznhrsBwRwTd7eoKLVC5rfsxdm2pqdy4vGzV5nA2yDGC_fob-Xiy5IKZmtGeKOm4UNIM03qTduFYh1XO_gd93XN", "width": 639}], "place_id": "ChIJ8RHhHom3yhQRKRH8rTZcQWs", "plus_code": {"compound_code": "22F7+WM \u00dcsk\u00fcdar/\u0130stanbul, Turkey", "global_code": "8GHF22F7+WM"}, "price_level": 2, "rating": 4.4, "reference": "ChIJ8RHhHom3yhQRKRH8rTZcQWs", "scope": "GOOGLE", "types": ["cafe", "point_of_interest", "food", "store", "establishment"], "user_ratings_total": 1588, "vicinity": "Mimar Sinan, \u0130mam Nas\u0131r Sokak No:10"}, {"business_status": "OPERATIONAL", "geometry": {"location": {"lat": 41.0235439, "lng": 29.0149021}, "viewport": {"northeast": {"lat": 41.0248990802915, "lng": 29.0162776802915}, "southwest": {"lat": 41.02220111970851, "lng": 29.0135797197085}}}, "icon": "https://maps.gstatic.com/mapfiles/place_api/icons/v1/png_71/cafe-71.png", "icon_background_color": "#FF9E67", "icon_mask_base_uri": "https://maps.gstatic.com/mapfiles/place_api/icons/v2/cafe_pinlet", "name": "Cafe SAKLIKOY", "opening_hours": {"open_now": true}, "photos": [{"height": 3016, "html_attributions": ["<a href=\"https://maps.google.com/maps/contrib/108681301015349979656\">Cafe SAKLIK\u00d6Y</a>"], "photo_reference": "AW30NDzmItzp7Fm_C1hzwduA_BIA-f77hJ_0yixi6d0KkIT4IIeDcr3qYG8gFcL0qbDjcFPyZ7EBOMOpo8jxARw7cAbxQwWYOk7zront2DpHG1acIJfBqWEQq2SHm7o0K4zoNjUllf2fNjD19R7HjJ5suEZII1qQVCZuslQYKCVYOcMkpd9G", "width": 4032}], "place_id": "ChIJQWKHpom3yhQRZGzSiOwafw8", "plus_code": {"compound_code": "22F7+CX \u00dcsk\u00fcdar/\u0130stanbul, Turkey", "global_code": "8GHF22F7+CX"}, "price_level": 2, "rating": 3.8, "reference": "ChIJQWKHpom3yhQRZGzSiOwafw8", "scope": "GOOGLE", "types": ["cafe", "point_of_interest", "food", "establishment"], "user_ratings_total": 310, "vicinity": "Aziz Mahmut H\u00fcdayi, G\u00fclfem Sokak 20-2"}, {"business_status": "OPERATIONAL", "geometry": {"location": {"lat": 41.02407940000001, "lng": 29.0148178}, "viewport": {"northeast": {"lat": 41.0254301802915, "lng": 29.01616738029149}, "southwest": {"lat": 41.0227322197085, "lng": 29.01346941970849}}}, "icon": "https://maps.gstatic.com/mapfiles/place_api/icons/v1/png_71/shopping-71.png", "icon_background_color": "#4B96F3", "icon_mask_base_uri": "https://maps.gstatic.com/mapfiles/place_api/icons/v2/shopping_pinlet", "name": "Tabi Tasar\u0131m D\u00fckkan", "opening_hours": {"open_now": true}, "photos": [{"height": 683, "html_attributions": ["<a href=\"https://maps.google.com/maps/contrib/100314972398969020178\">Tabi Tasar\u0131m D\u00fckkan</a>"], "photo_reference": "AW30NDwGNh6B2ZR3THPDg--qv5hx7gK-qOUar4R2hjSu30bI7evdTg7AXMzrJo5tdLJvhWeHHzHaX_W9eRov5jpkgrN0u0tjphOc5VNaVZEZUu7HNBU1Xq3-et6KmrupO3TgyMSSUGHLZWlehOSuV4lar7zZwbcaQMPY8nbYroKMINvPYxq7", "width": 1024}], "place_id": "ChIJV4sv24e3yhQRZ5Z6A2MdB0Y", "plus_code": {"compound_code": "22F7+JW \u00dcsk\u00fcdar/\u0130stanbul, Turkey", "global_code": "8GHF22F7+JW"}, "rating": 4.5, "reference": "ChIJV4sv24e3yhQRZ5Z6A2MdB0Y", "scope": "GOOGLE", "types": ["store", "cafe", "point_of_interest", "food", "establishment"], "user_ratings_total": 555, "vicinity": "Aziz Mahmut H\u00fcdayi, Uncular Caddesi No:11"}, {"business_status": "OPERATIONAL", "geometry": {"location": {"lat": 41.0241052, "lng": 29.0148587}, "viewport": {"northeast": {"lat": 41.02542478029149, "lng": 29.0161987802915}, "southwest": {"lat": 41.0227268197085, "lng": 29.0135008197085}}}, "icon": "https://maps.gstatic.com/mapfiles/place_api/icons/v1/png_71/cafe-71.png", "icon_background_color": "#FF9E67", "icon_mask_base_uri": "https://maps.gstatic.com/mapfiles/place_api/icons/v2/cafe_pinlet", "name": "POSO DE CAFE \u00dcSK\u00dcDAR", "opening_hours": {"open_now": true}, "photos": [{"height": 600, "html_attributions": ["<a href=\"https://maps.google.com/maps/contrib/112764465846607233985\">Halil ALTNY</a>"], "photo_reference": "AW30NDxSiqY8zgOwCHKmF-6TN3bYx4J4kHVQzTYdKs6IIy1SJOYvRr9yiXjlKdQNWCpC4SzZX6gpNdyRt2n-yOL2Lyyqdb9AbOkL-8ysH2eHi7mP-LaQ3Iqc5od4d8ZRlEv1a5OCQCIHTl2ikgW03drbf5TKPPd_9ua9Qz0x_-gDk2SFMTIg", "width": 800}], "place_id": "ChIJe4_eDom3yhQR1Pr81z7n2ac", "plus_code": {"compound_code": "22F7+JW \u00dcsk\u00fcdar/\u0130stanbul, Turkey", "global_code": "8GHF22F7+JW"}, "price_level": 2, "rating": 4.5, "reference": "ChIJe4_eDom3yhQR1Pr81z7n2ac", "scope": "GOOGLE", "types": ["cafe", "point_of_interest", "food", "establishment"], "user_ratings_total": 68, "vicinity": "Aziz Mahmut H\u00fcdayi, Uncular Caddesi 9/A"}, {"business_status": "OPERATIONAL", "geometry": {"location": {"lat": 41.0229918, "lng": 29.0156732}, "viewport": {"northeast": {"lat": 41.0243410302915, "lng": 29.01702568029149}, "southwest": {"lat": 41.0216430697085, "lng": 29.0143277197085}}}, "icon": "https://maps.gstatic.com/mapfiles/place_api/icons/v1/png_71/restaurant-71.png", "icon_background_color": "#FF9E67", "icon_mask_base_uri": "https://maps.gstatic.com/mapfiles/place_api/icons/v2/restaurant_pinlet", "name": "\u00c7imen", "opening_hours": {"open_now": true}, "photos": [{"height": 2268, "html_attributions": ["<a href=\"https://maps.google.com/maps/contrib/107503844008404569862\">Viktor Linkin</a>"], "photo_reference": "AW30NDyyPwdVTT78tsX4lbBQ3YCqoumZPeMtT4dvsrQLfUGjJB3QTRzMUdrEmsmJ4V1U7ODFPhnpPyBi_Kat0m1C4BoPKMjWg13dYgePwZNa04Gfe8zPMOs8JhjxXaiwVv28NwPmrSepoysSNfPUNC7BPOIg0FVCEPL7yv0UydohTJ_STuHQ", "width": 4032}], "place_id": "ChIJvZtuLh63yhQRn8_MDvWCZxw", "plus_code": {"compound_code": "22F8+57 \u00dcsk\u00fcdar/\u0130stanbul, Turkey", "global_code": "8GHF22F8+57"}, "price_level": 2, "rating": 4.1, "reference": "ChIJvZtuLh63yhQRn8_MDvWCZxw", "scope": "GOOGLE", "types": ["restaurant", "cafe", "point_of_interest", "food", "establishment"], "user_ratings_total": 3530, "vicinity": "Mimar Sinan, Hakimiyeti Milliye Caddesi 56/A"}, {"business_status": "OPERATIONAL", "geometry": {"location": {"lat": 41.02532660000001, "lng": 29.0108468}, "viewport": {"northeast": {"lat": 41.02680498029151, "lng": 29.0122585802915}, "southwest": {"lat": 41.02410701970851, "lng": 29.0095606197085}}}, "icon": "https://maps.gstatic.com/mapfiles/place_api/icons/v1/png_71/restaurant-71.png", "icon_background_color": "#FF9E67", "icon_mask_base_uri": "https://maps.gstatic.com/mapfiles/place_api/icons/v2/restaurant_pinlet", "name": "Katibim Cafe Hookah", "opening_hours": {"open_now": true}, "photos": [{"height": 3468, "html_attributions": ["<a href=\"https://maps.google.com/maps/contrib/115312347494946729676\">asli bedi</a>"], "photo_reference": "AW30NDzWWw8oERgz_CLAPdyOHij5sBTxBy2NsUOhrnnd0TLDEXULSi22GlSKor5z-mNa1ULSIT7iwDFVkbnF5Focns9sIM-xu26U-n0RB0CC-QEk6lY5h-l9DavnW_5aSsn6RSia_h__loHrssYyR7Hc7Vad8khngNqSs3nnstMQgZ29Xiz5", "width": 4624}], "place_id": "ChIJ-eXz7Yi3yhQRC3ES5dv-exE", "plus_code": {"compound_code": "22G6+48 \u00dcsk\u00fcdar/\u0130stanbul, Turkey", "global_code": "8GHF22G6+48"}, "price_level": 2, "rating": 4, "reference": "ChIJ-eXz7Yi3yhQRC3ES5dv-exE", "scope": "GOOGLE", "types": ["cafe", "restaurant", "point_of_interest", "food", "establishment"], "user_ratings_total": 5721, "vicinity": "Mimar Sinan Mahallesi \u015eemsi Pa\u015fa, \u00dcsk\u00fcdar Harem Sahil Yolu No:53"}, {"business_status": "OPERATIONAL", "geometry": {"location": {"lat": 41.0215987, "lng": 29.0072091}, "viewport": {"northeast": {"lat": 41.0228961802915, "lng": 29.0083588802915}, "southwest": {"lat": 41.0201982197085, "lng": 29.0056609197085}}}, "icon": "https://maps.gstatic.com/mapfiles/place_api/icons/v1/png_71/cafe-71.png", "icon_background_color": "#FF9E67", "icon_mask_base_uri": "https://maps.gstatic.com/mapfiles/place_api/icons/v2/cafe_pinlet", "name": "Bera Cafe & Patisserie K\u0131z Kulesi", "opening_hours": {"open_now": true}, "photos": [{"height": 1200, "html_attributions": ["<a href=\"https://maps.google.com/maps/contrib/116980634339523279438\">Bera Cafe &amp; Patisserie K\u0131z Kulesi</a>"], "photo_reference": "AW30NDzowU0a16qIoJ1uinlbkbiKvIoqqt_IN2Si6qBB7WgRU2HtHi4EjkZwzLZkqbzOll5t97oIn5IwvqMZRY2TwptA7c3GCcWgrdXhgRqrHXC-QLrJxEuSRq8UZku3TtPxLea-s7Dd3oyBi-lsGC4noxuMqmmX7WgpTIBqTaZAdrGVI7J8", "width": 960}], "place_id": "ChIJpRMaSpm5yhQRdq7zolXokl8", "plus_code": {"compound_code": "22C4+JV \u00dcsk\u00fcdar/\u0130stanbul, Turkey", "global_code": "8GHF22C4+JV"}, "price_level": 2, "rating": 4.2, "reference": "ChIJpRMaSpm5yhQRdq7zolXokl8", "scope": "GOOGLE", "types": ["cafe", "restaurant", "point_of_interest", "food", "establishment"], "user_ratings_total": 799, "vicinity": "Salacak, \u00dcsk\u00fcdar Harem Sahil Yolu No:69"}, {"business_status": "OPERATIONAL", "geometry": {"location": {"lat": 41.0225339, "lng": 29.0069955}, "viewport": {"northeast": {"lat": 41.0238690802915, "lng": 29.0084930802915}, "southwest": {"lat": 41.0211711197085, "lng": 29.0057951197085}}}, "icon": "https://maps.gstatic.com/mapfiles/place_api/icons/v1/png_71/cafe-71.png", "icon_background_color": "#FF9E67", "icon_mask_base_uri": "https://maps.gstatic.com/mapfiles/place_api/icons/v2/cafe_pinlet", "name": "F terrace cafe", "opening_hours": {"open_now": true}, "photos": [{"height": 3024, "html_attributions": ["<a href=\"https://maps.google.com/maps/contrib/105235154650696249025\">Tuto Breve</a>"], "photo_reference": "AW30NDy6jq68yvi9Bss2wsefz7z-7bQj7Gb1LDb9zGr5WXydtrNguu_TMfxSSjqdhjFXL_IqwtraYz2uyPWTksgsSOCSzUhd5Rr-GKPST3Ex0wx_Viachv2aVNWFItrKKgX7TA2xsslQ_Vnd6fMD0NWeIjylB_C-Q4Pr89Unm5qBgPogYsV1", "width": 4032}], "place_id": "ChIJf85uxD25yhQRPC5n6d_yDkY", "plus_code": {"compound_code": "22F4+2Q \u00dcsk\u00fcdar/\u0130stanbul, Turkey", "global_code": "8GHF22F4+2Q"}, "rating": 3.5, "reference": "ChIJf85uxD25yhQRPC5n6d_yDkY", "scope": "GOOGLE", "types": ["cafe", "point_of_interest", "food", "store", "establishment"], "user_ratings_total": 17, "vicinity": "Salacak, \u00d6\u011fd\u00fcl Sokak No:39"}, {"business_status": "CLOSED_TEMPORARILY", "geometry": {"location": {"lat": 41.0206615, "lng": 29.0081451}, "viewport": {"northeast": {"lat": 41.02196738029149, "lng": 29.0095341802915}, "southwest": {"lat": 41.01926941970849, "lng": 29.0068362197085}}}, "icon": "https://maps.gstatic.com/mapfiles/place_api/icons/v1/png_71/cafe-71.png", "icon_background_color": "#FF9E67", "icon_mask_base_uri": "https://maps.gstatic.com/mapfiles/place_api/icons/v2/cafe_pinlet", "name": "\u00c7\u0131naralt\u0131 \u00c7ay Kahve", "permanently_closed": true, "place_id": "ChIJ2ZEPPDq4yhQRKsXYywcQFp8", "plus_code": {"compound_code": "22C5+77 \u00dcsk\u00fcdar/\u0130stanbul, Turkey", "global_code": "8GHF22C5+77"}, "rating": 4, "reference": "ChIJ2ZEPPDq4yhQRKsXYywcQFp8", "scope": "GOOGLE", "types": ["cafe", "point_of_interest", "food", "establishment"], "user_ratings_total": 1, "vicinity": "Salacak, Salacak \u0130skele Caddesi No:7"}, {"business_status": "CLOSED_TEMPORARILY", "geometry": {"location": {"lat": 41.01995100000001, "lng": 29.008146}, "viewport": {"northeast": {"lat": 41.0212756802915, "lng": 29.00945893029149}, "southwest": {"lat": 41.0185777197085, "lng": 29.00676096970849}}}, "icon": "https://maps.gstatic.com/mapfiles/place_api/icons/v1/png_71/cafe-71.png", "icon_background_color": "#FF9E67", "icon_mask_base_uri": "https://maps.gstatic.com/mapfiles/place_api/icons/v2/cafe_pinlet", "name": "Red & Black Cafe", "permanently_closed": true, "place_id": "ChIJ41YEXCW4yhQRwixIYaZXTqw", "plus_code": {"compound_code": "2295+X7 \u00dcsk\u00fcdar/\u0130stanbul, Turkey", "global_code": "8GHF2295+X7"}, "reference": "ChIJ41YEXCW4yhQRwixIYaZXTqw", "scope": "GOOGLE", "types": ["cafe", "point_of_interest", "food", "store", "establishment"], "vicinity": "Salacak, \u00dcsk\u00fcdar Harem Sahil Yolu No 29"}, {"business_status": "OPERATIONAL", "geometry": {"location": {"lat": 41.01995100000001, "lng": 29.008146}, "viewport": {"northeast": {"lat": 41.0212756802915, "lng": 29.00945893029149}, "southwest": {"lat": 41.0185777197085, "lng": 29.00676096970849}}}, "icon": "https://maps.gstatic.com/mapfiles/place_api/icons/v1/png_71/cafe-71.png", "icon_background_color": "#FF9E67", "icon_mask_base_uri": "https://maps.gstatic.com/mapfiles/place_api/icons/v2/cafe_pinlet", "name": "Karl\u0131k Cafe", "opening_hours": {"open_now": true}, "photos": [{"height": 4032, "html_attributions": ["<a href=\"https://maps.google.com/maps/contrib/105737632426128988283\">Kamuran YILMAZ</a>"], "photo_reference": "AW30NDzB0-mk9aDGEOmjGRtn6tbOPI0f20pc_mTl0sVw0dburh9oLx-FkFIMXjy1M9dOfNCXo-_x93cMvSsi_FrBdUoqbUcoPBZ2S6of1r0hDlOMD0nQPU7xLIoTV8VpKNtc6sKIRMSakrb7NSV_TwQByqA1KLYaiyS9KWPspTmkotBaFYxg", "width": 1908}], "place_id": "ChIJXVsrHim4yhQRvuMORprLrng", "plus_code": {"compound_code": "2295+X7 \u00dcsk\u00fcdar/\u0130stanbul, Turkey", "global_code": "8GHF2295+X7"}, "rating": 3.7, "reference": "ChIJXVsrHim4yhQRvuMORprLrng", "scope": "GOOGLE", "types": ["cafe", "point_of_interest", "food", "establishment"], "user_ratings_total": 50, "vicinity": "Salacak, \u00dcsk\u00fcdar Harem Sahil Yolu No:29"}, {"business_status": "CLOSED_TEMPORARILY", "geometry": {"location": {"lat": 41.01995100000001, "lng": 29.008146}, "viewport": {"northeast": {"lat": 41.0212756802915, "lng": 29.00945893029149}, "southwest": {"lat": 41.0185777197085, "lng": 29.00676096970849}}}, "icon": "https://maps.gstatic.com/mapfiles/place_api/icons/v1/png_71/cafe-71.png", "icon_background_color": "#FF9E67", "icon_mask_base_uri": "https://maps.gstatic.com/mapfiles/place_api/icons/v2/cafe_pinlet", "name": "Sidoma Cafe", "permanently_closed": true, "place_id": "ChIJXVsrHim4yhQRqPIjRmGa-48", "plus_code": {"compound_code": "2295+X7 \u00dcsk\u00fcdar/\u0130stanbul, Turkey", "global_code": "8GHF2295+X7"}, "reference": "ChIJXVsrHim4yhQRqPIjRmGa-48", "scope": "GOOGLE", "types": ["cafe", "point_of_interest", "food", "establishment"], "vicinity": "Salacak, \u00dcsk\u00fcdar Harem Sahil Yolu No:29"}], "status": "OK"}