{"html_attributions": [], "next_page_token": "AW30NDx6QJkOj_fEqEon3IyafqV8vFYnyQlHRTP8H9QjH8RKq-H8H1F2X9j4YL58C3cZHqWG8ol2lnJq6ZV3ihJ7MYVyAmZ4ztoTwRkLCP7PQaaQ-bcbG9jE7t2kryiFNs9Q0Q1ojZOLHW5eslDZgomEcGg_E2DI1eKZufD81fsH2iJIN35FswYfwCz-pOWJr57trffGOTWFtGhzj_tFfxk-Fiy9oJ41zq0hQz_ZfBoJzeiOcP3Btcq6uVF2ol5pPVOHnSzJJYtrWBRYu6q_Njm7eA9s7ZFdgTqHKRhRmLImqvzSQVN1bcwnbXGJ20SAXAfNEt9Ki2qUT_T2GxQyBk86dkvqTLSbOjnyEW9lottP7j8PJL2rzBse5mPzq6HSVzBJ37g1FJNwYJ9In6aiwKhwnS-PfRZn7ssk6zEpOJXhhgt8ZyszArZX", "results": [{"business_status": "OPERATIONAL", "geometry": {"location": {"lat": 41.01743399999999, "lng": 28.964572}, "viewport": {"northeast": {"lat": 41.0187829802915, "lng": 28.9659220802915}, "southwest": {"lat": 41.0160850197085, "lng": 28.9632241197085}}}, "icon": "https://maps.gstatic.com/mapfiles/place_api/icons/v1/png_71/cafe-71.png", "icon_background_color": "#FF9E67", "icon_mask_base_uri": "https://maps.gstatic.com/mapfiles/place_api/icons/v2/cafe_pinlet", "name": "Agha Gate", "opening_hours": {"open_now": true}, "photos": [{"height": 2448, "html_attributions": ["<a href=\"https://maps.google.com/maps/contrib/113610655029957332762\">A\u011fa Kap\u0131s\u0131</a>"], "photo_reference": "AW30NDydwvbuRbIztID7aVDBtKeVUcZuP_JtqpvpZeQySo0H7k15iygCBkoLyeEM4Vgiron8r-a5p7j0zReBudLvVOP2EYJhWmDTRwiFF9WhNQ_ugXzILmD265NL9iAfzMyWCoRfM9NilshHZydVCDJ4i4JR_IqEXOEvP2Lo_zUgNiJsTn7X", "width": 2448}], "place_id": "ChIJv1t7p_K5yhQRHSxFrbaahvU", "plus_code": {"compound_code": "2X87+XR Fatih/\u0130stanbul, Turkey", "global_code": "8GHC2X87+XR"}, "price_level": 2, "rating": 4.2, "reference": "ChIJv1t7p_K5yhQRHSxFrbaahvU", "scope": "GOOGLE", "types": ["cafe", "point_of_interest", "food", "establishment"], "user_ratings_total": 3860, "vicinity": "S\u00fcleymaniye, Fetva Yoku\u015fu, Naz\u0131r \u0130zzet Efendi Sokak No:11"}, {"business_status": "OPERATIONAL", "geometry": {"location": {"lat": 41.0153183, "lng": 28.9584202}, "viewport": {"northeast": {"lat": 41.01665638029149, "lng": 28.9597990302915}, "southwest": {"lat": 41.01395841970849, "lng": 28.9571010697085}}}, "icon": "https://maps.gstatic.com/mapfiles/place_api/icons/v1/png_71/cafe-71.png", "icon_background_color": "#FF9E67", "icon_mask_base_uri": "https://maps.gstatic.com/mapfiles/place_api/icons/v2/cafe_pinlet", "name": "Vefa Bozacisi", "opening_hours": {"open_now": true}, "photos": [{"height": 3024, "html_attributions": ["<a href=\"https://maps.google.com/maps/contrib/110294918401531612684\">Alfa</a>"], "photo_reference": "AW30NDz5i6Bw3ilhG_nHY_6kOEPhDF2WYTjQw-DqtkYBfolMNAMncf7gjhkzQoofOUEyKIy0jREjoaaYsokd_mHvZ2_Wa7FBo_ukNC_u0sqzk9u7aSZ_86vhU5Pf2Y4p7JdhEzgimS6HgCcgoPRqoDsrUn_caRAbOfYL6J6Gw1WQlEGzPAu9", "width": 4032}], "place_id": "ChIJNRVgoIy5yhQRdNH4KPnjiTo", "plus_code": {"compound_code": "2X85+49 Fatih/\u0130stanbul, Turkey", "global_code": "8GHC2X85+49"}, "price_level": 2, "rating": 4.6, "reference": "ChIJNRVgoIy5yhQRdNH4KPnjiTo", "scope": "GOOGLE", "types": ["cafe", "point_of_interest", "food", "establishment"], "user_ratings_total": 13447, "vicinity": "Mollah\u00fcsrev, Vefa Caddesi No:66"}, {"business_status": "CLOSED_TEMPORARILY", "geometry": {"location": {"lat": 41.020306, "lng": 28.9587615}, "viewport": {"northeast": {"lat": 41.0216169802915, "lng": 28.96019713029149}, "southwest": {"lat": 41.01891901970851, "lng": 28.95749916970849}}}, "icon": "https://maps.gstatic.com/mapfiles/place_api/icons/v1/png_71/cafe-71.png", "icon_background_color": "#FF9E67", "icon_mask_base_uri": "https://maps.gstatic.com/mapfiles/place_api/icons/v2/cafe_pinlet", "name": "Unkapani Korku Evi Karaoke", "permanently_closed": true, "photos": [{"height": 1080, "html_attributions": ["<a href=\"https://maps.google.com/maps/contrib/104371317158556389702\">arzuhan ergin</a>"], "photo_reference": "AW30NDwFQnhH7h-NH8PpCxmodoUy5a3xn-W6EEDuqWOrzYRtztq3_KOXgI4U4APz3okQyE0_ZPAEu96k7SWLWwrpfdVpQiPI376p-mgfDU_daXRu3pjd_-g1o2Lx1_6vfBSK9px0M3KGsZ6hK-JfGgrU-CIWkjHQx7vL6pesGl78NcIu1u3s", "width": 1080}], "place_id": "ChIJ85vgffO5yhQRhS_QVloMifU", "plus_code": {"compound_code": "2XC5+4G Fatih/\u0130stanbul, Turkey", "global_code": "8GHC2XC5+4G"}, "rating": 3, "reference": "ChIJ85vgffO5yhQRhS_QVloMifU", "scope": "GOOGLE", "types": ["cafe", "point_of_interest", "food", "establishment"], "user_ratings_total": 1, "vicinity": "cibali mah. ataturk bulvari unlu is merkezi A blol no:21 2B/12 zemin kat unkapani"}, {"business_status": "OPERATIONAL", "geometry": {"location": {"lat": 41.020606, "lng": 28.958875}, "viewport": {"northeast": {"lat": 41.0218976802915, "lng": 28.96035463029149}, "southwest": {"lat": 41.0191997197085, "lng": 28.95765666970849}}}, "icon": "https://maps.gstatic.com/mapfiles/place_api/icons/v1/png_71/restaurant-71.png", "icon_background_color": "#FF9E67", "icon_mask_base_uri": "https://maps.gstatic.com/mapfiles/place_api/icons/v2/restaurant_pinlet", "name": "Zeyrek Fatih Kafe Restaurant", "opening_hours": {"open_now": true}, "photos": [{"height": 2268, "html_attributions": ["<a href=\"https://maps.google.com/maps/contrib/103257561309908764128\">Sofiane Barisi</a>"], "photo_reference": "AW30NDwBOTkvWE12H59-NyC_yg-T_IPkAHh1vzfRezOs3aHjeOVM3u-hmuTKpKnHtoe6UT1v755EBUM32Gk_RBeidpyt9IsXK5Hg5H-zF92V2waMweRJZiTWnMFDtVvZtM8QEn9fxYCLf85h6VWI-f6VPkLxa1FwErGL_CDIGoMzjWuf9XaI", "width": 4032}], "place_id": "ChIJXegZf_O5yhQR6SXSVwPwTBY", "plus_code": {"compound_code": "2XC5+6H Fatih/\u0130stanbul, Turkey", "global_code": "8GHC2XC5+6H"}, "price_level": 2, "rating": 4.2, "reference": "ChIJXegZf_O5yhQR6SXSVwPwTBY", "scope": "GOOGLE", "types": ["restaurant", "cafe", "point_of_interest", "food", "establishment"], "user_ratings_total": 265, "vicinity": "Cibali, Atat\u00fcrk Bulvar\u0131 No:23/1"}, {"business_status": "OPERATIONAL", "geometry": {"location": {"lat": 41.0187103, "lng": 28.9524524}, "viewport": {"northeast": {"lat": 41.02003973029149, "lng": 28.9537676802915}, "southwest": {"lat": 41.01734176970849, "lng": 28.9510697197085}}}, "icon": "https://maps.gstatic.com/mapfiles/place_api/icons/v1/png_71/restaurant-71.png", "icon_background_color": "#FF9E67", "icon_mask_base_uri": "https://maps.gstatic.com/mapfiles/place_api/icons/v2/restaurant_pinlet", "name": "T\u00fcrk i\u015fi Burger&Cake", "opening_hours": {"open_now": true}, "photos": [{"height": 3648, "html_attributions": ["<a href=\"https://maps.google.com/maps/contrib/112415721629679083958\">T\u00fcrk i\u015fi Burger&amp;Cake</a>"], "photo_reference": "AW30NDxxQ8CcUd3EPWQvpso9OblPVxG5DEydeNiB1JMJRcu81AqWJ3r8FnEVZ_RM5qBGS8xKZtHPlSeIp9kp8cyOpAJ_9BN1lTf01QIvQxCHarpdbuGChRYa8S6leZ5SA1ihI4RfTYNOoCBBqRLUMWkVebUlwu4igLdt4VntY86q4d4D22X4", "width": 5472}], "place_id": "ChIJa3S9cyC6yhQRojj3TR--vv0", "plus_code": {"compound_code": "2X92+FX Fatih/\u0130stanbul, Turkey", "global_code": "8GHC2X92+FX"}, "reference": "ChIJa3S9cyC6yhQRojj3TR--vv0", "scope": "GOOGLE", "types": ["cafe", "restaurant", "point_of_interest", "store", "food", "establishment"], "vicinity": "ali ku\u015f\u00e7u mah.at pazar\u0131 meydan sok.no 3, fatih"}, {"business_status": "CLOSED_TEMPORARILY", "geometry": {"location": {"lat": 41.0163551, "lng": 28.9550515}, "viewport": {"northeast": {"lat": 41.0177127302915, "lng": 28.95641008029149}, "southwest": {"lat": 41.01501476970851, "lng": 28.9537121197085}}}, "icon": "https://maps.gstatic.com/mapfiles/place_api/icons/v1/png_71/cafe-71.png", "icon_background_color": "#FF9E67", "icon_mask_base_uri": "https://maps.gstatic.com/mapfiles/place_api/icons/v2/cafe_pinlet", "name": "T\u00fcrk DAMASI kahvehanesi", "permanently_closed": true, "photos": [{"height": 720, "html_attributions": ["<a href=\"https://maps.google.com/maps/contrib/106455108790573071269\">Haider Ali Al-Yousef</a>"], "photo_reference": "AW30NDztkClWjL2pt1kBGwE0hMcGTy9tX1_i0fwP8Zaaz6aIRymBeT1ZFhgxPQmtsnwVC75VTE_9x5_ilpisY-6U4wo_GiGhiZk8c4Jb1pUM9m54i9UiRNUvgSrZtYKKBrPNbw_QvViFV10cyeE5lcKix88gTW8K5mTOAaRdvhehwHkp28_9", "width": 1280}], "place_id": "ChIJl5pfRYq5yhQR2-OOw7Y1lME", "plus_code": {"compound_code": "2X84+G2 Fatih/\u0130stanbul, Turkey", "global_code": "8GHC2X84+G2"}, "rating": 2, "reference": "ChIJl5pfRYq5yhQR2-OOw7Y1lME", "scope": "GOOGLE", "types": ["cafe", "point_of_interest", "food", "establishment"], "user_ratings_total": 2, "vicinity": "Zeyrek, Serdab Soka\u011f\u0131 No:6"}, {"business_status": "OPERATIONAL", "geometry": {"location": {"lat": 41.01842, "lng": 28.952426}, "viewport": {"northeast": {"lat": 41.01980813029149, "lng": 28.9538425302915}, "southwest": {"lat": 41.01711016970849, "lng": 28.9511445697085}}}, "icon": "https://maps.gstatic.com/mapfiles/place_api/icons/v1/png_71/cafe-71.png", "icon_background_color": "#FF9E67", "icon_mask_base_uri": "https://maps.gstatic.com/mapfiles/place_api/icons/v2/cafe_pinlet", "name": "Eski Kafa", "opening_hours": {"open_now": true}, "photos": [{"height": 4032, "html_attributions": ["<a href=\"https://maps.google.com/maps/contrib/107405346474031259552\">Selin Ozmen</a>"], "photo_reference": "AW30NDxjuiK2BlKZo8T7Xx3_2Hcsqzx4pl8CYWefyYeIPZ-b_vD-7kARgVqWwW9ZN4bvlKcVct-Y89QO7hyQsJQmcnaJzYWomi1klUcZcEO9gCZIGxDNDxRckQVcMYNprSYYD8pYbDjICfkRJTPLbueSTcvSYvIxOUKKAzOLyQiF5R95jXFm", "width": 3024}], "place_id": "ChIJT2N7diC6yhQRP8omILtW0VU", "plus_code": {"compound_code": "2X92+9X Fatih/\u0130stanbul, Turkey", "global_code": "8GHC2X92+9X"}, "price_level": 2, "rating": 4.2, "reference": "ChIJT2N7diC6yhQRP8omILtW0VU", "scope": "GOOGLE", "types": ["cafe", "point_of_interest", "food", "establishment"], "user_ratings_total": 240, "vicinity": "Ali Ku\u015f\u00e7u, At Pazar\u0131 Meydan\u0131 Sokak 15a"}, {"business_status": "OPERATIONAL", "geometry": {"location": {"lat": 41.0230545, "lng": 28.9608441}, "viewport": {"northeast": {"lat": 41.0244185302915, "lng": 28.9622808302915}, "southwest": {"lat": 41.0217205697085, "lng": 28.9595828697085}}}, "icon": "https://maps.gstatic.com/mapfiles/place_api/icons/v1/png_71/cafe-71.png", "icon_background_color": "#FF9E67", "icon_mask_base_uri": "https://maps.gstatic.com/mapfiles/place_api/icons/v2/cafe_pinlet", "name": "Zerina Cafe", "opening_hours": {"open_now": true}, "photos": [{"height": 1080, "html_attributions": ["<a href=\"https://maps.google.com/maps/contrib/108322269189762228046\">Zerina Cafe</a>"], "photo_reference": "AW30NDx-EZ-S0D5_mKCdrrI6KJpf1ipN0JL_eE__INjzYT1UZndNz-p3bs_5sHgCDkwCh9MRmuKRWx2e5PRxd6LacMASnrbmuOHkXsmtguBlqCZl0jlsyV5o0GwocQ_d7zI3oAEWdKyDVuYE6xjdEWYV4cKw6aAO_EK8So4emubKkuw1Zk9H", "width": 1080}], "place_id": "ChIJreMlYPG5yhQRdW_Vc98ocFU", "plus_code": {"compound_code": "2XF6+68 Fatih/\u0130stanbul, Turkey", "global_code": "8GHC2XF6+68"}, "price_level": 2, "rating": 4.2, "reference": "ChIJreMlYPG5yhQRdW_Vc98ocFU", "scope": "GOOGLE", "types": ["cafe", "point_of_interest", "food", "establishment"], "user_ratings_total": 939, "vicinity": "Cibali, Cemalettin Efendi Sokak No:2/A"}, {"business_status": "OPERATIONAL", "geometry": {"location": {"lat": 41.023248, "lng": 28.9607018}, "viewport": {"northeast": {"lat": 41.0246046302915, "lng": 28.9620316802915}, "southwest": {"lat": 41.0219066697085, "lng": 28.9593337197085}}}, "icon": "https://maps.gstatic.com/mapfiles/place_api/icons/v1/png_71/cafe-71.png", "icon_background_color": "#FF9E67", "icon_mask_base_uri": "https://maps.gstatic.com/mapfiles/place_api/icons/v2/cafe_pinlet", "name": "Alengir Cafe", "opening_hours": {"open_now": true}, "photos": [{"height": 440, "html_attributions": ["<a href=\"https://maps.google.com/maps/contrib/102831045323663826453\">Alengir Cafe</a>"], "photo_reference": "AW30NDzGOlsER936TOcWxRbTtWv6q0qFVmhCPc4ljmY4_veZif89luG7sPQW0ceWNNRYZAtvBgvQY0Ii0TMhAFwQWdEidn9FemNw-zvPCnY1BDglMEyQe05wt6V7acTAs41rINWG0Dq9nkWoaqwIbNEFqcqMedhHe1eqiJkoVEM94-AUatWb", "width": 782}], "place_id": "ChIJ5S7HbfG5yhQR98HTBRKLrjA", "plus_code": {"compound_code": "2XF6+77 Fatih/\u0130stanbul, Turkey", "global_code": "8GHC2XF6+77"}, "price_level": 2, "rating": 4.5, "reference": "ChIJ5S7HbfG5yhQR98HTBRKLrjA", "scope": "GOOGLE", "types": ["cafe", "point_of_interest", "food", "establishment"], "user_ratings_total": 360, "vicinity": "Cibali, Hisaralt\u0131 Caddesi No:7"}, {"business_status": "OPERATIONAL", "geometry": {"location": {"lat": 41.0170179, "lng": 28.9530237}, "viewport": {"northeast": {"lat": 41.0183408302915, "lng": 28.9544203802915}, "southwest": {"lat": 41.01564286970851, "lng": 28.9517224197085}}}, "icon": "https://maps.gstatic.com/mapfiles/place_api/icons/v1/png_71/cafe-71.png", "icon_background_color": "#FF9E67", "icon_mask_base_uri": "https://maps.gstatic.com/mapfiles/place_api/icons/v2/cafe_pinlet", "name": "Ehibb\u00e2 CAFE & RESTAURANT", "opening_hours": {"open_now": true}, "photos": [{"height": 540, "html_attributions": ["<a href=\"https://maps.google.com/maps/contrib/115038119499883072119\">Ehibb\u00e2 CAFE &amp; RESTAURANT</a>"], "photo_reference": "AW30NDy3DPTTktytTp8_XZXerDd6FfslXfKxDHy1xR77xggm86Xz2LUzVTgrc60FzrNThdwdN7-8C3oIig7eDbQKQwCWuOEaXvd2toTlUeeEsEQjE-u6wxkmInCCj54kKfQ8Ynq2KoWxj7nuhnoK4oPKu9iWKl5cH4eRPnNGKaJATRXOltl1", "width": 960}], "place_id": "ChIJE4x_d4q5yhQRl-nbY5JmZKI", "plus_code": {"compound_code": "2X83+R6 Fatih/\u0130stanbul, Turkey", "global_code": "8GHC2X83+R6"}, "rating": 4.3, "reference": "ChIJE4x_d4q5yhQRl-nbY5JmZKI", "scope": "GOOGLE", "types": ["cafe", "restaurant", "point_of_interest", "food", "establishment"], "user_ratings_total": 74, "vicinity": "Zeyrek, Haydar Bey Caddesi No:29"}, {"business_status": "OPERATIONAL", "geometry": {"location": {"lat": 41.023257, "lng": 28.9607}, "viewport": {"northeast": {"lat": 41.0246046302915, "lng": 28.9620316802915}, "southwest": {"lat": 41.0219066697085, "lng": 28.9593337197085}}}, "icon": "https://maps.gstatic.com/mapfiles/place_api/icons/v1/png_71/cafe-71.png", "icon_background_color": "#FF9E67", "icon_mask_base_uri": "https://maps.gstatic.com/mapfiles/place_api/icons/v2/cafe_pinlet", "name": "Apple Mint Cafe & Hookah", "opening_hours": {"open_now": true}, "photos": [{"height": 4000, "html_attributions": ["<a href=\"https://maps.google.com/maps/contrib/100818838249077707350\">Sema S\u00f6zen</a>"], "photo_reference": "AW30NDz8hS5MWWSalwI4tR2bKYLcgx7Eyw1wfRKXTqiMqjGRZGfImzA_YWakFZcmKjWKz4CjtOYSL_wOLN-Fa_1YogIaaWsXa_-C3vh8KgFhEfgvacAyLZdD8yp2WoVdoLIzw2JjjAsdy6rgo6bMAhLoT_-mIdi5_G1vAQ37GlRwPXEncjzG", "width": 3000}], "place_id": "ChIJffEObPG5yhQRYZSA9WPT4RI", "plus_code": {"compound_code": "2XF6+87 Fatih/\u0130stanbul, Turkey", "global_code": "8GHC2XF6+87"}, "price_level": 2, "rating": 4.2, "reference": "ChIJffEObPG5yhQRYZSA9WPT4RI", "scope": "GOOGLE", "types": ["cafe", "point_of_interest", "food", "establishment"], "user_ratings_total": 134, "vicinity": "Cibali, Hisaralt\u0131 Caddesi No:7, Unkapan\u0131 - Fatih"}, {"business_status": "OPERATIONAL", "geometry": {"location": {"lat": 41.01781190000001, "lng": 28.951981}, "viewport": {"northeast": {"lat": 41.0191719302915, "lng": 28.9533189802915}, "southwest": {"lat": 41.0164739697085, "lng": 28.9506210197085}}}, "icon": "https://maps.gstatic.com/mapfiles/place_api/icons/v1/png_71/cafe-71.png", "icon_background_color": "#FF9E67", "icon_mask_base_uri": "https://maps.gstatic.com/mapfiles/place_api/icons/v2/cafe_pinlet", "name": "\u015eam Kahvesi", "opening_hours": {"open_now": true}, "photos": [{"height": 608, "html_attributions": ["<a href=\"https://maps.google.com/maps/contrib/115819762341517475198\">\u015eam Kahvesi</a>"], "photo_reference": "AW30NDyBHQu8rIR2huAstN1Nw9raGou7XytGcuV4ZsNTItPRH_4t4TloI22v4dhzDIkcq05DHz1p5TXR29jG10S38mlANObkpEE79hHfZTwCBA2EHaS4pKWYmaEkWdF7O2E2CBNAShQ5W2GNGKHh3qZHVipB0rvGPOxTFbTa5qmC5hqj1jnW", "width": 1080}], "place_id": "ChIJA5uAYiC6yhQRM0M2k5AIdhg", "plus_code": {"compound_code": "2X92+4Q Fatih/\u0130stanbul, Turkey", "global_code": "8GHC2X92+4Q"}, "price_level": 2, "rating": 4.4, "reference": "ChIJA5uAYiC6yhQRM0M2k5AIdhg", "scope": "GOOGLE", "types": ["cafe", "restaurant", "point_of_interest", "store", "food", "establishment"], "user_ratings_total": 304, "vicinity": "Ali Ku\u015f\u00e7u, Taylasan Sokak"}, {"business_status": "CLOSED_TEMPORARILY", "geometry": {"location": {"lat": 41.0173683, "lng": 28.9508266}, "viewport": {"northeast": {"lat": 41.01871183029149, "lng": 28.9521657802915}, "southwest": {"lat": 41.01601386970849, "lng": 28.9494678197085}}}, "icon": "https://maps.gstatic.com/mapfiles/place_api/icons/v1/png_71/cafe-71.png", "icon_background_color": "#FF9E67", "icon_mask_base_uri": "https://maps.gstatic.com/mapfiles/place_api/icons/v2/cafe_pinlet", "name": "Hanende", "permanently_closed": true, "photos": [{"height": 810, "html_attributions": ["<a href=\"https://maps.google.com/maps/contrib/107586332715003176664\">Hanende</a>"], "photo_reference": "AW30NDzm3o9GU2XiMNUHVHYrBSgOp1BTEHpuuYkKKmeM4j5iYhXkn0ZeqjMWnI0nCWev-6WRgawr03al3Snuy4gqaLgrs0BjD8bS11ykc-odiza0v6IVGx05MIjRhfsaw7fqnbEtQbHdSOiXwo2Os1ZUwzVGqoYU9IGexLr2jcIH0UpjibfP", "width": 1440}], "place_id": "ChIJpZvB7iC6yhQRiM-v5nvJPV4", "plus_code": {"compound_code": "2X82+W8 Fatih/\u0130stanbul, Turkey", "global_code": "8GHC2X82+W8"}, "rating": 4.5, "reference": "ChIJpZvB7iC6yhQRiM-v5nvJPV4", "scope": "GOOGLE", "types": ["cafe", "point_of_interest", "food", "establishment"], "user_ratings_total": 59, "vicinity": "Ali Ku\u015f\u00e7u, Nalbant Demir Sokak No:20/A"}, {"business_status": "OPERATIONAL", "geometry": {"location": {"lat": 41.017119, "lng": 28.964419}, "viewport": {"northeast": {"lat": 41.01850823029149, "lng": 28.96578863029149}, "southwest": {"lat": 41.0158102697085, "lng": 28.96309066970849}}}, "icon": "https://maps.gstatic.com/mapfiles/place_api/icons/v1/png_71/cafe-71.png", "icon_background_color": "#FF9E67", "icon_mask_base_uri": "https://maps.gstatic.com/mapfiles/place_api/icons/v2/cafe_pinlet", "name": "Mihri\u015fah Cafe Restaurant", "opening_hours": {"open_now": true}, "photos": [{"height": 9248, "html_attributions": ["<a href=\"https://maps.google.com/maps/contrib/107857242286817334503\">Halis Dilme\u00e7</a>"], "photo_reference": "AW30NDwfksEfRWJMVyaIB5zwJst-ttw_P_Or2t2qGAWltK_Qyl-OezVUgRHWJShUiT2-lQ9HJN8H8AaKLbXVjUN1z0lbrYSqCPPupNYVNpfVI0UiVl9Aig-BEDFKRPSxpFAKnMpYvCQHqo4o9pZG17tcodpjso337NdRIAMiDc29jsGfdo7s", "width": 6936}], "place_id": "ChIJp17GqfK5yhQRsNatyBtgzkw", "plus_code": {"compound_code": "2X87+RQ Fatih/\u0130stanbul, Turkey", "global_code": "8GHC2X87+RQ"}, "price_level": 2, "rating": 4.1, "reference": "ChIJp17GqfK5yhQRsNatyBtgzkw", "scope": "GOOGLE", "types": ["cafe", "restaurant", "point_of_interest", "food", "establishment"], "user_ratings_total": 676, "vicinity": "S\u00fcleymaniye Mahallesi, Fetva Yoku\u015fu, Elmas \u0130\u015f Han\u0131"}, {"business_status": "OPERATIONAL", "geometry": {"location": {"lat": 41.0260737, "lng": 28.9584622}, "viewport": {"northeast": {"lat": 41.0274137802915, "lng": 28.9598314302915}, "southwest": {"lat": 41.0247158197085, "lng": 28.95713346970851}}}, "icon": "https://maps.gstatic.com/mapfiles/place_api/icons/v1/png_71/cafe-71.png", "icon_background_color": "#FF9E67", "icon_mask_base_uri": "https://maps.gstatic.com/mapfiles/place_api/icons/v2/cafe_pinlet", "name": "Balaturca", "opening_hours": {"open_now": true}, "photos": [{"height": 3120, "html_attributions": ["<a href=\"https://maps.google.com/maps/contrib/115348085239091866298\">Balaturca</a>"], "photo_reference": "AW30NDyimUMWln1UkWi8ljDj_MCmd4Obe5K3HuTx8ApWZieI8u-nTs4MEPs34_vCLxriyHSotPGW-oG1ZWLqjT0VCUmwVB5MS_Z1l1zPahHDept3_PlDSOrB6CefqE3xBm_BU6Cmm1DyrYlg9E1sJeLJ-oFSZUyLo-YySi4Q9t_wLNXhxQSp", "width": 4160}], "place_id": "ChIJlTOjM_e5yhQRPflp_TxU0F0", "plus_code": {"compound_code": "2XG5+C9 Fatih/\u0130stanbul, Turkey", "global_code": "8GHC2XG5+C9"}, "rating": 4.6, "reference": "ChIJlTOjM_e5yhQRPflp_TxU0F0", "scope": "GOOGLE", "types": ["cafe", "restaurant", "point_of_interest", "bakery", "store", "food", "establishment"], "user_ratings_total": 76, "vicinity": "Cibali"}, {"business_status": "OPERATIONAL", "geometry": {"location": {"lat": 41.013502, "lng": 28.960518}, "viewport": {"northeast": {"lat": 41.01489323029149, "lng": 28.9618990802915}, "southwest": {"lat": 41.01219526970849, "lng": 28.9592011197085}}}, "icon": "https://maps.gstatic.com/mapfiles/place_api/icons/v1/png_71/cafe-71.png", "icon_background_color": "#FF9E67", "icon_mask_base_uri": "https://maps.gstatic.com/mapfiles/place_api/icons/v2/cafe_pinlet", "name": "Vefakar Cafe & Bistro", "opening_hours": {"open_now": true}, "photos": [{"height": 3456, "html_attributions": ["<a href=\"https://maps.google.com/maps/contrib/107421093888512598982\">Vefakar Cafe &amp; Bistro</a>"], "photo_reference": "AW30NDwlE7CwMU2jzEjKBlGk0UPleZGgKxV02avX2HWO9mqtOo7MigXCqI0K07l04nUfN7UCkf2YTYysHDf3-w63mQHzbNbT8eox3DBL5UdIS9tBLjsyziTsm2Hb9UFu-ZPmmWdjsyKDdld6Y5mTF14jEb6aZE6hzHjlD-Mcq_Sx_tjB6FQw", "width": 5184}], "place_id": "ChIJ-YoIJIy5yhQRFFXjtUycmbw", "plus_code": {"compound_code": "2X76+C6 Fatih/\u0130stanbul, Turkey", "global_code": "8GHC2X76+C6"}, "price_level": 2, "rating": 3.8, "reference": "ChIJ-YoIJIy5yhQRFFXjtUycmbw", "scope": "GOOGLE", "types": ["cafe", "restaurant", "point_of_interest", "food", "establishment"], "user_ratings_total": 1113, "vicinity": "Kalenderhane Mah, Cemal Yener Tosyal\u0131 Caddesi No:68"}, {"business_status": "OPERATIONAL", "geometry": {"location": {"lat": 41.0206597, "lng": 28.9483623}, "viewport": {"northeast": {"lat": 41.02210703029149, "lng": 28.94954178029149}, "southwest": {"lat": 41.01940906970849, "lng": 28.9468438197085}}}, "icon": "https://maps.gstatic.com/mapfiles/place_api/icons/v1/png_71/restaurant-71.png", "icon_background_color": "#FF9E67", "icon_mask_base_uri": "https://maps.gstatic.com/mapfiles/place_api/icons/v2/restaurant_pinlet", "name": "Malta F\u0131r\u0131n\u0131 Fatih", "opening_hours": {"open_now": true}, "photos": [{"height": 3456, "html_attributions": ["<a href=\"https://maps.google.com/maps/contrib/112761578006433219942\">Yavuz Talha Durdu</a>"], "photo_reference": "AW30NDyg0sAF56e3awYt-fjuCV-TsBt5ULtFZ209d8h_w8nKDLg1S7ur4EjPL-Pvd2W661xvzrLDZa3G8qh6_PmZLfQf8Nbaj5-UotdSnBslZP8OAxhYhhKe8deTxzygP8KQY01Rxa4KvoOHfYwcSpXBDV5_kw0DzBd-UYiSNK5VT-rDUSJv", "width": 4608}], "place_id": "ChIJG0rPwiG6yhQRatzUr4gRKVU", "plus_code": {"compound_code": "2WCX+78 Fatih/\u0130stanbul, Turkey", "global_code": "8GHC2WCX+78"}, "price_level": 2, "rating": 4.3, "reference": "ChIJG0rPwiG6yhQRatzUr4gRKVU", "scope": "GOOGLE", "types": ["bakery", "cafe", "point_of_interest", "store", "food", "establishment"], "user_ratings_total": 191, "vicinity": "Ali Ku\u015f\u00e7u, Fatih Caddesi No:13"}, {"business_status": "OPERATIONAL", "geometry": {"location": {"lat": 41.01461379999999, "lng": 28.9626159}, "viewport": {"northeast": {"lat": 41.01595183029151, "lng": 28.9639790302915}, "southwest": {"lat": 41.01325386970851, "lng": 28.96128106970851}}}, "icon": "https://maps.gstatic.com/mapfiles/place_api/icons/v1/png_71/cafe-71.png", "icon_background_color": "#FF9E67", "icon_mask_base_uri": "https://maps.gstatic.com/mapfiles/place_api/icons/v2/cafe_pinlet", "name": "Coffee Gutta", "opening_hours": {"open_now": true}, "photos": [{"height": 1152, "html_attributions": ["<a href=\"https://maps.google.com/maps/contrib/113741763753565808658\">Coffee Gutta</a>"], "photo_reference": "AW30NDxVMyOwclnf0xUTYiutx4-Puwnro_yYFDk7QohjiE6m9cYD8sL6qYtYU88KbpWtcgx-aBRbkPimWydlX6NPAfkdPk8PPSb12wr5jS3GwnSVG2uA7-MXq6eej5xvES9fVCMckeqS5lAf-_LjwSW9LJaeBfXaxDFfGsMdvJ_AtwBHX0ri", "width": 1693}], "place_id": "ChIJlU0ipY25yhQRXI1k31w2Dls", "plus_code": {"compound_code": "2X77+R2 Fatih/\u0130stanbul, Turkey", "global_code": "8GHC2X77+R2"}, "price_level": 2, "rating": 4.3, "reference": "ChIJlU0ipY25yhQRXI1k31w2Dls", "scope": "GOOGLE", "types": ["cafe", "point_of_interest", "store", "food", "establishment"], "user_ratings_total": 573, "vicinity": "S\u00fcleymaniye, S\u00fcleymaniye Caddesi No:21"}, {"business_status": "OPERATIONAL", "geometry": {"location": {"lat": 41.015518, "lng": 28.949936}, "viewport": {"northeast": {"lat": 41.01689588029151, "lng": 28.95131123029149}, "southwest": {"lat": 41.01419791970851, "lng": 28.9486132697085}}}, "icon": "https://maps.gstatic.com/mapfiles/place_api/icons/v1/png_71/restaurant-71.png", "icon_background_color": "#FF9E67", "icon_mask_base_uri": "https://maps.gstatic.com/mapfiles/place_api/icons/v2/restaurant_pinlet", "name": "Dole Cafe Pasta", "opening_hours": {"open_now": true}, "photos": [{"height": 3464, "html_attributions": ["<a href=\"https://maps.google.com/maps/contrib/104392708248212515534\">Macit \u015eamo\u011flu</a>"], "photo_reference": "AW30NDyDsyQottx0Wfii3vcs_rr-Xppu5b3I9TE6vSrcJ16KHBtBAFYSezHnVwtt1u4wDsJo7fVTiJPm4E2USaYthhsXWAzjGfdOwkmrysZ79OBmZq9QkhANAepHDNUHhwn0bnwMhf7YWWSxunB6d6LZWKvMVKZxvl0JiAgC9Y_9M0F-V_Qi", "width": 4618}], "place_id": "ChIJu-tWzSC6yhQRy1_rlGSjMII", "plus_code": {"compound_code": "2W8X+6X Fatih/\u0130stanbul, Turkey", "global_code": "8GHC2W8X+6X"}, "rating": 4, "reference": "ChIJu-tWzSC6yhQRy1_rlGSjMII", "scope": "GOOGLE", "types": ["bakery", "cafe", "point_of_interest", "store", "food", "establishment"], "user_ratings_total": 7, "vicinity": "\u0130skenderpa\u015fa"}, {"business_status": "OPERATIONAL", "geometry": {"location": {"lat": 41.019068, "lng": 28.94787599999999}, "viewport": {"northeast": {"lat": 41.0204369302915, "lng": 28.94926093029149}, "southwest": {"lat": 41.0177389697085, "lng": 28.94656296970849}}}, "icon": "https://maps.gstatic.com/mapfiles/place_api/icons/v1/png_71/cafe-71.png", "icon_background_color": "#FF9E67", "icon_mask_base_uri": "https://maps.gstatic.com/mapfiles/place_api/icons/v2/cafe_pinlet", "name": "S\u00fctl\u00fc Kahve Fatih", "opening_hours": {"open_now": true}, "photos": [{"height": 4000, "html_attributions": ["<a href=\"https://maps.google.com/maps/contrib/112937801452519513695\">zuhair smart</a>"], "photo_reference": "AW30NDxi-58B_Xo1YxqxAdk_cndToSYbOyEOSZ6jOrQt1fsuykKjpwL1mJumnHdjyQR_vWTWXFVDwFuDBcbf6aW9baw9AtcEPSgAx4CVPc5RhYsIQ8pd9URj0YWfDVRzfE2skdCuXO2BICoX6BCI_Is6wqAQsbUlv6TCkDj1ILe8XR2_38A-", "width": 3000}], "place_id": "ChIJocgXnSG6yhQRgwZEJugNqNI", "plus_code": {"compound_code": "2W9X+J5 Fatih/\u0130stanbul, Turkey", "global_code": "8GHC2W9X+J5"}, "rating": 4, "reference": "ChIJocgXnSG6yhQRgwZEJugNqNI", "scope": "GOOGLE", "types": ["cafe", "restaurant", "point_of_interest", "store", "food", "establishment"], "user_ratings_total": 1923, "vicinity": "Ak\u015femsettin, Fevzi Pa\u015fa Caddesi No:53 D:B"}], "status": "OK"}