{"html_attributions": [], "next_page_token": "AW30NDy0QwFJt2DlZcf_POXZXQkQPkjrOO5E7_zbWhzzAtSwkAQDl3PNT3hHG8-n21wjWhYEtlnjabTo7xYFLog-nWQ7AXxfv8Hv1Kan9KlkjVfcXX0AlqIxzcFTCx_VAe7HsVJPgU6jgiRUXgPnOo8r7XKPK2uQgDrNY2Eo3SAWCXbIC6FBKBzxeuuyuT4eEdvCotgHVif50Li56qt7vdqEm9i51zjDFhqvooSj4E7QzyZacNuqn_g3DBYcEcRe6JGl-IZw-RmQzoVQrEwZEydU2JIZgqQb67_IIk3Us-JUmNTB0PI4Fs7ERejfHy43rVqpG706EyAAtkFV6v8xrAKTATP4TFJGjgh4vBiDJVlsmTEI_0wTGyjHxHqF_ZOSq8pvqZyVDhC1r3k6_IvUHHIP-x1vmzBizPdrTAtgDd6Xy28A7N9WrLom", "results": [{"business_status": "OPERATIONAL", "geometry": {"location": {"lat": 41.017173, "lng": 28.969859}, "viewport": {"northeast": {"lat": 41.0185439802915, "lng": 28.9712361302915}, "southwest": {"lat": 41.0158460197085, "lng": 28.9685381697085}}}, "icon": "https://maps.gstatic.com/mapfiles/place_api/icons/v1/png_71/restaurant-71.png", "icon_background_color": "#FF9E67", "icon_mask_base_uri": "https://maps.gstatic.com/mapfiles/place_api/icons/v2/restaurant_pinlet", "name": "Hamdi Restaurant - Emin\u00f6n\u00fc", "opening_hours": {"open_now": true}, "photos": [{"height": 4032, "html_attributions": ["<a href=\"https://maps.google.com/maps/contrib/103530421596097074606\">AsH</a>"], "photo_reference": "AW30NDxRtOzyYDyNppeIf4o_ORRKLl57IJDGol_0ON3fFnTalib9MISX7VeVoh5254YAJGfgApW45MQuVnrmUUdkcsDSkmaQE8tuYL-hMdnSnkXad4akn2EKnWDdQX_7IONhjukkLY8gzj8JQJOHJBg9EbtEPe6GlKGam4yHfhM2gqM0Um8T", "width": 3024}], "place_id": "ChIJHcPKg-y5yhQREEHS-JpdxuM", "plus_code": {"compound_code": "2X89+VW Fatih/\u0130stanbul, Turkey", "global_code": "8GHC2X89+VW"}, "price_level": 2, "rating": 4, "reference": "ChIJHcPKg-y5yhQREEHS-JpdxuM", "scope": "GOOGLE", "types": ["cafe", "bar", "restaurant", "food", "point_of_interest", "establishment"], "user_ratings_total": 6369, "vicinity": "R\u00fcstem Pa\u015fa Mah Tahmis Caddesi, Kal\u00e7in Sokak No:11"}, {"business_status": "OPERATIONAL", "geometry": {"location": {"lat": 41.01743399999999, "lng": 28.964572}, "viewport": {"northeast": {"lat": 41.0187829802915, "lng": 28.9659220802915}, "southwest": {"lat": 41.0160850197085, "lng": 28.9632241197085}}}, "icon": "https://maps.gstatic.com/mapfiles/place_api/icons/v1/png_71/cafe-71.png", "icon_background_color": "#FF9E67", "icon_mask_base_uri": "https://maps.gstatic.com/mapfiles/place_api/icons/v2/cafe_pinlet", "name": "Agha Gate", "opening_hours": {"open_now": true}, "photos": [{"height": 2448, "html_attributions": ["<a href=\"https://maps.google.com/maps/contrib/113610655029957332762\">A\u011fa Kap\u0131s\u0131</a>"], "photo_reference": "AW30NDykKcTo4X_f4ARu-KFHLjxxam1zoX5imfBRugGIdmQMM-I88DZTufrJTZJX0vm3An2SwruUOwTKFuKsX0wgdmi5_GQ5LPhDaYMGOmZ-v_ueaBnETq9e7_-QiSMvmKCzd9mElLMfPOhlM7lnj5RSj_7r51F9do9DSxkTGyzXoT6nquOj", "width": 2448}], "place_id": "ChIJv1t7p_K5yhQRHSxFrbaahvU", "plus_code": {"compound_code": "2X87+XR Fatih/\u0130stanbul, Turkey", "global_code": "8GHC2X87+XR"}, "price_level": 2, "rating": 4.2, "reference": "ChIJv1t7p_K5yhQRHSxFrbaahvU", "scope": "GOOGLE", "types": ["cafe", "food", "point_of_interest", "establishment"], "user_ratings_total": 3860, "vicinity": "S\u00fcleymaniye, Fetva Yoku\u015fu, Naz\u0131r \u0130zzet Efendi Sokak No:11"}, {"business_status": "OPERATIONAL", "geometry": {"location": {"lat": 41.0153183, "lng": 28.9584202}, "viewport": {"northeast": {"lat": 41.01665638029149, "lng": 28.9597990302915}, "southwest": {"lat": 41.01395841970849, "lng": 28.9571010697085}}}, "icon": "https://maps.gstatic.com/mapfiles/place_api/icons/v1/png_71/cafe-71.png", "icon_background_color": "#FF9E67", "icon_mask_base_uri": "https://maps.gstatic.com/mapfiles/place_api/icons/v2/cafe_pinlet", "name": "Vefa Bozacisi", "opening_hours": {"open_now": true}, "photos": [{"height": 3024, "html_attributions": ["<a href=\"https://maps.google.com/maps/contrib/110294918401531612684\">Alfa</a>"], "photo_reference": "AW30NDxPcVuoED-vGZ0v8UmIPK1dMOxz6WXdqJrkCezI5qCXqHwkmHOXENDAfc4knXHNIVVOWo25RU_AYMoIbVRKAh3k7dVTQs1T9yGDPxT-A2SFvjkM2hVOEQgVW4z1j1nd2CmdHWyW0YR5d8EETCxbU4ng2T9Q_kTEwhmnsDin0lQ12d7O", "width": 4032}], "place_id": "ChIJNRVgoIy5yhQRdNH4KPnjiTo", "plus_code": {"compound_code": "2X85+49 Fatih/\u0130stanbul, Turkey", "global_code": "8GHC2X85+49"}, "price_level": 2, "rating": 4.6, "reference": "ChIJNRVgoIy5yhQRdNH4KPnjiTo", "scope": "GOOGLE", "types": ["cafe", "food", "point_of_interest", "establishment"], "user_ratings_total": 13447, "vicinity": "Mollah\u00fcsrev, Vefa Caddesi No:66"}, {"business_status": "OPERATIONAL", "geometry": {"location": {"lat": 41.013502, "lng": 28.960518}, "viewport": {"northeast": {"lat": 41.01489323029149, "lng": 28.9618990802915}, "southwest": {"lat": 41.01219526970849, "lng": 28.9592011197085}}}, "icon": "https://maps.gstatic.com/mapfiles/place_api/icons/v1/png_71/cafe-71.png", "icon_background_color": "#FF9E67", "icon_mask_base_uri": "https://maps.gstatic.com/mapfiles/place_api/icons/v2/cafe_pinlet", "name": "Vefakar Cafe & Bistro", "opening_hours": {"open_now": true}, "photos": [{"height": 3456, "html_attributions": ["<a href=\"https://maps.google.com/maps/contrib/107421093888512598982\">Vefakar Cafe &amp; Bistro</a>"], "photo_reference": "AW30NDwv3gDDXyYUcQW1P0rtUP63LmQQjvEi6iPvbfgscGsj3rU6Ji2ekZ-GGVpcjZ4U79Barm3E4aosulQych4bzOGfpdrnsw51y6HnhcMg0hSBjFHLpSWSpF2OtMzVAXkgugY4AJ3VManGSzpt5z02LKZZqQbSfohXsfVsyVzKd3H2aI1z", "width": 5184}], "place_id": "ChIJ-YoIJIy5yhQRFFXjtUycmbw", "plus_code": {"compound_code": "2X76+C6 Fatih/\u0130stanbul, Turkey", "global_code": "8GHC2X76+C6"}, "price_level": 2, "rating": 3.8, "reference": "ChIJ-YoIJIy5yhQRFFXjtUycmbw", "scope": "GOOGLE", "types": ["cafe", "restaurant", "food", "point_of_interest", "establishment"], "user_ratings_total": 1113, "vicinity": "Kalenderhane Mah, Cemal Yener Tosyal\u0131 Caddesi No:68"}, {"business_status": "OPERATIONAL", "geometry": {"location": {"lat": 41.0165331, "lng": 28.9661588}, "viewport": {"northeast": {"lat": 41.01785573029149, "lng": 28.9675055302915}, "southwest": {"lat": 41.01515776970849, "lng": 28.9648075697085}}}, "icon": "https://maps.gstatic.com/mapfiles/place_api/icons/v1/png_71/cafe-71.png", "icon_background_color": "#FF9E67", "icon_mask_base_uri": "https://maps.gstatic.com/mapfiles/place_api/icons/v2/cafe_pinlet", "name": "Nova Santiye Cafe", "opening_hours": {"open_now": true}, "photos": [{"height": 3472, "html_attributions": ["<a href=\"https://maps.google.com/maps/contrib/108839711568495120187\">Serdar ERDEM</a>"], "photo_reference": "AW30NDwsHTr-RnscNg20lSMIWgQ09HKVNTk-ZCt2u2bb833hlxy-kbUSMH0qv9BLr0tYRf8C_mr74ipILnBxD5i16T3LwJZFKfws2vKQi8xDgQRNuWrMb8HIbv01tU-cw7SLpM2pTBouI1fSovuDkqnaPInMOHL8ytGQvWHGWBrnKcap9WAS", "width": 4640}], "place_id": "ChIJrfMuNO25yhQRdAEISrST3v0", "plus_code": {"compound_code": "2X88+JF Fatih/\u0130stanbul, Turkey", "global_code": "8GHC2X88+JF"}, "price_level": 3, "rating": 3.9, "reference": "ChIJrfMuNO25yhQRdAEISrST3v0", "scope": "GOOGLE", "types": ["cafe", "food", "point_of_interest", "establishment"], "user_ratings_total": 758, "vicinity": "S\u00fcleymaniye, Siyavu\u015f Pa\u015fa Sokak No: 24"}, {"business_status": "OPERATIONAL", "geometry": {"location": {"lat": 41.016529, "lng": 28.9664211}, "viewport": {"northeast": {"lat": 41.01785708029151, "lng": 28.9676166302915}, "southwest": {"lat": 41.01515911970851, "lng": 28.9649186697085}}}, "icon": "https://maps.gstatic.com/mapfiles/place_api/icons/v1/png_71/cafe-71.png", "icon_background_color": "#FF9E67", "icon_mask_base_uri": "https://maps.gstatic.com/mapfiles/place_api/icons/v2/cafe_pinlet", "name": "Kubbe-i A\u015fk", "opening_hours": {"open_now": true}, "photos": [{"height": 718, "html_attributions": ["<a href=\"https://maps.google.com/maps/contrib/109156047583282206722\">Kubbe-i A\u015fk</a>"], "photo_reference": "AW30NDwTY1zb0M76kPQYMKXOLEy3k3uGxDdhLGV_aQzzg5L0lHAw07ND8Uct7kDeOIyn8ag4ERErrVoK9AhRZJZPPt1KB05O8VkhIZPjecVEI9RgSIB2BChR23k9h8Q0UoJN03BcwX1XwKQ6vb1o_bJrn8QbDUqlohfSLBLYadyyvHcC2Mj1", "width": 1080}], "place_id": "ChIJv-xiNu25yhQRaVchMyZogD8", "plus_code": {"compound_code": "2X88+JH Fatih/\u0130stanbul, Turkey", "global_code": "8GHC2X88+JH"}, "price_level": 2, "rating": 4.1, "reference": "ChIJv-xiNu25yhQRaVchMyZogD8", "scope": "GOOGLE", "types": ["cafe", "food", "point_of_interest", "establishment"], "user_ratings_total": 7721, "vicinity": "S\u00fcleymaniye Mahallesi, Fetva Yoku\u015fu No:3"}, {"business_status": "OPERATIONAL", "geometry": {"location": {"lat": 41.0168993, "lng": 28.96580849999999}, "viewport": {"northeast": {"lat": 41.0181311802915, "lng": 28.9670725302915}, "southwest": {"lat": 41.0154332197085, "lng": 28.9643745697085}}}, "icon": "https://maps.gstatic.com/mapfiles/place_api/icons/v1/png_71/restaurant-71.png", "icon_background_color": "#FF9E67", "icon_mask_base_uri": "https://maps.gstatic.com/mapfiles/place_api/icons/v2/restaurant_pinlet", "name": "Arya Lounge", "opening_hours": {"open_now": true}, "photos": [{"height": 2268, "html_attributions": ["<a href=\"https://maps.google.com/maps/contrib/107503844008404569862\">Viktor Linkin</a>"], "photo_reference": "AW30NDy9_zk0Zm8FCYJ5XP2Te4YyDdojK4F7gnLwXGZpGkEo199o9UlqQQ2TCGih89Jb3kxHtrm7cXM1ysf6Zj9yZfbPP9LwgulKrT2TiyZKMrmnVSwa4lo7nVxn6hbY92yluduubNwDr1ko5USfhQt3_WOfEnhd9O802SQtiy-6MZzzzLH3", "width": 4032}], "place_id": "ChIJUWEar_K5yhQRIK6CAwLPSbQ", "plus_code": {"compound_code": "2X88+Q8 Fatih/\u0130stanbul, Turkey", "global_code": "8GHC2X88+Q8"}, "rating": 4.4, "reference": "ChIJUWEar_K5yhQRIK6CAwLPSbQ", "scope": "GOOGLE", "types": ["restaurant", "cafe", "food", "point_of_interest", "establishment"], "user_ratings_total": 4576, "vicinity": "Demirta\u015f, Y\u00fcksekler Sokak No:3"}, {"business_status": "OPERATIONAL", "geometry": {"location": {"lat": 41.017119, "lng": 28.964419}, "viewport": {"northeast": {"lat": 41.01850823029149, "lng": 28.96578863029149}, "southwest": {"lat": 41.0158102697085, "lng": 28.96309066970849}}}, "icon": "https://maps.gstatic.com/mapfiles/place_api/icons/v1/png_71/cafe-71.png", "icon_background_color": "#FF9E67", "icon_mask_base_uri": "https://maps.gstatic.com/mapfiles/place_api/icons/v2/cafe_pinlet", "name": "Mihri\u015fah Cafe Restaurant", "opening_hours": {"open_now": true}, "photos": [{"height": 9248, "html_attributions": ["<a href=\"https://maps.google.com/maps/contrib/107857242286817334503\">Halis Dilme\u00e7</a>"], "photo_reference": "AW30NDx2417zb4elNqEawFNj5SWk9NgZ2hvyyg9xurU3UTFFoeoOES-b5ZmLdLTbCbnIobBMmyt16lhDzRLK-ZhOcWtipDlVDyDsayWtW3xfv6-reOqIBBZ0zVQx9f8mULu_UL94_gEkd7ct1PEiKVYcuaOhmlIFvs8dLYLacXMFtknfqPsY", "width": 6936}], "place_id": "ChIJp17GqfK5yhQRsNatyBtgzkw", "plus_code": {"compound_code": "2X87+RQ Fatih/\u0130stanbul, Turkey", "global_code": "8GHC2X87+RQ"}, "price_level": 2, "rating": 4.1, "reference": "ChIJp17GqfK5yhQRsNatyBtgzkw", "scope": "GOOGLE", "types": ["cafe", "restaurant", "food", "point_of_interest", "establishment"], "user_ratings_total": 676, "vicinity": "S\u00fcleymaniye Mahallesi, Fetva Yoku\u015fu, Elmas \u0130\u015f Han\u0131"}, {"business_status": "OPERATIONAL", "geometry": {"location": {"lat": 41.0149899, "lng": 28.9683988}, "viewport": {"northeast": {"lat": 41.01637658029149, "lng": 28.9697546302915}, "southwest": {"lat": 41.01367861970849, "lng": 28.9670566697085}}}, "icon": "https://maps.gstatic.com/mapfiles/place_api/icons/v1/png_71/restaurant-71.png", "icon_background_color": "#FF9E67", "icon_mask_base_uri": "https://maps.gstatic.com/mapfiles/place_api/icons/v2/restaurant_pinlet", "name": "Faruk G\u00fcll\u00fco\u011flu", "opening_hours": {"open_now": true}, "photos": [{"height": 4032, "html_attributions": ["<a href=\"https://maps.google.com/maps/contrib/113205645685818645171\">GOLD Senegal</a>"], "photo_reference": "AW30NDxgaaVdJsw654C37sN5AjVIKj5xfqBvczpKxQhxjeiuTFhIMR57FqpAQiZjSJKcixPME_C4yTvvQT8FJHU_gK6mggU6QB40mt9iQpDhppMPZlLEJjI15nc8LGaVjmOXTVyn0-KStgoW8jisJykf-AwN8Q9E1jimaZRznWcT6yy6wogm", "width": 3024}], "place_id": "ChIJzcv1OpO5yhQRIg8EkDrzPc8", "plus_code": {"compound_code": "2X79+X9 Fatih/\u0130stanbul, Turkey", "global_code": "8GHC2X79+X9"}, "price_level": 2, "rating": 3.8, "reference": "ChIJzcv1OpO5yhQRIg8EkDrzPc8", "scope": "GOOGLE", "types": ["cafe", "bakery", "restaurant", "food", "store", "point_of_interest", "establishment"], "user_ratings_total": 442, "vicinity": "Mercan, Vas\u0131f \u00c7\u0131nar Caddesi 16/A"}, {"business_status": "OPERATIONAL", "geometry": {"location": {"lat": 41.01461379999999, "lng": 28.9626159}, "viewport": {"northeast": {"lat": 41.01595183029151, "lng": 28.9639790302915}, "southwest": {"lat": 41.01325386970851, "lng": 28.96128106970851}}}, "icon": "https://maps.gstatic.com/mapfiles/place_api/icons/v1/png_71/cafe-71.png", "icon_background_color": "#FF9E67", "icon_mask_base_uri": "https://maps.gstatic.com/mapfiles/place_api/icons/v2/cafe_pinlet", "name": "Coffee Gutta", "opening_hours": {"open_now": true}, "photos": [{"height": 1152, "html_attributions": ["<a href=\"https://maps.google.com/maps/contrib/113741763753565808658\">Coffee Gutta</a>"], "photo_reference": "AW30NDxPpqNhi-ZAA4L9hBE197H0s2mhfrj__UIiBZWAwoL5iUcRu4RfMJeLlvMLjA_QtB3iWGs_d2oLdI_CnomIGJG4bTf8kOuDsiuH2Pby9Ycuki1ofbpC6L6ljvZ19W7W0CtWMuuCyi6EoVMKx1PtxRtSSFcL3FsV7PrMbghiW5f0Zcxy", "width": 1693}], "place_id": "ChIJlU0ipY25yhQRXI1k31w2Dls", "plus_code": {"compound_code": "2X77+R2 Fatih/\u0130stanbul, Turkey", "global_code": "8GHC2X77+R2"}, "price_level": 2, "rating": 4.3, "reference": "ChIJlU0ipY25yhQRXI1k31w2Dls", "scope": "GOOGLE", "types": ["cafe", "food", "store", "point_of_interest", "establishment"], "user_ratings_total": 573, "vicinity": "S\u00fcleymaniye, S\u00fcleymaniye Caddesi No:21"}, {"business_status": "OPERATIONAL", "geometry": {"location": {"lat": 41.0175333, "lng": 28.9692904}, "viewport": {"northeast": {"lat": 41.0188920802915, "lng": 28.9706225802915}, "southwest": {"lat": 41.0161941197085, "lng": 28.9679246197085}}}, "icon": "https://maps.gstatic.com/mapfiles/place_api/icons/v1/png_71/cafe-71.png", "icon_background_color": "#FF9E67", "icon_mask_base_uri": "https://maps.gstatic.com/mapfiles/place_api/icons/v2/cafe_pinlet", "name": "Kahve D\u00fcnyas\u0131 - Emin\u00f6n\u00fc", "opening_hours": {"open_now": true}, "photos": [{"height": 3024, "html_attributions": ["<a href=\"https://maps.google.com/maps/contrib/110813731296546424436\">ahmed alqorna</a>"], "photo_reference": "AW30NDwKMpNxolGDccmKKQxxPGKxjBD0JjrQr33yL6LZkCTjWKc9pVvHWYmKIrOprPyfgygq8y_5d8SG9LUayqKUXXTZo-XdLIqsWcYhZJH9mHy7lD455OtSgJhjtk-HwppC_K0_Rc3Zyyku-dupMbBTuN14N1ts0VjtX9RNDQNYtIGmFwQ", "width": 4032}], "place_id": "ChIJ-alhiey5yhQRyHbeW_1etfc", "plus_code": {"compound_code": "2X99+2P Fatih/\u0130stanbul, Turkey", "global_code": "8GHC2X99+2P"}, "price_level": 2, "rating": 4, "reference": "ChIJ-alhiey5yhQRyHbeW_1etfc", "scope": "GOOGLE", "types": ["cafe", "food", "store", "point_of_interest", "establishment"], "user_ratings_total": 675, "vicinity": "R\u00fcstem Pa\u015fa, Asmaalt\u0131 Cad, K\u0131z\u0131lhan Sokak No:18/1"}, {"business_status": "CLOSED_TEMPORARILY", "geometry": {"location": {"lat": 41.0174226, "lng": 28.9698445}, "viewport": {"northeast": {"lat": 41.01873193029149, "lng": 28.9711428802915}, "southwest": {"lat": 41.0160339697085, "lng": 28.9684449197085}}}, "icon": "https://maps.gstatic.com/mapfiles/place_api/icons/v1/png_71/cafe-71.png", "icon_background_color": "#FF9E67", "icon_mask_base_uri": "https://maps.gstatic.com/mapfiles/place_api/icons/v2/cafe_pinlet", "name": "kahve limani", "permanently_closed": true, "photos": [{"height": 2988, "html_attributions": ["<a href=\"https://maps.google.com/maps/contrib/107517191268399286872\">Mohamed Shabib</a>"], "photo_reference": "AW30NDxnk2vX2bsUQWm6EtkutRwEttEi8yEJSCKimyg4bbrLCOTcmAhr7Wn5amZhoLb6Di84QmMuZJA93kJSdUMudsWFVNnmpolTti3HKhEjwEGpKYfI_NHDTTdrnOsrXCZGxtowJcAB_YlyOuONypW5n9jDyfCLtnrpQ9BMGwPokRFvb6vT", "width": 5312}], "place_id": "ChIJc3fihuy5yhQRboZSldPUd-o", "plus_code": {"compound_code": "2X89+XW Fatih/\u0130stanbul, Turkey", "global_code": "8GHC2X89+XW"}, "rating": 3.6, "reference": "ChIJc3fihuy5yhQRboZSldPUd-o", "scope": "GOOGLE", "types": ["cafe", "food", "point_of_interest", "establishment"], "user_ratings_total": 22, "vicinity": "R\u00fcstem Pa\u015fa, Kal\u00e7in Sokak No:32"}, {"business_status": "OPERATIONAL", "geometry": {"location": {"lat": 41.0167325, "lng": 28.97324}, "viewport": {"northeast": {"lat": 41.0181082302915, "lng": 28.97462883029149}, "southwest": {"lat": 41.0154102697085, "lng": 28.97193086970849}}}, "icon": "https://maps.gstatic.com/mapfiles/place_api/icons/v1/png_71/cafe-71.png", "icon_background_color": "#FF9E67", "icon_mask_base_uri": "https://maps.gstatic.com/mapfiles/place_api/icons/v2/cafe_pinlet", "name": "Hayal Cafe", "opening_hours": {"open_now": true}, "photos": [{"height": 1256, "html_attributions": ["<a href=\"https://maps.google.com/maps/contrib/117045089972022949532\">Susan W</a>"], "photo_reference": "AW30NDyCkg2_fxMWQL77CIJgmiDn5Oc6wUrrwlAfMqwQjJBcKTZdjdO6lWgY6i-p1Egm4xHf5kEqfnBLqk8OknFF72s0ZiVId6ocMHRFlsEGRNbmalNuBQjteqaB30zaxPOhp4j9ZZPMINdBzdtVWXutli73i9YPgzHMD6gLeis8VpgHreeG", "width": 1600}], "place_id": "ChIJE4JjU-q5yhQRb_A27DdntMU", "plus_code": {"compound_code": "2X8F+M7 Fatih/\u0130stanbul, Turkey", "global_code": "8GHC2X8F+M7"}, "rating": 4, "reference": "ChIJE4JjU-q5yhQRb_A27DdntMU", "scope": "GOOGLE", "types": ["cafe", "food", "point_of_interest", "establishment"], "user_ratings_total": 46, "vicinity": "Hobyar, Birlik Sokak No:7"}, {"business_status": "CLOSED_TEMPORARILY", "geometry": {"location": {"lat": 41.0117143, "lng": 28.9712946}, "viewport": {"northeast": {"lat": 41.01304528029149, "lng": 28.9726438802915}, "southwest": {"lat": 41.01034731970849, "lng": 28.9699459197085}}}, "icon": "https://maps.gstatic.com/mapfiles/place_api/icons/v1/png_71/cafe-71.png", "icon_background_color": "#FF9E67", "icon_mask_base_uri": "https://maps.gstatic.com/mapfiles/place_api/icons/v2/cafe_pinlet", "name": "34-18 Tuzcafe", "permanently_closed": true, "photos": [{"height": 4128, "html_attributions": ["<a href=\"https://maps.google.com/maps/contrib/111745892587895645420\">Bilal Karabacak</a>"], "photo_reference": "AW30NDwLOWrKq1tUvuMuw1V-uLleit-uf9X-211bE9hUM90-5TvFOrCFxAx-dQZLLpLrPQ3vYtktKCfhYlEge95N2gLuA6WYjDwHXra9pDVDGpFgZWV2M0tSSYZkE8dGFErGy6VQGHtuI3i9BAcQWVisGL7PRkwcfI0WAb1U3Tv6tQQstFse", "width": 3096}], "place_id": "ChIJf6WRbpS5yhQROED0CyahATg", "plus_code": {"compound_code": "2X6C+MG Fatih/\u0130stanbul, Turkey", "global_code": "8GHC2X6C+MG"}, "rating": 5, "reference": "ChIJf6WRbpS5yhQROED0CyahATg", "scope": "GOOGLE", "types": ["cafe", "food", "point_of_interest", "establishment"], "user_ratings_total": 1, "vicinity": "Sururi, Bezciler Sokak No:12"}, {"business_status": "OPERATIONAL", "geometry": {"location": {"lat": 41.0157081, "lng": 28.9738891}, "viewport": {"northeast": {"lat": 41.01703173029149, "lng": 28.9752223802915}, "southwest": {"lat": 41.0143337697085, "lng": 28.9725244197085}}}, "icon": "https://maps.gstatic.com/mapfiles/place_api/icons/v1/png_71/cafe-71.png", "icon_background_color": "#FF9E67", "icon_mask_base_uri": "https://maps.gstatic.com/mapfiles/place_api/icons/v2/cafe_pinlet", "name": "Brew Coffee Works", "opening_hours": {"open_now": true}, "photos": [{"height": 4000, "html_attributions": ["<a href=\"https://maps.google.com/maps/contrib/112141457444096334867\">Brew Coffee Works</a>"], "photo_reference": "AW30NDxwCQpvPfGD-okk6V_FaWCMG3mLVn0yptE-wnhHWDJ_crP0zsY6Nk1DcQVUnACioDFKremVl8TgvA_lmPGUqwVp_hXH9ehraI4c6GCYFVLi5hxMGfVmo2Xe7aglalFH0V3-Ly9ukMQ7RDfqqJRjV7FKqZF_NUHNCGxHLWQGRce5p9hU", "width": 6000}], "place_id": "ChIJkRdr7-q5yhQRNRVLOVhAUn4", "plus_code": {"compound_code": "2X8F+7H Fatih/\u0130stanbul, Turkey", "global_code": "8GHC2X8F+7H"}, "price_level": 2, "rating": 4.3, "reference": "ChIJkRdr7-q5yhQRNRVLOVhAUn4", "scope": "GOOGLE", "types": ["cafe", "restaurant", "food", "store", "point_of_interest", "establishment"], "user_ratings_total": 920, "vicinity": "Hobyar, Hamidiye Caddesi No:16"}, {"business_status": "OPERATIONAL", "geometry": {"location": {"lat": 41.0241198, "lng": 28.97050059999999}, "viewport": {"northeast": {"lat": 41.0254542302915, "lng": 28.9718646302915}, "southwest": {"lat": 41.0227562697085, "lng": 28.9691666697085}}}, "icon": "https://maps.gstatic.com/mapfiles/place_api/icons/v1/png_71/cafe-71.png", "icon_background_color": "#FF9E67", "icon_mask_base_uri": "https://maps.gstatic.com/mapfiles/place_api/icons/v2/cafe_pinlet", "name": "Roots Studio Cafe", "opening_hours": {"open_now": true}, "photos": [{"height": 4032, "html_attributions": ["<a href=\"https://maps.google.com/maps/contrib/113547935259359829415\">Roots Studio Cafe</a>"], "photo_reference": "AW30NDw3vKc62YawCbTp2HeulgY1Cgp2Nr2VYAiimvRtrqKDQryHLyL4-HxQF-PsCKlhH0-dVaAFGCWyPXg-VwCOGLzXsl5yG_re8JvaoF3sQ6HeNiba-pVGuJ2jqeYov71QNMmYOTBTqVxDKpSinV5klkAOv0yAIqRiLCXratjrrAYkFy-J", "width": 3024}], "place_id": "ChIJ5azXAua5yhQRbIM6LPlYxXs", "plus_code": {"compound_code": "2XFC+J6 Beyo\u011flu/\u0130stanbul, Turkey", "global_code": "8GHC2XFC+J6"}, "rating": 4.8, "reference": "ChIJ5azXAua5yhQRbIM6LPlYxXs", "scope": "GOOGLE", "types": ["cafe", "food", "point_of_interest", "establishment"], "user_ratings_total": 2511, "vicinity": "Tersane Caddesi, Karak\u00f6y, Hediye Sokak D:No:6"}, {"business_status": "OPERATIONAL", "geometry": {"location": {"lat": 41.0114292, "lng": 28.9591974}, "viewport": {"northeast": {"lat": 41.01277873029149, "lng": 28.96060863029149}, "southwest": {"lat": 41.0100807697085, "lng": 28.95791066970849}}}, "icon": "https://maps.gstatic.com/mapfiles/place_api/icons/v1/png_71/cafe-71.png", "icon_background_color": "#FF9E67", "icon_mask_base_uri": "https://maps.gstatic.com/mapfiles/place_api/icons/v2/cafe_pinlet", "name": "S\u00fctl\u00fc Kahve", "opening_hours": {"open_now": true}, "photos": [{"height": 3024, "html_attributions": ["<a href=\"https://maps.google.com/maps/contrib/116960320285664685638\">S\u00fctl\u00fc Kahve</a>"], "photo_reference": "AW30NDxOA34-nUkT_Woueu481LP9q76H79xzhUFanwOnQa_4zL_LhIMmRpLEExFf-n3FTL69Kq6jHB6uTDpybBUPRXhogHYRxr9C63tW8Gp6jbBRuZ7vlJAUfpE4vUcIS4Cy0VAEDf8T-7a7t2k7S4p5AZUcPlsNfZNXpi0DfzziGky75yIu", "width": 4032}], "place_id": "ChIJgSMm0Y65yhQRggZlAmBHfek", "plus_code": {"compound_code": "2X65+HM Fatih/\u0130stanbul, Turkey", "global_code": "8GHC2X65+HM"}, "rating": 3.8, "reference": "ChIJgSMm0Y65yhQRggZlAmBHfek", "scope": "GOOGLE", "types": ["cafe", "restaurant", "food", "point_of_interest", "establishment"], "user_ratings_total": 500, "vicinity": "Balabana\u011fa Mh., B\u00fcy\u00fckre\u015fitpa\u015fa Cd. Yumni \u0130\u015f Merkezi 16/1, Fatih"}, {"business_status": "CLOSED_TEMPORARILY", "geometry": {"location": {"lat": 41.020306, "lng": 28.9587615}, "viewport": {"northeast": {"lat": 41.0216169802915, "lng": 28.96019713029149}, "southwest": {"lat": 41.01891901970851, "lng": 28.95749916970849}}}, "icon": "https://maps.gstatic.com/mapfiles/place_api/icons/v1/png_71/cafe-71.png", "icon_background_color": "#FF9E67", "icon_mask_base_uri": "https://maps.gstatic.com/mapfiles/place_api/icons/v2/cafe_pinlet", "name": "Unkapani Korku Evi Karaoke", "permanently_closed": true, "photos": [{"height": 1080, "html_attributions": ["<a href=\"https://maps.google.com/maps/contrib/104371317158556389702\">arzuhan ergin</a>"], "photo_reference": "AW30NDw7TH26Glp5PTnxmyxpEXByZwuAbBfhM_vlheTW6vpymfcf79pWPFVZF8q0GQzgT6WgjoswMQ4RF70-9X4_1V_tO4q_AE15a44RlNUpQIHXmpYaa4vWodztaUR8YoBFxXppf8hliyYaRp_jtd-6GFx-n1SHB61eUTeWErF3SEEEe_6U", "width": 1080}], "place_id": "ChIJ85vgffO5yhQRhS_QVloMifU", "plus_code": {"compound_code": "2XC5+4G Fatih/\u0130stanbul, Turkey", "global_code": "8GHC2XC5+4G"}, "rating": 3, "reference": "ChIJ85vgffO5yhQRhS_QVloMifU", "scope": "GOOGLE", "types": ["cafe", "food", "point_of_interest", "establishment"], "user_ratings_total": 1, "vicinity": "cibali mah. ataturk bulvari unlu is merkezi A blol no:21 2B/12 zemin kat unkapani"}, {"business_status": "OPERATIONAL", "geometry": {"location": {"lat": 41.020606, "lng": 28.958875}, "viewport": {"northeast": {"lat": 41.0218976802915, "lng": 28.96035463029149}, "southwest": {"lat": 41.0191997197085, "lng": 28.95765666970849}}}, "icon": "https://maps.gstatic.com/mapfiles/place_api/icons/v1/png_71/restaurant-71.png", "icon_background_color": "#FF9E67", "icon_mask_base_uri": "https://maps.gstatic.com/mapfiles/place_api/icons/v2/restaurant_pinlet", "name": "Zeyrek Fatih Kafe Restaurant", "opening_hours": {"open_now": true}, "photos": [{"height": 2268, "html_attributions": ["<a href=\"https://maps.google.com/maps/contrib/103257561309908764128\">Sofiane Barisi</a>"], "photo_reference": "AW30NDwMnHUTVbkRgURO1iFhk0tJ7CwYRMIwH9zoj5wDERnrrbPVnlAAjFxx_WPYJeHtoyU9mUkHC5eWrB3k4xURRDc6A_FbUjV_YcDyiyVai7LKmU7ETZj6AeoATwVA3yhlXLkw1NnFRWbXLIhJ00qrsndFzaoURkOhNzVW5jddDE25YC43", "width": 4032}], "place_id": "ChIJXegZf_O5yhQR6SXSVwPwTBY", "plus_code": {"compound_code": "2XC5+6H Fatih/\u0130stanbul, Turkey", "global_code": "8GHC2XC5+6H"}, "price_level": 2, "rating": 4.2, "reference": "ChIJXegZf_O5yhQR6SXSVwPwTBY", "scope": "GOOGLE", "types": ["restaurant", "cafe", "food", "point_of_interest", "establishment"], "user_ratings_total": 265, "vicinity": "Cibali, Atat\u00fcrk Bulvar\u0131 No:23/1"}, {"business_status": "OPERATIONAL", "geometry": {"location": {"lat": 41.0206422, "lng": 28.9734712}, "viewport": {"northeast": {"lat": 41.0226015802915, "lng": 28.9747605802915}, "southwest": {"lat": 41.0199036197085, "lng": 28.9720626197085}}}, "icon": "https://maps.gstatic.com/mapfiles/place_api/icons/v1/png_71/restaurant-71.png", "icon_background_color": "#FF9E67", "icon_mask_base_uri": "https://maps.gstatic.com/mapfiles/place_api/icons/v2/restaurant_pinlet", "name": "Kalyan", "opening_hours": {"open_now": true}, "photos": [{"height": 590, "html_attributions": ["<a href=\"https://maps.google.com/maps/contrib/114984817423755681724\">Azdine Adriano</a>"], "photo_reference": "AW30NDzc-EMZLDg1kNn84P-bu9Y7QaWFeGoVDO4csZMQ-Ztfhwcz1sZrIcpwYVtdHA1FGexgxsSWWSydLHU1UmyOK5KW66wywb8qcKZwZhkFfeRPM1PTndLjJqgchg85DAAcc9GqNwUO0R_lnNy3X4wRDenGzmRorRnurJuV2bA6_IYru5lF", "width": 1280}], "place_id": "ChIJTR2XqOm5yhQRuVQHxqKhrfo", "plus_code": {"compound_code": "2XCF+79 Beyo\u011flu/\u0130stanbul, Turkey", "global_code": "8GHC2XCF+79"}, "rating": 4, "reference": "ChIJTR2XqOm5yhQRuVQHxqKhrfo", "scope": "GOOGLE", "types": ["restaurant", "cafe", "food", "point_of_interest", "establishment"], "user_ratings_total": 70, "vicinity": "Yeni Galata K\u00f6pr\u00fcs\u00fc Alt\u0131 Hali\u00e7 Taraf\u0131 KB:3, Fatih"}], "status": "OK"}