{"html_attributions": [], "results": [{"business_status": "OPERATIONAL", "geometry": {"location": {"lat": 41.16967849999999, "lng": 28.990785}, "viewport": {"northeast": {"lat": 41.1710242802915, "lng": 28.9921633802915}, "southwest": {"lat": 41.1683263197085, "lng": 28.9894654197085}}}, "icon": "https://maps.gstatic.com/mapfiles/place_api/icons/v1/png_71/cafe-71.png", "icon_background_color": "#FF9E67", "icon_mask_base_uri": "https://maps.gstatic.com/mapfiles/place_api/icons/v2/cafe_pinlet", "name": "Miqmi coffee", "opening_hours": {"open_now": true}, "photos": [{"height": 2988, "html_attributions": ["<a href=\"https://maps.google.com/maps/contrib/101337288408292245175\">Hansin Cenk Guzel</a>"], "photo_reference": "AW30NDw6-q_Jja1M1OYO3bdydAGwWbDlI3WeS_YcEyRViwnWqMfFgJIx734bM_O3t4uz5TQqp3TjokIcK5x3pnzshI1lB1oUYupprgGdX49jxBzzGHS3-9NiuyFT69tKObHSb33slkjPkdX0JN5YL8yYCH6Y3kqsQbqZYUWbig3eV8fpFVi3", "width": 5312}], "place_id": "ChIJGblJD9G0yhQRD5b6ScKbx_s", "plus_code": {"compound_code": "5X9R+V8 Sar\u0131yer/\u0130stanbul, Turkey", "global_code": "8GHC5X9R+V8"}, "price_level": 2, "rating": 4.3, "reference": "ChIJGblJD9G0yhQRD5b6ScKbx_s", "scope": "GOOGLE", "types": ["cafe", "point_of_interest", "food", "establishment"], "user_ratings_total": 168, "vicinity": "Kemer, Mare\u015fal Fevzi \u00c7akmak Caddesi"}, {"business_status": "CLOSED_TEMPORARILY", "geometry": {"location": {"lat": 41.1799205, "lng": 28.9900265}, "viewport": {"northeast": {"lat": 41.1812707802915, "lng": 28.9913082802915}, "southwest": {"lat": 41.1785728197085, "lng": 28.9886103197085}}}, "icon": "https://maps.gstatic.com/mapfiles/place_api/icons/v1/png_71/cafe-71.png", "icon_background_color": "#FF9E67", "icon_mask_base_uri": "https://maps.gstatic.com/mapfiles/place_api/icons/v2/cafe_pinlet", "name": "Bebe\u011fim Cafe Shisha", "permanently_closed": true, "place_id": "ChIJsSJZ6Nnhn0AROJYezrD8ZNc", "plus_code": {"compound_code": "5XHR+X2 Sar\u0131yer/\u0130stanbul, Turkey", "global_code": "8GHC5XHR+X2"}, "reference": "ChIJsSJZ6Nnhn0AROJYezrD8ZNc", "scope": "GOOGLE", "types": ["cafe", "point_of_interest", "food", "establishment"], "vicinity": "Bah\u00e7ek\u00f6y Merkez, Serhatler Sokak No:22"}, {"business_status": "OPERATIONAL", "geometry": {"location": {"lat": 41.1776627, "lng": 28.9915366}, "viewport": {"northeast": {"lat": 41.1790436302915, "lng": 28.9928457802915}, "southwest": {"lat": 41.1763456697085, "lng": 28.9901478197085}}}, "icon": "https://maps.gstatic.com/mapfiles/place_api/icons/v1/png_71/cafe-71.png", "icon_background_color": "#FF9E67", "icon_mask_base_uri": "https://maps.gstatic.com/mapfiles/place_api/icons/v2/cafe_pinlet", "name": "Bah\u00e7ek\u00f6y PlayStation", "opening_hours": {"open_now": true}, "photos": [{"height": 1168, "html_attributions": ["<a href=\"https://maps.google.com/maps/contrib/103484506937624627837\">PLAYSTAT\u0130ON 5 CAFE (BAH\u00c7EK\u00d6Y - SARIYER)</a>"], "photo_reference": "AW30NDzKAmlXyXCols28T74CwhA8GfK6MAEYT3QprzjcbqnP09B5rXHOxg6vBbZOQGN3K7CTdIMpsswZcZCgebug-yapW68KdxS-hpE4n4NZzwU4lK9477MU12HcUYp53PIKAuxjG4bEYcGrCIyEypvCz_VP7y4UyS0HA5tKaiOEruL5nP1-", "width": 1080}], "place_id": "ChIJ8VSXzHXhn0ARLWzCdCrGjfc", "plus_code": {"compound_code": "5XHR+3J Sar\u0131yer/\u0130stanbul, Turkey", "global_code": "8GHC5XHR+3J"}, "rating": 5, "reference": "ChIJ8VSXzHXhn0ARLWzCdCrGjfc", "scope": "GOOGLE", "types": ["cafe", "point_of_interest", "food", "establishment"], "user_ratings_total": 8, "vicinity": "Bah\u00e7ek\u00f6y Merkez, D:No 2 /1"}, {"business_status": "OPERATIONAL", "geometry": {"location": {"lat": 41.1736313, "lng": 28.989986}, "viewport": {"northeast": {"lat": 41.1749915802915, "lng": 28.9914586302915}, "southwest": {"lat": 41.1722936197085, "lng": 28.9887606697085}}}, "icon": "https://maps.gstatic.com/mapfiles/place_api/icons/v1/png_71/cafe-71.png", "icon_background_color": "#FF9E67", "icon_mask_base_uri": "https://maps.gstatic.com/mapfiles/place_api/icons/v2/cafe_pinlet", "name": "YEN\u0130CE CAFE", "opening_hours": {"open_now": true}, "photos": [{"height": 405, "html_attributions": ["<a href=\"https://maps.google.com/maps/contrib/114638466768404166856\">YEN\u0130CE CAFE</a>"], "photo_reference": "AW30NDxq87gzOJxdE44gixMNGMRR9dxXDfWal5IZP5hjNMqs6BtUS_t6Nn3yaghMBxWWfoxEaiVFqxqh7BlmKZs5mP1V-fS9EtwhwMDWw6l3S8zyObNb7GIH7UqsQbcVjiYUUvT395MwWR2Ia-cvZK0cUxEp07mA3cjXARJ6nQBnGNZwPsjF", "width": 720}], "place_id": "ChIJAZ2AJ1G1yhQRQuxJWTBndaI", "plus_code": {"compound_code": "5XFQ+FX Sar\u0131yer/\u0130stanbul, Turkey", "global_code": "8GHC5XFQ+FX"}, "rating": 1.7, "reference": "ChIJAZ2AJ1G1yhQRQuxJWTBndaI", "scope": "GOOGLE", "types": ["cafe", "point_of_interest", "food", "establishment"], "user_ratings_total": 141, "vicinity": "Kemer, Valide Sultan Caddesi"}, {"business_status": "OPERATIONAL", "geometry": {"location": {"lat": 41.1805584, "lng": 28.9895902}, "viewport": {"northeast": {"lat": 41.1818995802915, "lng": 28.9908397802915}, "southwest": {"lat": 41.1792016197085, "lng": 28.9881418197085}}}, "icon": "https://maps.gstatic.com/mapfiles/place_api/icons/v1/png_71/cafe-71.png", "icon_background_color": "#FF9E67", "icon_mask_base_uri": "https://maps.gstatic.com/mapfiles/place_api/icons/v2/cafe_pinlet", "name": "Belgrad Cafe", "opening_hours": {"open_now": true}, "photos": [{"height": 6936, "html_attributions": ["<a href=\"https://maps.google.com/maps/contrib/118208744876066931467\">Yusuf G\u00fclen\u00e7</a>"], "photo_reference": "AW30NDxyRGMipy9iOoCdmHXiR7kNo6TVvC-WD7UqxXfSRVAB6Jpg7BAsOSPe7bGesY9ClGODgPClGl5Q21wZfZw-ngX-GEG-fsAUHLuIEjyIsD-jb6B4IfAYF8iZDCNhpsnNmAdrv0fnJiDVpsOCIqi1pVjH8Y11flQEgvXo3tJ4SwHjYyMi", "width": 9248}], "place_id": "ChIJyQjotkXhn0ARxmE15Y8Upqo", "plus_code": {"compound_code": "5XJQ+6R Sar\u0131yer/\u0130stanbul, Turkey", "global_code": "8GHC5XJQ+6R"}, "rating": 4.7, "reference": "ChIJyQjotkXhn0ARxmE15Y8Upqo", "scope": "GOOGLE", "types": ["cafe", "point_of_interest", "food", "establishment"], "user_ratings_total": 3, "vicinity": "Bah\u00e7ek\u00f6y Merkez, Valide Sultan Caddesi No:20"}, {"business_status": "OPERATIONAL", "geometry": {"location": {"lat": 41.179256, "lng": 28.991293}, "viewport": {"northeast": {"lat": 41.18061148029149, "lng": 28.9926716802915}, "southwest": {"lat": 41.1779135197085, "lng": 28.9899737197085}}}, "icon": "https://maps.gstatic.com/mapfiles/place_api/icons/v1/png_71/cafe-71.png", "icon_background_color": "#FF9E67", "icon_mask_base_uri": "https://maps.gstatic.com/mapfiles/place_api/icons/v2/cafe_pinlet", "name": "Ad\u0131g\u00fczel Kahvehanesi", "photos": [{"height": 2988, "html_attributions": ["<a href=\"https://maps.google.com/maps/contrib/116196689557241776756\">Ismail Ontas</a>"], "photo_reference": "AW30NDyYbUFMlZvRRgBIv8SgxwvMMlX9HQ68RbTT88MgQIRDqalI4fMo3Th6Mkvb2un49grvXLpx7SJGGecqxsG3EUOLcZG_MKxVB_073ej69u57fjGzk6B3FtUQReaXTSrjQJTx4-fU-dtU-4IaUoDwsWNj_zNUOwi9g0Phxfod_LmJwgBq", "width": 5312}], "place_id": "ChIJi-t7aNfhn0ARRY9k4ax_DBI", "plus_code": {"compound_code": "5XHR+PG Sar\u0131yer/\u0130stanbul, Turkey", "global_code": "8GHC5XHR+PG"}, "rating": 4.1, "reference": "ChIJi-t7aNfhn0ARRY9k4ax_DBI", "scope": "GOOGLE", "types": ["cafe", "point_of_interest", "food", "establishment"], "user_ratings_total": 43, "vicinity": "Bah\u00e7ek\u00f6y Merkez, \u0130n\u00f6n\u00fc Caddesi No:27"}, {"business_status": "OPERATIONAL", "geometry": {"location": {"lat": 41.1783686, "lng": 28.9918046}, "viewport": {"northeast": {"lat": 41.1797163302915, "lng": 28.9931480302915}, "southwest": {"lat": 41.1770183697085, "lng": 28.9904500697085}}}, "icon": "https://maps.gstatic.com/mapfiles/place_api/icons/v1/png_71/restaurant-71.png", "icon_background_color": "#FF9E67", "icon_mask_base_uri": "https://maps.gstatic.com/mapfiles/place_api/icons/v2/restaurant_pinlet", "name": "S\u0131la Pastaneleri", "opening_hours": {"open_now": true}, "photos": [{"height": 3024, "html_attributions": ["<a href=\"https://maps.google.com/maps/contrib/112552324233277179473\">S\u0131la Pastaneleri</a>"], "photo_reference": "AW30NDz2BOoOjlCDxeqZfzqZEy6_dmh7sZwE2hvFwotDxmm66JnY9_Xq6ktQAZmFeWpEynOqvVF94zeVc0UywkgZOrEy5BZp49_lnOOgVQ-5KmsALFlQ418xs-I4WzPczsF2huI_KVpTnN1w43oi1FRHpLE_tJqEacCdQqpYPUv-Zw40SuM8", "width": 4032}], "place_id": "ChIJpR5uCdfhn0ARIAmQ1deIABU", "plus_code": {"compound_code": "5XHR+8P Sar\u0131yer/\u0130stanbul, Turkey", "global_code": "8GHC5XHR+8P"}, "rating": 4.2, "reference": "ChIJpR5uCdfhn0ARIAmQ1deIABU", "scope": "GOOGLE", "types": ["bakery", "cafe", "point_of_interest", "store", "food", "establishment"], "user_ratings_total": 16, "vicinity": "Bah\u00e7ek\u00f6y Merkez, 33, Adnan Menderes Caddesi"}, {"business_status": "CLOSED_TEMPORARILY", "geometry": {"location": {"lat": 41.1782968, "lng": 28.99184829999999}, "viewport": {"northeast": {"lat": 41.17963798029149, "lng": 28.9931801802915}, "southwest": {"lat": 41.1769400197085, "lng": 28.9904822197085}}}, "icon": "https://maps.gstatic.com/mapfiles/place_api/icons/v1/png_71/cafe-71.png", "icon_background_color": "#FF9E67", "icon_mask_base_uri": "https://maps.gstatic.com/mapfiles/place_api/icons/v2/cafe_pinlet", "name": "Osmanl\u0131 \u00c7AY OCA\u011eI", "permanently_closed": true, "photos": [{"height": 4128, "html_attributions": ["<a href=\"https://maps.google.com/maps/contrib/111667598901970553806\">\u0130SMA\u0130L \u00c7ET\u0130N</a>"], "photo_reference": "AW30NDwGtBI4cqZlZpo7g3Y3nRrnV--XKRYWUrzkInnFOHj2kIvdaE7j0PXef92eWBIro_JviEzgb_ez_i8r0JLNGZggVLPn92QtS30i0jHlC7lKOdOOcB4AhcMx_Y0fFlVlLOqREO9rBEPqPMRdk873ZQrmh6nUUpFuzoMCe-tZP4JECNPy", "width": 2322}], "place_id": "ChIJBeD8CNfhn0ARJ7jQtFvMYos", "plus_code": {"compound_code": "5XHR+8P Sar\u0131yer/\u0130stanbul, Turkey", "global_code": "8GHC5XHR+8P"}, "rating": 4, "reference": "ChIJBeD8CNfhn0ARJ7jQtFvMYos", "scope": "GOOGLE", "types": ["cafe", "point_of_interest", "food", "establishment"], "user_ratings_total": 1, "vicinity": "Bah\u00e7ek\u00f6y Merkez"}, {"business_status": "CLOSED_TEMPORARILY", "geometry": {"location": {"lat": 41.1790774, "lng": 28.9914716}, "viewport": {"northeast": {"lat": 41.1804165302915, "lng": 28.9928067302915}, "southwest": {"lat": 41.1777185697085, "lng": 28.99010876970851}}}, "icon": "https://maps.gstatic.com/mapfiles/place_api/icons/v1/png_71/cafe-71.png", "icon_background_color": "#FF9E67", "icon_mask_base_uri": "https://maps.gstatic.com/mapfiles/place_api/icons/v2/cafe_pinlet", "name": "Katmer Cafe", "permanently_closed": true, "place_id": "ChIJ-zDJbtfhn0ARWV4hGVwUTbA", "plus_code": {"compound_code": "5XHR+JH Sar\u0131yer/\u0130stanbul, Turkey", "global_code": "8GHC5XHR+JH"}, "reference": "ChIJ-zDJbtfhn0ARWV4hGVwUTbA", "scope": "GOOGLE", "types": ["cafe", "point_of_interest", "food", "establishment"], "vicinity": "Bah\u00e7ek\u00f6y Merkez, \u0130n\u00f6n\u00fc Caddesi No:23"}, {"business_status": "OPERATIONAL", "geometry": {"location": {"lat": 41.1788338, "lng": 28.99174640000001}, "viewport": {"northeast": {"lat": 41.1801709302915, "lng": 28.9930484302915}, "southwest": {"lat": 41.1774729697085, "lng": 28.9903504697085}}}, "icon": "https://maps.gstatic.com/mapfiles/place_api/icons/v1/png_71/cafe-71.png", "icon_background_color": "#FF9E67", "icon_mask_base_uri": "https://maps.gstatic.com/mapfiles/place_api/icons/v2/cafe_pinlet", "name": "Bah\u00e7e Cafe", "opening_hours": {"open_now": true}, "photos": [{"height": 1080, "html_attributions": ["<a href=\"https://maps.google.com/maps/contrib/113690363470284056194\">Mustafa Gungor AVCI</a>"], "photo_reference": "AW30NDwJi4CoUwZs9IY56IwT97VMHTDcBn7OFwdKE68Hvsza6X5btXQcw_mX4af0v02TpvIPabTLr9CDa72FyEatqxfgV2uEZaMvBtXEwpt-gnl1F9r0R6Jvm0iOmZ8DlZO35HQChi5o8NyTXHrbETjhO6KMzypOf7zFzYN640GMcUJDO-4", "width": 1920}], "place_id": "ChIJhYDPC9nhn0ARxbnF95fUfHI", "plus_code": {"compound_code": "5XHR+GM Sar\u0131yer/\u0130stanbul, Turkey", "global_code": "8GHC5XHR+GM"}, "rating": 4.3, "reference": "ChIJhYDPC9nhn0ARxbnF95fUfHI", "scope": "GOOGLE", "types": ["cafe", "point_of_interest", "food", "establishment"], "user_ratings_total": 20, "vicinity": "Bah\u00e7ek\u00f6y Merkez, \u0130n\u00f6n\u00fc Caddesi 8c"}, {"business_status": "OPERATIONAL", "geometry": {"location": {"lat": 41.1792235, "lng": 28.9916107}, "viewport": {"northeast": {"lat": 41.18057273029149, "lng": 28.9929561302915}, "southwest": {"lat": 41.1778747697085, "lng": 28.9902581697085}}}, "icon": "https://maps.gstatic.com/mapfiles/place_api/icons/v1/png_71/cafe-71.png", "icon_background_color": "#FF9E67", "icon_mask_base_uri": "https://maps.gstatic.com/mapfiles/place_api/icons/v2/cafe_pinlet", "name": "\u00c7ak\u0131l Cafe", "opening_hours": {"open_now": true}, "photos": [{"height": 1080, "html_attributions": ["<a href=\"https://maps.google.com/maps/contrib/112226007219181590993\">\u00c7ak\u0131l Cafe</a>"], "photo_reference": "AW30NDwfx5jswCkN6Gtr3LOTluTJ8uuEKMBfXDowa0jOiOGIa4J6DRK3aIh4mW52IxE2bXbvslWs5m2cXwrnsOoMxWC7dkxtt5wUG2ublyejnLCnLLibYmcQXHtzF_9OJIJppCpvEzrsos_5vqTMJvYFeph6Er3is3L3cmFWwBxuyCzmaBtn", "width": 1080}], "place_id": "ChIJb8nrU9fhn0ARglVBcRt4P7U", "plus_code": {"compound_code": "5XHR+MJ Sar\u0131yer/\u0130stanbul, Turkey", "global_code": "8GHC5XHR+MJ"}, "price_level": 2, "rating": 4.6, "reference": "ChIJb8nrU9fhn0ARglVBcRt4P7U", "scope": "GOOGLE", "types": ["cafe", "point_of_interest", "food", "establishment"], "user_ratings_total": 83, "vicinity": "Bah\u00e7ek\u00f6y Merkez, Bekir S\u0131tk\u0131 Evcimen Sokak No:3"}, {"business_status": "CLOSED_TEMPORARILY", "geometry": {"location": {"lat": 41.1790244, "lng": 28.9923962}, "viewport": {"northeast": {"lat": 41.1803519802915, "lng": 28.9937908302915}, "southwest": {"lat": 41.17765401970851, "lng": 28.9910928697085}}}, "icon": "https://maps.gstatic.com/mapfiles/place_api/icons/v1/png_71/cafe-71.png", "icon_background_color": "#FF9E67", "icon_mask_base_uri": "https://maps.gstatic.com/mapfiles/place_api/icons/v2/cafe_pinlet", "name": "S\u0131la Patisseria cafe", "permanently_closed": true, "photos": [{"height": 1200, "html_attributions": ["<a href=\"https://maps.google.com/maps/contrib/110403940181797345069\">Rahmi Kaya</a>"], "photo_reference": "AW30NDyBfXufgwqN8LzCOO6902z03NaqHe7yOGIZjsbTjq7BVxLetrHUdygpx-hbRwxfIACZ3Vl87Mq3oXy1E_vCSNB9KFZ4pVvUL_w4Hn-ObKQXjGyeVWvRx72sUteVxX3quMIIAa9VuN2YM9EtZknWwUR5zPeQKnItsIqz-gbnV8K4FEyF", "width": 1600}], "place_id": "ChIJRxTIFdfhn0AR9Z1sx8D_aY0", "plus_code": {"compound_code": "5XHR+JX Sar\u0131yer/\u0130stanbul, Turkey", "global_code": "8GHC5XHR+JX"}, "rating": 4.1, "reference": "ChIJRxTIFdfhn0AR9Z1sx8D_aY0", "scope": "GOOGLE", "types": ["cafe", "bakery", "point_of_interest", "store", "food", "establishment"], "user_ratings_total": 8, "vicinity": "Bah\u00e7ek\u00f6y Merkez, Adnan Menderes Caddesi No:133, Sar\u0131yer"}], "status": "OK"}