{"html_attributions": [], "next_page_token": "AW30NDw8j0sAUztyixYYjSbpWNwMWbw3TaM2YWvO57LWp9hYEaCWm_kA7h_1--loeU1i-0cjaEHNPF8HmsIcw12x3tKiwHFSD1A3eH96H5Kiy6DJ2JHHrXKYGcVjrXO_l0gayALm_rU6c8aeDXaRtxi3wRsESQD7y051zqNQ6sArePd4mzC8UfMk6i0_jkItpXb52i-gKhJISDUyUpsLme3NGr0BejqJM-hECehxb6ruqUAQENiHy22xWVztGiwcPfjC7g643HYuOMS-uXVNrhQql_znk-DLsZNKcaNxXEnQQgL1KGwCYOqEl2PnTG1tu0Gt560gRRx-G4ZHHMUZknQlvGv9-Kq06hoY5084AXCzv7eXUlZIwFZ6o6UC2IgTZee-UyIoCNhrPF19PcRBa1yQlZWJSX9MSrk4V-mu3TKtl-Iqy7e0SlwR", "results": [{"business_status": "OPERATIONAL", "geometry": {"location": {"lat": 41.013154, "lng": 28.97773}, "viewport": {"northeast": {"lat": 41.0144618302915, "lng": 28.9790150802915}, "southwest": {"lat": 41.0117638697085, "lng": 28.9763171197085}}}, "icon": "https://maps.gstatic.com/mapfiles/place_api/icons/v1/png_71/lodging-71.png", "icon_background_color": "#909CE1", "icon_mask_base_uri": "https://maps.gstatic.com/mapfiles/place_api/icons/v2/hotel_pinlet", "name": "Orient Express & Spa by Orka Hotels", "opening_hours": {"open_now": true}, "photos": [{"height": 3449, "html_attributions": ["<a href=\"https://maps.google.com/maps/contrib/110921849677727866437\">Orient Express &amp; Spa by Orka Hotels</a>"], "photo_reference": "AW30NDypMslw-8hlGdDED64rrX49l5671FnnhjKEhA7PNdghy3xBrtwNJ9x1Y1IXGtx9dW2PvrNMRCucsLccZXaZ2mwRJCtNoxqx8-Lskvv8OwIapGYMfaSAognKcCWpJcGBLaM0i0dLLdIqI91-gczQCgYytAyHWUQh3XzMocbKgz8yVjGm", "width": 2100}], "place_id": "ChIJbUDBCsC5yhQRrbehwLl8acs", "plus_code": {"compound_code": "2X7H+73 Fatih/\u0130stanbul, Turkey", "global_code": "8GHC2X7H+73"}, "rating": 4.2, "reference": "ChIJbUDBCsC5yhQRrbehwLl8acs", "scope": "GOOGLE", "types": ["cafe", "spa", "bar", "lodging", "restaurant", "point_of_interest", "food", "establishment"], "user_ratings_total": 707, "vicinity": "Hoca Pa\u015fa, Old City Sirkeci, H\u00fcdavendigar Caddesi No:24"}, {"business_status": "OPERATIONAL", "geometry": {"location": {"lat": 41.0081399, "lng": 28.9760521}, "viewport": {"northeast": {"lat": 41.0094379302915, "lng": 28.9773934802915}, "southwest": {"lat": 41.00673996970851, "lng": 28.9746955197085}}}, "icon": "https://maps.gstatic.com/mapfiles/place_api/icons/v1/png_71/restaurant-71.png", "icon_background_color": "#FF9E67", "icon_mask_base_uri": "https://maps.gstatic.com/mapfiles/place_api/icons/v2/restaurant_pinlet", "name": "Mado", "opening_hours": {"open_now": true}, "photos": [{"height": 3000, "html_attributions": ["<a href=\"https://maps.google.com/maps/contrib/118230918393891210030\">\u0410\u043b\u0435\u043a\u0441\u0430\u043d\u0434\u0440\u0430</a>"], "photo_reference": "AW30NDz4RI72nzfRDkwReARtbRT5Db_IOvaYFyVBuk2oF3040kafVX9o-B_Z80qoNGlWny5l6DDh4dZ7rMJ9CTnvvjYuUluR7Z_tPvpCbAX5x-aNHnSIcKJFRRcFzAs6qCxeahTdbvV-r-nphFwi_z0BlSb3akXVnu8mXT1qOb14JqnPuWOS", "width": 4000}], "place_id": "ChIJC_89GZa5yhQRAenIvYOc_a0", "plus_code": {"compound_code": "2X5G+7C Fatih/\u0130stanbul, Turkey", "global_code": "8GHC2X5G+7C"}, "price_level": 3, "rating": 3.8, "reference": "ChIJC_89GZa5yhQRAenIvYOc_a0", "scope": "GOOGLE", "types": ["cafe", "restaurant", "point_of_interest", "bakery", "store", "food", "establishment"], "user_ratings_total": 1822, "vicinity": "Alemdar, Divan Yolu Caddesi No:24"}, {"business_status": "OPERATIONAL", "geometry": {"location": {"lat": 41.017173, "lng": 28.969859}, "viewport": {"northeast": {"lat": 41.0185439802915, "lng": 28.9712361302915}, "southwest": {"lat": 41.0158460197085, "lng": 28.9685381697085}}}, "icon": "https://maps.gstatic.com/mapfiles/place_api/icons/v1/png_71/restaurant-71.png", "icon_background_color": "#FF9E67", "icon_mask_base_uri": "https://maps.gstatic.com/mapfiles/place_api/icons/v2/restaurant_pinlet", "name": "Hamdi Restaurant - Emin\u00f6n\u00fc", "opening_hours": {"open_now": true}, "photos": [{"height": 4032, "html_attributions": ["<a href=\"https://maps.google.com/maps/contrib/103530421596097074606\">AsH</a>"], "photo_reference": "AW30NDyT2nZ-PrwSiOAPY8ENDSE4H210rVImfH9LHA7dAsPvl7vAfLPEDeR6pjuCZFKHU2FtHGgOTMLuQm8JqsazuhdwH2iW_Ye3dBoOB4AEIN2-7DAdu37oX8qvzX-_3Q4S65wQ3k6PXtDcekr_ULf-5ETHDJgdzfqaLAa_sjidgad0BFWU", "width": 3024}], "place_id": "ChIJHcPKg-y5yhQREEHS-JpdxuM", "plus_code": {"compound_code": "2X89+VW Fatih/\u0130stanbul, Turkey", "global_code": "8GHC2X89+VW"}, "price_level": 2, "rating": 4, "reference": "ChIJHcPKg-y5yhQREEHS-JpdxuM", "scope": "GOOGLE", "types": ["cafe", "bar", "restaurant", "point_of_interest", "food", "establishment"], "user_ratings_total": 6366, "vicinity": "R\u00fcstem Pa\u015fa Mah Tahmis Caddesi, Kal\u00e7in Sokak No:11"}, {"business_status": "OPERATIONAL", "geometry": {"location": {"lat": 41.0084766, "lng": 28.9776073}, "viewport": {"northeast": {"lat": 41.0098363302915, "lng": 28.9790844302915}, "southwest": {"lat": 41.0071383697085, "lng": 28.9763864697085}}}, "icon": "https://maps.gstatic.com/mapfiles/place_api/icons/v1/png_71/cafe-71.png", "icon_background_color": "#FF9E67", "icon_mask_base_uri": "https://maps.gstatic.com/mapfiles/place_api/icons/v2/cafe_pinlet", "name": "Omar Cafe & Restaurant", "opening_hours": {"open_now": true}, "photos": [{"height": 1966, "html_attributions": ["<a href=\"https://maps.google.com/maps/contrib/117735397904241721778\">GHA</a>"], "photo_reference": "AW30NDwXQto5WxTjlwstqSiK_eum0gabz0RVAI4WDFbTgUyT3f8B7wLqcFl4-TjtqBqK4o1swbFMnTaNlkRaQvt_j91W96OgwH33imZYfrUzTsbFkbnzqQcG_ewJMqWX8dWAqIgis3DbIP3aQOTYsZmqW2QZRY-kEVO663zFZMBQ80G3zlpd", "width": 1680}], "place_id": "ChIJ07B-4L25yhQRBaEzMbEjsw8", "plus_code": {"compound_code": "2X5H+92 Fatih/\u0130stanbul, Turkey", "global_code": "8GHC2X5H+92"}, "rating": 4.3, "reference": "ChIJ07B-4L25yhQRBaEzMbEjsw8", "scope": "GOOGLE", "types": ["cafe", "restaurant", "point_of_interest", "food", "establishment"], "user_ratings_total": 168, "vicinity": "Alemdar, \u015eeftali Sokak No:8"}, {"business_status": "OPERATIONAL", "geometry": {"location": {"lat": 41.0093588, "lng": 28.9767798}, "viewport": {"northeast": {"lat": 41.0107401302915, "lng": 28.9781815802915}, "southwest": {"lat": 41.0080421697085, "lng": 28.9754836197085}}}, "icon": "https://maps.gstatic.com/mapfiles/place_api/icons/v1/png_71/cafe-71.png", "icon_background_color": "#FF9E67", "icon_mask_base_uri": "https://maps.gstatic.com/mapfiles/place_api/icons/v2/cafe_pinlet", "name": "Maya's Corner Cafe", "photos": [{"height": 1024, "html_attributions": ["<a href=\"https://maps.google.com/maps/contrib/100726985610563849024\">Maya&#39;s Corner Cafe</a>"], "photo_reference": "AW30NDxxgakapI_kMOl429gyWEkCNE5yojALRCSzTE4qu1NTsLGAutw2SIfyxFVOO1YcFHxfW-RfDJiZmx0mEILJSF7-AgtDEUTxlZJCxi-_zNGu4R7rHvysC4xVViyOfJDzBbyuPia_MxbzUqPRFZpiU6lY0tXA2QBmjS6rduyhvNQHwrPT", "width": 768}], "place_id": "ChIJ_zPXGr65yhQRkJAL0-6DY5k", "plus_code": {"compound_code": "2X5G+PP Fatih/\u0130stanbul, Turkey", "global_code": "8GHC2X5G+PP"}, "price_level": 1, "rating": 4.6, "reference": "ChIJ_zPXGr65yhQRkJAL0-6DY5k", "scope": "GOOGLE", "types": ["cafe", "restaurant", "point_of_interest", "store", "food", "establishment"], "user_ratings_total": 114, "vicinity": "Alemdar, Yerebatan Caddesi No:25"}, {"business_status": "OPERATIONAL", "geometry": {"location": {"lat": 41.0145355, "lng": 28.9757083}, "viewport": {"northeast": {"lat": 41.0159286302915, "lng": 28.9771328302915}, "southwest": {"lat": 41.0132306697085, "lng": 28.9744348697085}}}, "icon": "https://maps.gstatic.com/mapfiles/place_api/icons/v1/png_71/restaurant-71.png", "icon_background_color": "#FF9E67", "icon_mask_base_uri": "https://maps.gstatic.com/mapfiles/place_api/icons/v2/restaurant_pinlet", "name": "Ali Usta Burma Kadayif & Baklava", "opening_hours": {"open_now": true}, "photos": [{"height": 4032, "html_attributions": ["<a href=\"https://maps.google.com/maps/contrib/109762720935943166031\">D\u0130OR MEDYA</a>"], "photo_reference": "AW30NDw9EnnC48h29xNogznl7iuqWPimLp_rfg1hI0vVFmTVhxvZGoT_zrWT1eD5Kkpt3YlyH7i4lZrflIs4Mftyb14k3C-IzOY5zXXUyH5bPh3aOlX1hdbU8sCUGo-7zdCRn1_OhFjwHIIpWBAwK1Sw38mL2FuWV0_C3Kyc4wlVUvgKS21j", "width": 3024}], "place_id": "ChIJr0i-o-q5yhQRTSNH0BDJHDg", "plus_code": {"compound_code": "2X7G+R7 Fatih/\u0130stanbul, Turkey", "global_code": "8GHC2X7G+R7"}, "rating": 3.8, "reference": "ChIJr0i-o-q5yhQRTSNH0BDJHDg", "scope": "GOOGLE", "types": ["cafe", "restaurant", "point_of_interest", "bakery", "store", "food", "establishment"], "user_ratings_total": 101, "vicinity": "Hoca Pa\u015fa, Muradiye Caddesi No:25/A"}, {"business_status": "OPERATIONAL", "geometry": {"location": {"lat": 41.00963, "lng": 28.979444}, "viewport": {"northeast": {"lat": 41.01097888029149, "lng": 28.9807931802915}, "southwest": {"lat": 41.00828091970849, "lng": 28.9780952197085}}}, "icon": "https://maps.gstatic.com/mapfiles/place_api/icons/v1/png_71/cafe-71.png", "icon_background_color": "#FF9E67", "icon_mask_base_uri": "https://maps.gstatic.com/mapfiles/place_api/icons/v2/cafe_pinlet", "name": "Cafe Turing", "opening_hours": {"open_now": true}, "photos": [{"height": 1080, "html_attributions": ["<a href=\"https://maps.google.com/maps/contrib/108854334772985862780\">Azeema Faizunnisa</a>"], "photo_reference": "AW30NDwTl2vSs89oEytQqDbdHhaonrGtndRZriCsSCFMsicSsbVtfPh7lqAcggvreSvgDlEuvFp7tcQSHZWmgoSGmTVhSEAffd9jKYwC22ZqPZI6PDzl0BDO7aIR-9BUeNfqixabLIkGbM-hq-P2WbzK0KijY_f0d2au0HmWkMuVenn7HLJ_", "width": 1920}], "place_id": "ChIJv6aO-r65yhQR4iltIYgmZfM", "plus_code": {"compound_code": "2X5H+VQ Fatih/\u0130stanbul, Turkey", "global_code": "8GHC2X5H+VQ"}, "rating": 4.9, "reference": "ChIJv6aO-r65yhQR4iltIYgmZfM", "scope": "GOOGLE", "types": ["cafe", "point_of_interest", "food", "establishment"], "user_ratings_total": 14, "vicinity": "Cankurtaran, Caferiye Sokak No:2"}, {"business_status": "CLOSED_TEMPORARILY", "geometry": {"location": {"lat": 41.0081678, "lng": 28.9755379}, "viewport": {"northeast": {"lat": 41.00951678029149, "lng": 28.9768868802915}, "southwest": {"lat": 41.00681881970849, "lng": 28.9741889197085}}}, "icon": "https://maps.gstatic.com/mapfiles/place_api/icons/v1/png_71/restaurant-71.png", "icon_background_color": "#FF9E67", "icon_mask_base_uri": "https://maps.gstatic.com/mapfiles/place_api/icons/v2/restaurant_pinlet", "name": "Petrol Palace Restaurant", "permanently_closed": true, "photos": [{"height": 1920, "html_attributions": ["<a href=\"https://maps.google.com/maps/contrib/111400895931951310437\">Pavel Semashko</a>"], "photo_reference": "AW30NDztMtYuoGXTlU_XTILIxfRuM8CIFLw5NsDpe6H2Jio2bXqXfNP9TKN-GHnYc-l6JVqzsZuDLd_UWw_dGkUIeVZHU-CB8rIhWCaPzxxziIZfrLHwFF6gucsGu7TqoFGihqrT72Tvl-GvBqhRnJcrRiMkCHRozXARhJr9Y7Ih46GzyeNU", "width": 1080}], "place_id": "ChIJ0Z8Hif25yhQRaaOkMiqZPjI", "plus_code": {"compound_code": "2X5G+76 Fatih/\u0130stanbul, Turkey", "global_code": "8GHC2X5G+76"}, "rating": 3, "reference": "ChIJ0Z8Hif25yhQRaaOkMiqZPjI", "scope": "GOOGLE", "types": ["restaurant", "cafe", "point_of_interest", "food", "establishment"], "user_ratings_total": 2, "vicinity": "Turkey"}, {"business_status": "CLOSED_TEMPORARILY", "geometry": {"location": {"lat": 41.0135738, "lng": 28.9787417}, "viewport": {"northeast": {"lat": 41.0149068802915, "lng": 28.9801441302915}, "southwest": {"lat": 41.0122089197085, "lng": 28.9774461697085}}}, "icon": "https://maps.gstatic.com/mapfiles/place_api/icons/v1/png_71/restaurant-71.png", "icon_background_color": "#FF9E67", "icon_mask_base_uri": "https://maps.gstatic.com/mapfiles/place_api/icons/v2/restaurant_pinlet", "name": "G\u00fclhane House", "permanently_closed": true, "photos": [{"height": 3024, "html_attributions": ["<a href=\"https://maps.google.com/maps/contrib/112886481436028286582\">cassandra 21grammi</a>"], "photo_reference": "AW30NDxa2GZRvRMtFw2gbA9n-LZbKqdUlEhgjT_rYx6u33kPlzwJ5jDmnH3ivSrvUas2fk0-lxjeVA2Vv0wQ5rn3CKpE9kjZamd83H8F4TW36Z8jEV2xgMPPKL2mj4HQ4DSFpZI4xbMgJyAtg7jEST18vmKZAMk07hBDfdipf-Hp_rAnrmjk", "width": 4032}], "place_id": "ChIJ6aF89sC5yhQRpEgpgbtvDko", "plus_code": {"compound_code": "2X7H+CF Fatih/\u0130stanbul, Turkey", "global_code": "8GHC2X7H+CF"}, "rating": 4.7, "reference": "ChIJ6aF89sC5yhQRpEgpgbtvDko", "scope": "GOOGLE", "types": ["restaurant", "cafe", "point_of_interest", "food", "establishment"], "user_ratings_total": 15, "vicinity": "Cankurtaran, N\u00f6bethane Caddesi & Taya Hatun Sok., Sirkeci No:30, Fatih"}, {"business_status": "OPERATIONAL", "geometry": {"location": {"lat": 41.0126242, "lng": 28.9783824}, "viewport": {"northeast": {"lat": 41.01393813029149, "lng": 28.9796793302915}, "southwest": {"lat": 41.01124016970849, "lng": 28.9769813697085}}}, "icon": "https://maps.gstatic.com/mapfiles/place_api/icons/v1/png_71/cafe-71.png", "icon_background_color": "#FF9E67", "icon_mask_base_uri": "https://maps.gstatic.com/mapfiles/place_api/icons/v2/cafe_pinlet", "name": "\u202aOsmanlizadeler\u202c", "opening_hours": {"open_now": true}, "photos": [{"height": 1846, "html_attributions": ["<a href=\"https://maps.google.com/maps/contrib/104435811679032605050\">Kakha Khmelidze</a>"], "photo_reference": "AW30NDy28rrX9A5B12B_GOWdkZL6-jRjl8Yi3P6ptCJiAEQ9lEaOZXeTeeVzjatf_wT5ThmEN_1nmOy43cBO2FrS1IiFppGTplLw6w0uw9db1zFUG9k6r0qYpMbYd78eEIgIyekcrYBEPysG5qpx2UA4mIFs4LxBbHubPYckTOuU65MqwbBG", "width": 4000}], "place_id": "ChIJP3gOhr-5yhQR5bDa6bcmY0A", "plus_code": {"compound_code": "2X7H+29 Fatih/\u0130stanbul, Turkey", "global_code": "8GHC2X7H+29"}, "price_level": 2, "rating": 3.8, "reference": "ChIJP3gOhr-5yhQR5bDa6bcmY0A", "scope": "GOOGLE", "types": ["cafe", "point_of_interest", "food", "establishment"], "user_ratings_total": 896, "vicinity": "Hoca Pa\u015fa, H\u00fcdavendigar Caddesi 2/A"}, {"business_status": "CLOSED_TEMPORARILY", "geometry": {"location": {"lat": 41.0123968, "lng": 28.97870009999999}, "viewport": {"northeast": {"lat": 41.0137712302915, "lng": 28.97995853029149}, "southwest": {"lat": 41.0110732697085, "lng": 28.97726056970849}}}, "icon": "https://maps.gstatic.com/mapfiles/place_api/icons/v1/png_71/cafe-71.png", "icon_background_color": "#FF9E67", "icon_mask_base_uri": "https://maps.gstatic.com/mapfiles/place_api/icons/v2/cafe_pinlet", "name": "Ala Turca Art Cafe", "permanently_closed": true, "photos": [{"height": 2645, "html_attributions": ["<a href=\"https://maps.google.com/maps/contrib/105180558797056999414\">\u05db\u05d5\u05db\u05d1\u05d4 \u05d6\u05dc\u05d3\u05de\u05df \u05d0\u05dc\u05e7\u05d1\u05e5</a>"], "photo_reference": "AW30NDxt-8v6Izw74llf6RJCHGcQPxByTP-En5ZKrHFa1nJryTyGkSEYLgt7CkimJjkaZ0NHoVc6Jv-XLvlizBewafPFzuCIog1MYJf6O3GVt8cdO06FcLt7_y2UYBed6aNXtz2MLzNJKeVh1XIzc-57MenSdUdhHFZSkdgmZ01KezuNZCrb", "width": 6048}], "place_id": "ChIJ0779g7-5yhQR9yslM_d8o6A", "plus_code": {"compound_code": "2X6H+XF Fatih/\u0130stanbul, Turkey", "global_code": "8GHC2X6H+XF"}, "rating": 4.2, "reference": "ChIJ0779g7-5yhQR9yslM_d8o6A", "scope": "GOOGLE", "types": ["cafe", "point_of_interest", "store", "food", "establishment"], "user_ratings_total": 9, "vicinity": "Cankurtaran, Taya Hatun Sokak No:2"}, {"business_status": "CLOSED_TEMPORARILY", "geometry": {"location": {"lat": 41.0133772, "lng": 28.9774685}, "viewport": {"northeast": {"lat": 41.0146969802915, "lng": 28.9787600802915}, "southwest": {"lat": 41.0119990197085, "lng": 28.9760621197085}}}, "icon": "https://maps.gstatic.com/mapfiles/place_api/icons/v1/png_71/cafe-71.png", "icon_background_color": "#FF9E67", "icon_mask_base_uri": "https://maps.gstatic.com/mapfiles/place_api/icons/v2/cafe_pinlet", "name": "MUHAMMAD SAID Baklavaci", "permanently_closed": true, "photos": [{"height": 3000, "html_attributions": ["<a href=\"https://maps.google.com/maps/contrib/100856371269322283233\">Apollinaria Tumina</a>"], "photo_reference": "AW30NDxEKSc7oDxmwv1QFTpHd-WnMa3lb3DJeVcIR3j1SNjal0TjYlR8T640m1wBmVA3kz1Zj4OcRLfswJBOO6LzIIhYqBg42-52E3GPqtBewyfsljRyPmEXRcsyo4DUAq8GBzhB1WoGGoSQlFRpD3Fv0evNVXoBEalyZevgg8V1bSkiiT87", "width": 4000}], "place_id": "ChIJ7W71GsC5yhQRhGoDs6JEB9Q", "plus_code": {"compound_code": "2X7G+9X Fatih/\u0130stanbul, Turkey", "global_code": "8GHC2X7G+9X"}, "rating": 5, "reference": "ChIJ7W71GsC5yhQRhGoDs6JEB9Q", "scope": "GOOGLE", "types": ["cafe", "point_of_interest", "food", "establishment"], "user_ratings_total": 4, "vicinity": "Hoca Pa\u015fa, H\u00fcdavendigar Caddesi 40/A"}, {"business_status": "OPERATIONAL", "geometry": {"location": {"lat": 41.0129705, "lng": 28.9770832}, "viewport": {"northeast": {"lat": 41.01431633029149, "lng": 28.9784288802915}, "southwest": {"lat": 41.01161836970849, "lng": 28.9757309197085}}}, "icon": "https://maps.gstatic.com/mapfiles/place_api/icons/v1/png_71/restaurant-71.png", "icon_background_color": "#FF9E67", "icon_mask_base_uri": "https://maps.gstatic.com/mapfiles/place_api/icons/v2/restaurant_pinlet", "name": "Constantine's Ark Restaurant & Cafe", "opening_hours": {"open_now": true}, "photos": [{"height": 699, "html_attributions": ["<a href=\"https://maps.google.com/maps/contrib/111092433995394340539\">Constantine&#39;s Ark Restaurant &amp; Cafe</a>"], "photo_reference": "AW30NDxaYxJJxr1gowKTIwSXBnnQbJYQyzbeKslE2WmVQVamxljxFRMaHHvAXctj-CnDXXkU5PTd5NmF8UzwMGxcCyAotMUW5XgTEkXLBoG-mNinF_fvv-PnpruO4HyFZdGW1qhg3lRac43Dd55RX7kKmTF2g6VE1FaGcOAm5qLfe0liSX68", "width": 1242}], "place_id": "ChIJnWxS8r-5yhQRw-ZA1EKxl5s", "plus_code": {"compound_code": "2X7G+5R Fatih/\u0130stanbul, Turkey", "global_code": "8GHC2X7G+5R"}, "price_level": 2, "rating": 4.6, "reference": "ChIJnWxS8r-5yhQRw-ZA1EKxl5s", "scope": "GOOGLE", "types": ["restaurant", "cafe", "point_of_interest", "food", "establishment"], "user_ratings_total": 600, "vicinity": "Hoca Pa\u015fa, \u0130bni Kemal Caddesi No:13"}, {"business_status": "OPERATIONAL", "geometry": {"location": {"lat": 41.0143084, "lng": 28.97536719999999}, "viewport": {"northeast": {"lat": 41.01567078029149, "lng": 28.9766601802915}, "southwest": {"lat": 41.01297281970849, "lng": 28.9739622197085}}}, "icon": "https://maps.gstatic.com/mapfiles/place_api/icons/v1/png_71/cafe-71.png", "icon_background_color": "#FF9E67", "icon_mask_base_uri": "https://maps.gstatic.com/mapfiles/place_api/icons/v2/cafe_pinlet", "name": "Kahve D\u00fcnyas\u0131 Alg\u00f6t\u00fcr - Sirkeci", "opening_hours": {"open_now": true}, "photos": [{"height": 2998, "html_attributions": ["<a href=\"https://maps.google.com/maps/contrib/106384143416088090871\">Onur \u00d6zbek</a>"], "photo_reference": "AW30NDz4jeQeqAJmWZgrd7rFFNVs4ISpNCaF0JOGKsxmWNcQ9aEikjOvSfP27nlpweBPAd9oDhrQVc78jfhvbNip_Yq-eObkN8KF3kX8ni2E7ZEih9uOzc-xG2kEaDmZpuvPzw3OiVcMPjtKsnKTKNiqPNzgGHGU3CW_XTcbs7cDpe3k1yjX", "width": 3998}], "place_id": "ChIJz6G8W5W5yhQRAHFVD8r19ww", "plus_code": {"compound_code": "2X7G+P4 Fatih/\u0130stanbul, Turkey", "global_code": "8GHC2X7G+P4"}, "price_level": 2, "rating": 4.1, "reference": "ChIJz6G8W5W5yhQRAHFVD8r19ww", "scope": "GOOGLE", "types": ["cafe", "point_of_interest", "store", "food", "establishment"], "user_ratings_total": 282, "vicinity": "Hoca Pa\u015fa, Ankara Caddesi No:42"}, {"business_status": "OPERATIONAL", "geometry": {"location": {"lat": 41.015175, "lng": 28.97567}, "viewport": {"northeast": {"lat": 41.01650893029149, "lng": 28.9770580302915}, "southwest": {"lat": 41.0138109697085, "lng": 28.9743600697085}}}, "icon": "https://maps.gstatic.com/mapfiles/place_api/icons/v1/png_71/cafe-71.png", "icon_background_color": "#FF9E67", "icon_mask_base_uri": "https://maps.gstatic.com/mapfiles/place_api/icons/v2/cafe_pinlet", "name": "MADO", "opening_hours": {"open_now": true}, "photos": [{"height": 4032, "html_attributions": ["<a href=\"https://maps.google.com/maps/contrib/105743173758903205868\">NK Q8</a>"], "photo_reference": "AW30NDymlmtSjdtUUF5e8W5JyOy7UvVjHDLO2qiDkORKQm0L0fdwIr5sshDuiuGZU4UsiU-n-ck4bu3TkpftekyPItFSHIX3FaZ7c1sKcLrLgIrrYKi6pAdqOw3FQfUiE_k_anphQWPBBfjF6fAO84qhghgF39wfHmrKKkJKgYNO5JdDCKC9", "width": 3024}], "place_id": "ChIJLaG4m-q5yhQR7ZqyvW-XZco", "plus_code": {"compound_code": "2X8G+37 Fatih/\u0130stanbul, Turkey", "global_code": "8GHC2X8G+37"}, "price_level": 3, "rating": 3.1, "reference": "ChIJLaG4m-q5yhQR7ZqyvW-XZco", "scope": "GOOGLE", "types": ["cafe", "restaurant", "point_of_interest", "store", "food", "establishment"], "user_ratings_total": 1197, "vicinity": "Hobyar, Giri\u015f, Ankara Caddesi No:67 Z"}, {"business_status": "OPERATIONAL", "geometry": {"location": {"lat": 41.01555560000001, "lng": 28.9758333}, "viewport": {"northeast": {"lat": 41.0169045802915, "lng": 28.97718228029149}, "southwest": {"lat": 41.01420661970851, "lng": 28.9744843197085}}}, "icon": "https://maps.gstatic.com/mapfiles/place_api/icons/v1/png_71/restaurant-71.png", "icon_background_color": "#FF9E67", "icon_mask_base_uri": "https://maps.gstatic.com/mapfiles/place_api/icons/v2/restaurant_pinlet", "name": "Cafe Esmer Shef", "photos": [{"height": 1280, "html_attributions": ["<a href=\"https://maps.google.com/maps/contrib/101647139786264868665\">Ashwag Alanzy</a>"], "photo_reference": "AW30NDxUcdaJhSzkrNttC7wkfflFV72sWTS5lbPIsJJjzJfIYpsfGMgmestYpDw_y12QXUf_Z3ClyxpPvcOQ11fSIBp8ZtjzlO2a2dhBU7zwwqIGdeEW7OF8yYQdcbTNyHLJbBIHnW8cWZ57M67fSTzhJ7HbsXjE2qlb_2kdnXVgf-IpoDjL", "width": 1047}], "place_id": "ChIJC5hp1cG5yhQRbcfNJFEomLM", "plus_code": {"compound_code": "2X8G+68 Fatih/\u0130stanbul, Turkey", "global_code": "8GHC2X8G+68"}, "price_level": 2, "rating": 4.2, "reference": "ChIJC5hp1cG5yhQRbcfNJFEomLM", "scope": "GOOGLE", "types": ["restaurant", "cafe", "point_of_interest", "food", "establishment"], "user_ratings_total": 2328, "vicinity": "Hobyar Mah., Ankara Cad. 73/B, Fatih"}, {"business_status": "OPERATIONAL", "geometry": {"location": {"lat": 41.0163118, "lng": 28.9760341}, "viewport": {"northeast": {"lat": 41.01768318029149, "lng": 28.9773588302915}, "southwest": {"lat": 41.01498521970849, "lng": 28.9746608697085}}}, "icon": "https://maps.gstatic.com/mapfiles/place_api/icons/v1/png_71/restaurant-71.png", "icon_background_color": "#FF9E67", "icon_mask_base_uri": "https://maps.gstatic.com/mapfiles/place_api/icons/v2/restaurant_pinlet", "name": "D\u00fcrb\u00fcn Cafe", "opening_hours": {"open_now": true}, "photos": [{"height": 3024, "html_attributions": ["<a href=\"https://maps.google.com/maps/contrib/109685421100412380140\">Mikail Ok\u00e7u</a>"], "photo_reference": "AW30NDxZD4HlGz-g_UbWcnsRpVSeMudb7K-DfvdN4OdZAUmHGqz2t7O-IDkSYekJCnp3xpgnmYYs9WqLvkFyNL1sRj9sJZIsAnlZpRkjEaCe4J0B_hsWQulzSJKZ0J_VJTlggacjDfB5HJ-tCU1A1c609WIAfFkzNzOWklgHFW3l3X2FLQY", "width": 4032}], "place_id": "ChIJu_R3eOq5yhQR0MnZa2XP5SA", "plus_code": {"compound_code": "2X8G+GC Fatih/\u0130stanbul, Turkey", "global_code": "8GHC2X8G+GC"}, "price_level": 2, "rating": 4.1, "reference": "ChIJu_R3eOq5yhQR0MnZa2XP5SA", "scope": "GOOGLE", "types": ["restaurant", "cafe", "point_of_interest", "food", "establishment"], "user_ratings_total": 1339, "vicinity": "Hobyar Mah, Yal\u0131 K\u00f6\u015fk\u00fc Caddesi No:22 Kat:4"}, {"business_status": "OPERATIONAL", "geometry": {"location": {"lat": 41.0157081, "lng": 28.9738891}, "viewport": {"northeast": {"lat": 41.01703173029149, "lng": 28.9752223802915}, "southwest": {"lat": 41.0143337697085, "lng": 28.9725244197085}}}, "icon": "https://maps.gstatic.com/mapfiles/place_api/icons/v1/png_71/cafe-71.png", "icon_background_color": "#FF9E67", "icon_mask_base_uri": "https://maps.gstatic.com/mapfiles/place_api/icons/v2/cafe_pinlet", "name": "Brew Coffee Works", "opening_hours": {"open_now": true}, "photos": [{"height": 4000, "html_attributions": ["<a href=\"https://maps.google.com/maps/contrib/112141457444096334867\">Brew Coffee Works</a>"], "photo_reference": "AW30NDxbzT6nuDMYMxtmEMt0oFKB6Cn_R3PTSKBQvo7BGKOXLFmcE5zZyNYeYzMtzLqHbGUap6DhyVIZhWbN2qMzNq1Y-VP9NW3NZNF9afIj3dpe_ZWp978AUgIwpciuL9FEJOD54fq1Jed4niRLknIamorUPpziaIYDui2xLW8mcuo8X4TG", "width": 6000}], "place_id": "ChIJkRdr7-q5yhQRNRVLOVhAUn4", "plus_code": {"compound_code": "2X8F+7H Fatih/\u0130stanbul, Turkey", "global_code": "8GHC2X8F+7H"}, "price_level": 2, "rating": 4.3, "reference": "ChIJkRdr7-q5yhQRNRVLOVhAUn4", "scope": "GOOGLE", "types": ["cafe", "restaurant", "point_of_interest", "store", "food", "establishment"], "user_ratings_total": 919, "vicinity": "Hobyar, Hamidiye Caddesi No:16"}, {"business_status": "OPERATIONAL", "geometry": {"location": {"lat": 41.0167325, "lng": 28.97324}, "viewport": {"northeast": {"lat": 41.0181082302915, "lng": 28.97462883029149}, "southwest": {"lat": 41.0154102697085, "lng": 28.97193086970849}}}, "icon": "https://maps.gstatic.com/mapfiles/place_api/icons/v1/png_71/cafe-71.png", "icon_background_color": "#FF9E67", "icon_mask_base_uri": "https://maps.gstatic.com/mapfiles/place_api/icons/v2/cafe_pinlet", "name": "Hayal Cafe", "opening_hours": {"open_now": true}, "photos": [{"height": 1256, "html_attributions": ["<a href=\"https://maps.google.com/maps/contrib/117045089972022949532\">Susan W</a>"], "photo_reference": "AW30NDwFX8k9zGu7WJhLbyHArSkf8FRCsfw1nhFWF3aod5Hc1CyMOdvd_osbLwPy5tMwHljO_35_J9RL3VqUimIjFiZnAymTtaTLcXfZ0CePAr7PeyAHc0t0swt1Pee5V5eEYay-0PYo8VaSa6cTVF_Wj-oAQ_aFOWreLZGDTxF7hJwb4wv_", "width": 1600}], "place_id": "ChIJE4JjU-q5yhQRb_A27DdntMU", "plus_code": {"compound_code": "2X8F+M7 Fatih/\u0130stanbul, Turkey", "global_code": "8GHC2X8F+M7"}, "rating": 4, "reference": "ChIJE4JjU-q5yhQRb_A27DdntMU", "scope": "GOOGLE", "types": ["cafe", "point_of_interest", "food", "establishment"], "user_ratings_total": 46, "vicinity": "Hobyar, Birlik Sokak No:7"}, {"business_status": "OPERATIONAL", "geometry": {"location": {"lat": 41.0080549, "lng": 28.97662870000001}, "viewport": {"northeast": {"lat": 41.0093663302915, "lng": 28.97796703029151}, "southwest": {"lat": 41.0066683697085, "lng": 28.97526906970851}}}, "icon": "https://maps.gstatic.com/mapfiles/place_api/icons/v1/png_71/restaurant-71.png", "icon_background_color": "#FF9E67", "icon_mask_base_uri": "https://maps.gstatic.com/mapfiles/place_api/icons/v2/restaurant_pinlet", "name": "Haf\u0131z Mustafa", "opening_hours": {"open_now": true}, "photos": [{"height": 9000, "html_attributions": ["<a href=\"https://maps.google.com/maps/contrib/106621184986402764066\">Erkan Saka</a>"], "photo_reference": "AW30NDx2jv5zibTh4npR_byw2qm-yCzpWzWjB-4lsbZjRoqHNTLLbq7zzpc81kG0X5H1FXUCSAqmAJ_KOr08N4BP4ROmC_b4b-8IBE9R8sFT0sq2f5d47mnrPwPLZsjTZqACgHkypi_97Ts1ZfQ_XqTTUfAXqhdjIpJNg7BJtso13XnXUJnr", "width": 12000}], "place_id": "ChIJwUXy8b25yhQRwnPmaC7PlSU", "plus_code": {"compound_code": "2X5G+6M Fatih/\u0130stanbul, Turkey", "global_code": "8GHC2X5G+6M"}, "price_level": 2, "rating": 4.6, "reference": "ChIJwUXy8b25yhQRwnPmaC7PlSU", "scope": "GOOGLE", "types": ["cafe", "restaurant", "point_of_interest", "bakery", "store", "food", "establishment"], "user_ratings_total": 5840, "vicinity": "Binbirdirek, Divan Yolu Caddesi No:14"}], "status": "OK"}