{"html_attributions": [], "results": [{"business_status": "OPERATIONAL", "geometry": {"location": {"lat": 41.1805584, "lng": 28.9895902}, "viewport": {"northeast": {"lat": 41.1818995802915, "lng": 28.9908397802915}, "southwest": {"lat": 41.1792016197085, "lng": 28.9881418197085}}}, "icon": "https://maps.gstatic.com/mapfiles/place_api/icons/v1/png_71/cafe-71.png", "icon_background_color": "#FF9E67", "icon_mask_base_uri": "https://maps.gstatic.com/mapfiles/place_api/icons/v2/cafe_pinlet", "name": "Belgrad Cafe", "opening_hours": {"open_now": true}, "photos": [{"height": 6936, "html_attributions": ["<a href=\"https://maps.google.com/maps/contrib/118208744876066931467\">Yusuf G\u00fclen\u00e7</a>"], "photo_reference": "AW30NDw8R0PiM3RtUMHOsbqBbYtP-CCKz7-SEFfMeaxV5Yt7w8WbBPcVAheY_EK1C0wex_876ljUXKg4U95O0Yz1NAjnmdijuBe1sMyxC5PKgpngat9gpBeMEbHvP_eWHylc7j2lPX8hOGh9Ra0ulJUrb8iG1GTfDoSpUt9ze8VjT3kLLYWl", "width": 9248}], "place_id": "ChIJyQjotkXhn0ARxmE15Y8Upqo", "plus_code": {"compound_code": "5XJQ+6R Sar\u0131yer/\u0130stanbul, Turkey", "global_code": "8GHC5XJQ+6R"}, "rating": 4.7, "reference": "ChIJyQjotkXhn0ARxmE15Y8Upqo", "scope": "GOOGLE", "types": ["cafe", "food", "point_of_interest", "establishment"], "user_ratings_total": 3, "vicinity": "Bah\u00e7ek\u00f6y Merkez, Valide Sultan Caddesi No:20"}, {"business_status": "CLOSED_TEMPORARILY", "geometry": {"location": {"lat": 41.1799205, "lng": 28.9900265}, "viewport": {"northeast": {"lat": 41.1812707802915, "lng": 28.9913082802915}, "southwest": {"lat": 41.1785728197085, "lng": 28.9886103197085}}}, "icon": "https://maps.gstatic.com/mapfiles/place_api/icons/v1/png_71/cafe-71.png", "icon_background_color": "#FF9E67", "icon_mask_base_uri": "https://maps.gstatic.com/mapfiles/place_api/icons/v2/cafe_pinlet", "name": "Bebe\u011fim Cafe Shisha", "permanently_closed": true, "place_id": "ChIJsSJZ6Nnhn0AROJYezrD8ZNc", "plus_code": {"compound_code": "5XHR+X2 Sar\u0131yer/\u0130stanbul, Turkey", "global_code": "8GHC5XHR+X2"}, "reference": "ChIJsSJZ6Nnhn0AROJYezrD8ZNc", "scope": "GOOGLE", "types": ["cafe", "food", "point_of_interest", "establishment"], "vicinity": "Bah\u00e7ek\u00f6y Merkez, Serhatler Sokak No:22"}, {"business_status": "OPERATIONAL", "geometry": {"location": {"lat": 41.179256, "lng": 28.991293}, "viewport": {"northeast": {"lat": 41.18061148029149, "lng": 28.9926716802915}, "southwest": {"lat": 41.1779135197085, "lng": 28.9899737197085}}}, "icon": "https://maps.gstatic.com/mapfiles/place_api/icons/v1/png_71/cafe-71.png", "icon_background_color": "#FF9E67", "icon_mask_base_uri": "https://maps.gstatic.com/mapfiles/place_api/icons/v2/cafe_pinlet", "name": "Ad\u0131g\u00fczel Kahvehanesi", "photos": [{"height": 2988, "html_attributions": ["<a href=\"https://maps.google.com/maps/contrib/116196689557241776756\">Ismail Ontas</a>"], "photo_reference": "AW30NDxhcMr7PuM40T3E-zaXQnEHQziU5mGRKgjb8gm7C8POHmMNan6SlN8ZqtnhKPuLxoMGNEo0jzYDSCf65khnooknjLyt--trX_a0fnyA-ZBbNdiJfaZJdFiuNC1AHNOAHR6cz8MTQya0wX3w6DnzBfAKdRvSrfFDL9YobLQDQhUNn-AD", "width": 5312}], "place_id": "ChIJi-t7aNfhn0ARRY9k4ax_DBI", "plus_code": {"compound_code": "5XHR+PG Sar\u0131yer/\u0130stanbul, Turkey", "global_code": "8GHC5XHR+PG"}, "rating": 4.1, "reference": "ChIJi-t7aNfhn0ARRY9k4ax_DBI", "scope": "GOOGLE", "types": ["cafe", "food", "point_of_interest", "establishment"], "user_ratings_total": 43, "vicinity": "Bah\u00e7ek\u00f6y Merkez, \u0130n\u00f6n\u00fc Caddesi No:27"}, {"business_status": "OPERATIONAL", "geometry": {"location": {"lat": 41.1792235, "lng": 28.9916107}, "viewport": {"northeast": {"lat": 41.18057273029149, "lng": 28.9929561302915}, "southwest": {"lat": 41.1778747697085, "lng": 28.9902581697085}}}, "icon": "https://maps.gstatic.com/mapfiles/place_api/icons/v1/png_71/cafe-71.png", "icon_background_color": "#FF9E67", "icon_mask_base_uri": "https://maps.gstatic.com/mapfiles/place_api/icons/v2/cafe_pinlet", "name": "\u00c7ak\u0131l Cafe", "opening_hours": {"open_now": true}, "photos": [{"height": 1080, "html_attributions": ["<a href=\"https://maps.google.com/maps/contrib/112226007219181590993\">\u00c7ak\u0131l Cafe</a>"], "photo_reference": "AW30NDxZRuUFHpNN5LHiaAgJCRWYmvKZ7FIZUreeYZ45VweyJj0JatJlQxl5DsPGqpVWJZljO9ygjiKiN5HqEhjTXRo0aILUMck-4I-_3f4P7jrBxSlktod4Yk7NK3t2da57kEUyiZYgpadl3iG_4uR7zPaG4RAINOH8v76m1dHs3QaOvF79", "width": 1080}], "place_id": "ChIJb8nrU9fhn0ARglVBcRt4P7U", "plus_code": {"compound_code": "5XHR+MJ Sar\u0131yer/\u0130stanbul, Turkey", "global_code": "8GHC5XHR+MJ"}, "price_level": 2, "rating": 4.6, "reference": "ChIJb8nrU9fhn0ARglVBcRt4P7U", "scope": "GOOGLE", "types": ["cafe", "food", "point_of_interest", "establishment"], "user_ratings_total": 83, "vicinity": "Bah\u00e7ek\u00f6y Merkez, Bekir S\u0131tk\u0131 Evcimen Sokak No:3"}, {"business_status": "CLOSED_TEMPORARILY", "geometry": {"location": {"lat": 41.1790774, "lng": 28.9914716}, "viewport": {"northeast": {"lat": 41.1804165302915, "lng": 28.9928067302915}, "southwest": {"lat": 41.1777185697085, "lng": 28.99010876970851}}}, "icon": "https://maps.gstatic.com/mapfiles/place_api/icons/v1/png_71/cafe-71.png", "icon_background_color": "#FF9E67", "icon_mask_base_uri": "https://maps.gstatic.com/mapfiles/place_api/icons/v2/cafe_pinlet", "name": "Katmer Cafe", "permanently_closed": true, "place_id": "ChIJ-zDJbtfhn0ARWV4hGVwUTbA", "plus_code": {"compound_code": "5XHR+JH Sar\u0131yer/\u0130stanbul, Turkey", "global_code": "8GHC5XHR+JH"}, "reference": "ChIJ-zDJbtfhn0ARWV4hGVwUTbA", "scope": "GOOGLE", "types": ["cafe", "food", "point_of_interest", "establishment"], "vicinity": "Bah\u00e7ek\u00f6y Merkez, \u0130n\u00f6n\u00fc Caddesi No:23"}, {"business_status": "OPERATIONAL", "geometry": {"location": {"lat": 41.1788338, "lng": 28.99174640000001}, "viewport": {"northeast": {"lat": 41.1801709302915, "lng": 28.9930484302915}, "southwest": {"lat": 41.1774729697085, "lng": 28.9903504697085}}}, "icon": "https://maps.gstatic.com/mapfiles/place_api/icons/v1/png_71/cafe-71.png", "icon_background_color": "#FF9E67", "icon_mask_base_uri": "https://maps.gstatic.com/mapfiles/place_api/icons/v2/cafe_pinlet", "name": "Bah\u00e7e Cafe", "opening_hours": {"open_now": true}, "photos": [{"height": 1080, "html_attributions": ["<a href=\"https://maps.google.com/maps/contrib/113690363470284056194\">Mustafa Gungor AVCI</a>"], "photo_reference": "AW30NDxla0-ep17nQ9TfAJ8f5zAZ5R7HpzIzLpOdZIjyvW79jQBXaNZEA3nJvfkO4FSvsQ1at9US4s2xqTWZaWXwgYUixxXHUyA-pwRRm77-wQPgWVEcfz_8oamRUxsOEfpLuOsppxkCT2P9vmCcW558vjeaWW3fdjz1C5meyCX8_cOTo0U", "width": 1920}], "place_id": "ChIJhYDPC9nhn0ARxbnF95fUfHI", "plus_code": {"compound_code": "5XHR+GM Sar\u0131yer/\u0130stanbul, Turkey", "global_code": "8GHC5XHR+GM"}, "rating": 4.3, "reference": "ChIJhYDPC9nhn0ARxbnF95fUfHI", "scope": "GOOGLE", "types": ["cafe", "food", "point_of_interest", "establishment"], "user_ratings_total": 20, "vicinity": "Bah\u00e7ek\u00f6y Merkez, \u0130n\u00f6n\u00fc Caddesi 8c"}, {"business_status": "CLOSED_TEMPORARILY", "geometry": {"location": {"lat": 41.1790244, "lng": 28.9923962}, "viewport": {"northeast": {"lat": 41.1803519802915, "lng": 28.9937908302915}, "southwest": {"lat": 41.17765401970851, "lng": 28.9910928697085}}}, "icon": "https://maps.gstatic.com/mapfiles/place_api/icons/v1/png_71/cafe-71.png", "icon_background_color": "#FF9E67", "icon_mask_base_uri": "https://maps.gstatic.com/mapfiles/place_api/icons/v2/cafe_pinlet", "name": "S\u0131la Patisseria cafe", "permanently_closed": true, "photos": [{"height": 1200, "html_attributions": ["<a href=\"https://maps.google.com/maps/contrib/110403940181797345069\">Rahmi Kaya</a>"], "photo_reference": "AW30NDzg9dRtdnUOfl2kn91OvapXdBDlT6kFr3cwvrz9NyCtHySThauQkBeiW6eyRLoP28Rj0J01BrMiMPYwYl6jDl7t8-64AO-iBv_JK10F2X71WLQjKXiAkNdHaw5-t8B8q3INEpGgH6k0wfVfzyUcsfHMx9NKX66o6gV_GIvgp-657cwd", "width": 1600}], "place_id": "ChIJRxTIFdfhn0AR9Z1sx8D_aY0", "plus_code": {"compound_code": "5XHR+JX Sar\u0131yer/\u0130stanbul, Turkey", "global_code": "8GHC5XHR+JX"}, "rating": 4.1, "reference": "ChIJRxTIFdfhn0AR9Z1sx8D_aY0", "scope": "GOOGLE", "types": ["cafe", "bakery", "food", "point_of_interest", "store", "establishment"], "user_ratings_total": 8, "vicinity": "Bah\u00e7ek\u00f6y Merkez, Adnan Menderes Caddesi No:133, Sar\u0131yer"}, {"business_status": "OPERATIONAL", "geometry": {"location": {"lat": 41.1783686, "lng": 28.9918046}, "viewport": {"northeast": {"lat": 41.1797163302915, "lng": 28.9931480302915}, "southwest": {"lat": 41.1770183697085, "lng": 28.9904500697085}}}, "icon": "https://maps.gstatic.com/mapfiles/place_api/icons/v1/png_71/restaurant-71.png", "icon_background_color": "#FF9E67", "icon_mask_base_uri": "https://maps.gstatic.com/mapfiles/place_api/icons/v2/restaurant_pinlet", "name": "S\u0131la Pastaneleri", "opening_hours": {"open_now": true}, "photos": [{"height": 3024, "html_attributions": ["<a href=\"https://maps.google.com/maps/contrib/112552324233277179473\">S\u0131la Pastaneleri</a>"], "photo_reference": "AW30NDwoNMn2JRfpoAfTtVfK0E-5gKAFtIcSuSNo1X_8tEArGM2k76C51QjZH2a9Smv_1GpJkhIcwr-eolbc4MlFpHNrQbxK3Hku4Su-3pIsl-pbXrFHJd4hLKoFowfB7RFFcHPMRjhlzlLjY2601lqMW28E79xGsH0_TxZI2XOpaJDUqFJ9", "width": 4032}], "place_id": "ChIJpR5uCdfhn0ARIAmQ1deIABU", "plus_code": {"compound_code": "5XHR+8P Sar\u0131yer/\u0130stanbul, Turkey", "global_code": "8GHC5XHR+8P"}, "rating": 4.2, "reference": "ChIJpR5uCdfhn0ARIAmQ1deIABU", "scope": "GOOGLE", "types": ["bakery", "cafe", "food", "point_of_interest", "store", "establishment"], "user_ratings_total": 16, "vicinity": "Bah\u00e7ek\u00f6y Merkez, 33, Adnan Menderes Caddesi"}, {"business_status": "CLOSED_TEMPORARILY", "geometry": {"location": {"lat": 41.1782968, "lng": 28.99184829999999}, "viewport": {"northeast": {"lat": 41.17963798029149, "lng": 28.9931801802915}, "southwest": {"lat": 41.1769400197085, "lng": 28.9904822197085}}}, "icon": "https://maps.gstatic.com/mapfiles/place_api/icons/v1/png_71/cafe-71.png", "icon_background_color": "#FF9E67", "icon_mask_base_uri": "https://maps.gstatic.com/mapfiles/place_api/icons/v2/cafe_pinlet", "name": "Osmanl\u0131 \u00c7AY OCA\u011eI", "permanently_closed": true, "photos": [{"height": 4128, "html_attributions": ["<a href=\"https://maps.google.com/maps/contrib/111667598901970553806\">\u0130SMA\u0130L \u00c7ET\u0130N</a>"], "photo_reference": "AW30NDxLHDyUpQLWVAnZHlwnzliBXR7jP6875g3VFmhP7pDPdVdAcpfaG_YAF5lOxG8HAYzkmPUgy2EG93i3ZgCs9hptxX4-pOEZg9-_3wJaUBxQbkT4J5fk86N9aGDy24YWDVbXXshTgoJ5gGOGMwKJJHyAs1mEmGr7dhcq8sQCbMkbuhjt", "width": 2322}], "place_id": "ChIJBeD8CNfhn0ARJ7jQtFvMYos", "plus_code": {"compound_code": "5XHR+8P Sar\u0131yer/\u0130stanbul, Turkey", "global_code": "8GHC5XHR+8P"}, "rating": 4, "reference": "ChIJBeD8CNfhn0ARJ7jQtFvMYos", "scope": "GOOGLE", "types": ["cafe", "food", "point_of_interest", "establishment"], "user_ratings_total": 1, "vicinity": "Bah\u00e7ek\u00f6y Merkez"}, {"business_status": "OPERATIONAL", "geometry": {"location": {"lat": 41.1776627, "lng": 28.9915366}, "viewport": {"northeast": {"lat": 41.1790436302915, "lng": 28.9928457802915}, "southwest": {"lat": 41.1763456697085, "lng": 28.9901478197085}}}, "icon": "https://maps.gstatic.com/mapfiles/place_api/icons/v1/png_71/cafe-71.png", "icon_background_color": "#FF9E67", "icon_mask_base_uri": "https://maps.gstatic.com/mapfiles/place_api/icons/v2/cafe_pinlet", "name": "Bah\u00e7ek\u00f6y PlayStation", "opening_hours": {"open_now": true}, "photos": [{"height": 1168, "html_attributions": ["<a href=\"https://maps.google.com/maps/contrib/103484506937624627837\">PLAYSTAT\u0130ON 5 CAFE (BAH\u00c7EK\u00d6Y - SARIYER)</a>"], "photo_reference": "AW30NDwA2y2dLblTs7ay31en8NS8wIRqwHMtNTspgTlBCmreDtZ-EYBuin8FFLly0a4JUxsNGGfPSWD7fy1Ajw_-zZ9xcI9pAAaiuRTwbJPyLTbz4aLpsH5SnTjOIE6ppoZ1-Ut8HL-LWWdA-_BrXJPDjBYBXn6QEZxdtqh2v9x4fh92eMyl", "width": 1080}], "place_id": "ChIJ8VSXzHXhn0ARLWzCdCrGjfc", "plus_code": {"compound_code": "5XHR+3J Sar\u0131yer/\u0130stanbul, Turkey", "global_code": "8GHC5XHR+3J"}, "rating": 5, "reference": "ChIJ8VSXzHXhn0ARLWzCdCrGjfc", "scope": "GOOGLE", "types": ["cafe", "food", "point_of_interest", "establishment"], "user_ratings_total": 8, "vicinity": "Bah\u00e7ek\u00f6y Merkez, D:No 2 /1"}], "status": "OK"}