{"html_attributions": [], "next_page_token": "AW30NDwnQb-5Sf8M3nUad9vtqChdoVnTyBMouPICJhIT7e8UImIN8hPkZ76CVQbyCJT_GJ7nu0eCsGYkp1vfpbKHiGwG4EXN_UeshFzDIUmQBYCToxoEKH1wBvD53aNFaXsO9FAbQJJ3o4D8rUp5J6CU-DDYkUnJ_cOFUp8-F1rnWq1APnrhsoASq8JCeQ0sOs97yE3-UtNbA3t5ggDLFBa40Tm0nINvdrcWTqSdHFf28tg1Emyr1uq7fjkWw5zPSu4samQuXbkQhPQmQfsYG-bVZURRgCyfLWSfBJ225ZfKf0m2NJw8HLXlqWHEn7_JeW5Vng344UfR4xgOmIjrC8XcxC3pjjS8h6pyRnBhFiWn2y3AEUywgiIMgV9Z87JqoyjQQneXYtlL6UCIG3mU0PSG0BBRadvwPJzHO0gWECypW6zSmHp8CyYO", "results": [{"business_status": "OPERATIONAL", "geometry": {"location": {"lat": 41.013154, "lng": 28.97773}, "viewport": {"northeast": {"lat": 41.0144618302915, "lng": 28.9790150802915}, "southwest": {"lat": 41.0117638697085, "lng": 28.9763171197085}}}, "icon": "https://maps.gstatic.com/mapfiles/place_api/icons/v1/png_71/lodging-71.png", "icon_background_color": "#909CE1", "icon_mask_base_uri": "https://maps.gstatic.com/mapfiles/place_api/icons/v2/hotel_pinlet", "name": "Orient Express & Spa by Orka Hotels", "opening_hours": {"open_now": true}, "photos": [{"height": 3449, "html_attributions": ["<a href=\"https://maps.google.com/maps/contrib/110921849677727866437\">Orient Express &amp; Spa by Orka Hotels</a>"], "photo_reference": "AW30NDwIE8TMs1nOBX5-Xb_QCaN2P34eMoxqwsP5j-WEamB4v-P2Bz8NJ8M8KuU4uTn1FjFt7j2fKwOylpxPGD-7eNWsmCccH8xhUXCUUeAnePL_atHh50rDNWLtsEz7C0vvq_zM66jJ9oHo2BUrDF2oxz9Xtl2P_qZ1sursnQ10XrCOMZTM", "width": 2100}], "place_id": "ChIJbUDBCsC5yhQRrbehwLl8acs", "plus_code": {"compound_code": "2X7H+73 Fatih/\u0130stanbul, Turkey", "global_code": "8GHC2X7H+73"}, "rating": 4.2, "reference": "ChIJbUDBCsC5yhQRrbehwLl8acs", "scope": "GOOGLE", "types": ["cafe", "spa", "lodging", "bar", "restaurant", "food", "point_of_interest", "establishment"], "user_ratings_total": 707, "vicinity": "Hoca Pa\u015fa, Old City Sirkeci, H\u00fcdavendigar Caddesi No:24"}, {"business_status": "OPERATIONAL", "geometry": {"location": {"lat": 41.0081399, "lng": 28.9760521}, "viewport": {"northeast": {"lat": 41.0094379302915, "lng": 28.9773934802915}, "southwest": {"lat": 41.00673996970851, "lng": 28.9746955197085}}}, "icon": "https://maps.gstatic.com/mapfiles/place_api/icons/v1/png_71/restaurant-71.png", "icon_background_color": "#FF9E67", "icon_mask_base_uri": "https://maps.gstatic.com/mapfiles/place_api/icons/v2/restaurant_pinlet", "name": "Mado", "opening_hours": {"open_now": true}, "photos": [{"height": 3000, "html_attributions": ["<a href=\"https://maps.google.com/maps/contrib/118230918393891210030\">\u0410\u043b\u0435\u043a\u0441\u0430\u043d\u0434\u0440\u0430</a>"], "photo_reference": "AW30NDwcepXO4dS7M4mMX_vYLREOYP2AGbgmtTriyu7QznTHSEpoRmRoMycJA9xHw8rXI_eomq4aFVk5OeCiHDNrYEIfdaJCuqn99Z_O0JtJiREAkg52Cyb30l5ujqZ1CS_d9XZQhBKio8r2Wx1i45CIFWUclxuxEMR-YadcFGAKmm8FN04X", "width": 4000}], "place_id": "ChIJC_89GZa5yhQRAenIvYOc_a0", "plus_code": {"compound_code": "2X5G+7C Fatih/\u0130stanbul, Turkey", "global_code": "8GHC2X5G+7C"}, "price_level": 3, "rating": 3.8, "reference": "ChIJC_89GZa5yhQRAenIvYOc_a0", "scope": "GOOGLE", "types": ["bakery", "cafe", "restaurant", "food", "point_of_interest", "store", "establishment"], "user_ratings_total": 1823, "vicinity": "Alemdar, Divan Yolu Caddesi No:24"}, {"business_status": "OPERATIONAL", "geometry": {"location": {"lat": 41.0084766, "lng": 28.9776073}, "viewport": {"northeast": {"lat": 41.0098363302915, "lng": 28.9790844302915}, "southwest": {"lat": 41.0071383697085, "lng": 28.9763864697085}}}, "icon": "https://maps.gstatic.com/mapfiles/place_api/icons/v1/png_71/cafe-71.png", "icon_background_color": "#FF9E67", "icon_mask_base_uri": "https://maps.gstatic.com/mapfiles/place_api/icons/v2/cafe_pinlet", "name": "Omar Cafe & Restaurant", "opening_hours": {"open_now": true}, "photos": [{"height": 1966, "html_attributions": ["<a href=\"https://maps.google.com/maps/contrib/117735397904241721778\">GHA</a>"], "photo_reference": "AW30NDxlDK-PYtwNR-0vA1KkbGgwsAwYJl8sZuoy3ii869qOLeHAKzEZEnH88LBhrj_6WidR9cYHmmAq2a4zjOkhzp4nsLS8u1svIQmuvDNVh2M6-UAAB59aTavgzdHLmlyz7eavv__yb3AmbuTSPc5kjGAr_ZXGyGGYahLBuztOomMKRafC", "width": 1680}], "place_id": "ChIJ07B-4L25yhQRBaEzMbEjsw8", "plus_code": {"compound_code": "2X5H+92 Fatih/\u0130stanbul, Turkey", "global_code": "8GHC2X5H+92"}, "rating": 4.3, "reference": "ChIJ07B-4L25yhQRBaEzMbEjsw8", "scope": "GOOGLE", "types": ["cafe", "restaurant", "food", "point_of_interest", "establishment"], "user_ratings_total": 168, "vicinity": "Alemdar, \u015eeftali Sokak No:8"}, {"business_status": "CLOSED_TEMPORARILY", "geometry": {"location": {"lat": 41.0081678, "lng": 28.9755379}, "viewport": {"northeast": {"lat": 41.00951678029149, "lng": 28.9768868802915}, "southwest": {"lat": 41.00681881970849, "lng": 28.9741889197085}}}, "icon": "https://maps.gstatic.com/mapfiles/place_api/icons/v1/png_71/restaurant-71.png", "icon_background_color": "#FF9E67", "icon_mask_base_uri": "https://maps.gstatic.com/mapfiles/place_api/icons/v2/restaurant_pinlet", "name": "Petrol Palace Restaurant", "permanently_closed": true, "photos": [{"height": 1920, "html_attributions": ["<a href=\"https://maps.google.com/maps/contrib/111400895931951310437\">Pavel Semashko</a>"], "photo_reference": "AW30NDyWdROnHQS-vmAdxJgRfxgUjRh6ST5MvB-U8zU88707svyYWHaibm8Q2Jbdax76nOVplH-Yr_bnFhH1zuD0XD3jQ2tFR4xWLqCiM6dwUv0a1Mkf0qCsUF-fSnwaW4mXrfXREfY2wHf0AcFXr1QpkOeT2f4e0hFoRvSfAFYvnjz8CTTz", "width": 1080}], "place_id": "ChIJ0Z8Hif25yhQRaaOkMiqZPjI", "plus_code": {"compound_code": "2X5G+76 Fatih/\u0130stanbul, Turkey", "global_code": "8GHC2X5G+76"}, "rating": 3, "reference": "ChIJ0Z8Hif25yhQRaaOkMiqZPjI", "scope": "GOOGLE", "types": ["restaurant", "cafe", "food", "point_of_interest", "establishment"], "user_ratings_total": 2, "vicinity": "Turkey"}, {"business_status": "OPERATIONAL", "geometry": {"location": {"lat": 41.0093588, "lng": 28.9767798}, "viewport": {"northeast": {"lat": 41.0107401302915, "lng": 28.9781815802915}, "southwest": {"lat": 41.0080421697085, "lng": 28.9754836197085}}}, "icon": "https://maps.gstatic.com/mapfiles/place_api/icons/v1/png_71/cafe-71.png", "icon_background_color": "#FF9E67", "icon_mask_base_uri": "https://maps.gstatic.com/mapfiles/place_api/icons/v2/cafe_pinlet", "name": "Maya's Corner Cafe", "photos": [{"height": 1024, "html_attributions": ["<a href=\"https://maps.google.com/maps/contrib/100726985610563849024\">Maya&#39;s Corner Cafe</a>"], "photo_reference": "AW30NDwNVN_SZzRszGO4r3mMr9B7b_uSO8u2NFfchY2zCd0J3cX-bX48nglpMpqPm6ugTw5-4ow7y0bDYt6i0kvCPmaBVSA85eMQWjsoIQaZviKGINU6fF9TJiIiwDQB0XhMwV0UDXdRtRh6Ddlux9nXEYucSh2HBKIbEt5_3t6jXVVav-Tf", "width": 768}], "place_id": "ChIJ_zPXGr65yhQRkJAL0-6DY5k", "plus_code": {"compound_code": "2X5G+PP Fatih/\u0130stanbul, Turkey", "global_code": "8GHC2X5G+PP"}, "price_level": 1, "rating": 4.6, "reference": "ChIJ_zPXGr65yhQRkJAL0-6DY5k", "scope": "GOOGLE", "types": ["cafe", "restaurant", "food", "point_of_interest", "store", "establishment"], "user_ratings_total": 114, "vicinity": "Alemdar, Yerebatan Caddesi No:25"}, {"business_status": "OPERATIONAL", "geometry": {"location": {"lat": 41.00963, "lng": 28.979444}, "viewport": {"northeast": {"lat": 41.01097888029149, "lng": 28.9807931802915}, "southwest": {"lat": 41.00828091970849, "lng": 28.9780952197085}}}, "icon": "https://maps.gstatic.com/mapfiles/place_api/icons/v1/png_71/cafe-71.png", "icon_background_color": "#FF9E67", "icon_mask_base_uri": "https://maps.gstatic.com/mapfiles/place_api/icons/v2/cafe_pinlet", "name": "Cafe Turing", "opening_hours": {"open_now": true}, "photos": [{"height": 1080, "html_attributions": ["<a href=\"https://maps.google.com/maps/contrib/108854334772985862780\">Azeema Faizunnisa</a>"], "photo_reference": "AW30NDwgfj5PMzI6ulzATHh3uOOI_XvmVwg9yGo9WA7d6AZq9Pigz9Awkc6t6ykuKYtWOBSGkSDAzmRDuCfIrh7318wTQjlONxNpY2688Le7FykiMCcDQTvHfvBscSO0D3Z6HG8XiLEEpRHaPRkaj6Hv24zN-0LhxymOPif2Dr2511RirWss", "width": 1920}], "place_id": "ChIJv6aO-r65yhQR4iltIYgmZfM", "plus_code": {"compound_code": "2X5H+VQ Fatih/\u0130stanbul, Turkey", "global_code": "8GHC2X5H+VQ"}, "rating": 4.9, "reference": "ChIJv6aO-r65yhQR4iltIYgmZfM", "scope": "GOOGLE", "types": ["cafe", "food", "point_of_interest", "establishment"], "user_ratings_total": 14, "vicinity": "Cankurtaran, Caferiye Sokak No:2"}, {"business_status": "CLOSED_TEMPORARILY", "geometry": {"location": {"lat": 41.0052589, "lng": 28.9754118}, "viewport": {"northeast": {"lat": 41.0066122802915, "lng": 28.97651913029149}, "southwest": {"lat": 41.0039143197085, "lng": 28.97382116970849}}}, "icon": "https://maps.gstatic.com/mapfiles/place_api/icons/v1/png_71/cafe-71.png", "icon_background_color": "#FF9E67", "icon_mask_base_uri": "https://maps.gstatic.com/mapfiles/place_api/icons/v2/cafe_pinlet", "name": "Grand Vezir Cafe", "permanently_closed": true, "photos": [{"height": 2976, "html_attributions": ["<a href=\"https://maps.google.com/maps/contrib/116377171943806717039\">Umar Gilani</a>"], "photo_reference": "AW30NDwI7JCTEDkPxIe5or803ZvbFQv8kiA3NFLGF1dx4DRW0jEcC-YNechS7QFD1g_7UECEd2r96Txnc6OujnLN-kCQxCqnZeYuEzTgTS8vsWPiq9v2-_jGPD_FJ_SGE-ccn3SvjJL1dLX3RuEr-90WXx1vQA-Uen7q6cU-3x11keKCJVts", "width": 3968}], "place_id": "ChIJhTM_75e5yhQRXGz_mQfNz18", "plus_code": {"compound_code": "2X4G+45 Fatih/\u0130stanbul, Turkey", "global_code": "8GHC2X4G+45"}, "rating": 3.6, "reference": "ChIJhTM_75e5yhQRXGz_mQfNz18", "scope": "GOOGLE", "types": ["cafe", "restaurant", "food", "point_of_interest", "establishment"], "user_ratings_total": 43, "vicinity": "Sultan Ahmet, At Meydan\u0131 Caddesi 27/1"}, {"business_status": "CLOSED_TEMPORARILY", "geometry": {"location": {"lat": 41.0123968, "lng": 28.97870009999999}, "viewport": {"northeast": {"lat": 41.0137712302915, "lng": 28.97995853029149}, "southwest": {"lat": 41.0110732697085, "lng": 28.97726056970849}}}, "icon": "https://maps.gstatic.com/mapfiles/place_api/icons/v1/png_71/cafe-71.png", "icon_background_color": "#FF9E67", "icon_mask_base_uri": "https://maps.gstatic.com/mapfiles/place_api/icons/v2/cafe_pinlet", "name": "Ala Turca Art Cafe", "permanently_closed": true, "photos": [{"height": 2645, "html_attributions": ["<a href=\"https://maps.google.com/maps/contrib/105180558797056999414\">\u05db\u05d5\u05db\u05d1\u05d4 \u05d6\u05dc\u05d3\u05de\u05df \u05d0\u05dc\u05e7\u05d1\u05e5</a>"], "photo_reference": "AW30NDxQjEi7xbQYLjx7yLR3YfxaNGQKmA0-T7N_t3ABCBphjtBYiVYlhQGrQ3rhtfp9Sq5rGKr1C1vRH4HJ3WranqlliGytGXJhsyiFkdsr4a3Z_DKSi136baFuF36XomvzOQWC-gKE6tGhk4iWR4mcGMNotAu4A6WIj1tnZ_1l6dD67AyV", "width": 6048}], "place_id": "ChIJ0779g7-5yhQR9yslM_d8o6A", "plus_code": {"compound_code": "2X6H+XF Fatih/\u0130stanbul, Turkey", "global_code": "8GHC2X6H+XF"}, "rating": 4.2, "reference": "ChIJ0779g7-5yhQR9yslM_d8o6A", "scope": "GOOGLE", "types": ["cafe", "food", "point_of_interest", "store", "establishment"], "user_ratings_total": 9, "vicinity": "Cankurtaran, Taya Hatun Sokak No:2"}, {"business_status": "OPERATIONAL", "geometry": {"location": {"lat": 41.0063288, "lng": 28.9800008}, "viewport": {"northeast": {"lat": 41.00766653029149, "lng": 28.9813357802915}, "southwest": {"lat": 41.0049685697085, "lng": 28.9786378197085}}}, "icon": "https://maps.gstatic.com/mapfiles/place_api/icons/v1/png_71/bar-71.png", "icon_background_color": "#FF9E67", "icon_mask_base_uri": "https://maps.gstatic.com/mapfiles/place_api/icons/v2/bar_pinlet", "name": "The Lounge", "opening_hours": {"open_now": true}, "photos": [{"height": 720, "html_attributions": ["<a href=\"https://maps.google.com/maps/contrib/111997794214383816114\">The Lounge</a>"], "photo_reference": "AW30NDzwnZ-W0g-7IBlpNNGX8PRtr8zU8W9vM3JEdN0ZZk9IOUErVviYz6pkfRYe0akvbMKASAe0ntAODW05NbQHHv4mGtQTO6CcMYZpgroO7oGSmZ1tUlwdOGEZQjNQ5IqGVUljfdfd7tgmdd9yO1H1NqxarKnDplrkr8BVGDiVvsaYBCJT", "width": 1280}], "place_id": "ChIJ7TpWRLy5yhQRtT1fydOXAis", "plus_code": {"compound_code": "2X4J+G2 Fatih/\u0130stanbul, Turkey", "global_code": "8GHC2X4J+G2"}, "rating": 5, "reference": "ChIJ7TpWRLy5yhQRtT1fydOXAis", "scope": "GOOGLE", "types": ["night_club", "cafe", "bar", "food", "point_of_interest", "establishment"], "user_ratings_total": 3, "vicinity": "Cankurtaran, Tevkifhane Sokak No. 1"}, {"business_status": "OPERATIONAL", "geometry": {"location": {"lat": 41.0126242, "lng": 28.9783824}, "viewport": {"northeast": {"lat": 41.01393813029149, "lng": 28.9796793302915}, "southwest": {"lat": 41.01124016970849, "lng": 28.9769813697085}}}, "icon": "https://maps.gstatic.com/mapfiles/place_api/icons/v1/png_71/cafe-71.png", "icon_background_color": "#FF9E67", "icon_mask_base_uri": "https://maps.gstatic.com/mapfiles/place_api/icons/v2/cafe_pinlet", "name": "\u202aOsmanlizadeler\u202c", "opening_hours": {"open_now": true}, "photos": [{"height": 1846, "html_attributions": ["<a href=\"https://maps.google.com/maps/contrib/104435811679032605050\">Kakha Khmelidze</a>"], "photo_reference": "AW30NDzkuqCl05U4hI1tkxPhrd83NF4ctKG1Fb11ySBVniVIHt5PXy-Yg8kutFsqaMGB3gjq5Rl_RnYUXqR4pW-enuZ7VSp4lAC5WLDO8T4W79Ayr37I5mNTlWw5ssUviv2FOQdeLpDItYwmb0L78zeWxln-o6WDNPfb5PzoZ95gstKbIx1H", "width": 4000}], "place_id": "ChIJP3gOhr-5yhQR5bDa6bcmY0A", "plus_code": {"compound_code": "2X7H+29 Fatih/\u0130stanbul, Turkey", "global_code": "8GHC2X7H+29"}, "price_level": 2, "rating": 3.8, "reference": "ChIJP3gOhr-5yhQR5bDa6bcmY0A", "scope": "GOOGLE", "types": ["cafe", "food", "point_of_interest", "establishment"], "user_ratings_total": 896, "vicinity": "Hoca Pa\u015fa, H\u00fcdavendigar Caddesi 2/A"}, {"business_status": "OPERATIONAL", "geometry": {"location": {"lat": 41.0080549, "lng": 28.97662870000001}, "viewport": {"northeast": {"lat": 41.0093663302915, "lng": 28.97796703029151}, "southwest": {"lat": 41.0066683697085, "lng": 28.97526906970851}}}, "icon": "https://maps.gstatic.com/mapfiles/place_api/icons/v1/png_71/restaurant-71.png", "icon_background_color": "#FF9E67", "icon_mask_base_uri": "https://maps.gstatic.com/mapfiles/place_api/icons/v2/restaurant_pinlet", "name": "Haf\u0131z Mustafa", "opening_hours": {"open_now": true}, "photos": [{"height": 9000, "html_attributions": ["<a href=\"https://maps.google.com/maps/contrib/106621184986402764066\">Erkan Saka</a>"], "photo_reference": "AW30NDzzYdm4qr5nIJ5ivX3oiOUfrcdln0-xKoAcnUn1LBFBSIYMoHwHm6wCqlVz4PoaiBipu4s-z59_E4xnn6aqKL4fhL7IZ63MEdC2ZiOHLybLBzN-h7kE0UfGOkIHD1loHo-kOhjzELokEyHrtCiQsn8xDixj6fvuyq1yjpya1276_ATF", "width": 12000}], "place_id": "ChIJwUXy8b25yhQRwnPmaC7PlSU", "plus_code": {"compound_code": "2X5G+6M Fatih/\u0130stanbul, Turkey", "global_code": "8GHC2X5G+6M"}, "price_level": 2, "rating": 4.6, "reference": "ChIJwUXy8b25yhQRwnPmaC7PlSU", "scope": "GOOGLE", "types": ["bakery", "cafe", "restaurant", "food", "point_of_interest", "store", "establishment"], "user_ratings_total": 5862, "vicinity": "Binbirdirek, Divan Yolu Caddesi No:14"}, {"business_status": "CLOSED_TEMPORARILY", "geometry": {"location": {"lat": 41.0135738, "lng": 28.9787417}, "viewport": {"northeast": {"lat": 41.0149068802915, "lng": 28.9801441302915}, "southwest": {"lat": 41.0122089197085, "lng": 28.9774461697085}}}, "icon": "https://maps.gstatic.com/mapfiles/place_api/icons/v1/png_71/restaurant-71.png", "icon_background_color": "#FF9E67", "icon_mask_base_uri": "https://maps.gstatic.com/mapfiles/place_api/icons/v2/restaurant_pinlet", "name": "G\u00fclhane House", "permanently_closed": true, "photos": [{"height": 3024, "html_attributions": ["<a href=\"https://maps.google.com/maps/contrib/112886481436028286582\">cassandra 21grammi</a>"], "photo_reference": "AW30NDwVJ9c4qQnWvTbVA3osBs4nfX1X_InXuwbKY3S4SMj0tsw0Vmkd0dSaS0fi-o-V1XLIMPtPHUT1q9H9833cH18CUsFdyj4Wt7IVvpwV7Pzlj1uUFPBjbAmAeCgqzEpmnOLTqD42xbxTWmoQfXm780sgeoUUxnXVNpjV7JKdXWkC3QYU", "width": 4032}], "place_id": "ChIJ6aF89sC5yhQRpEgpgbtvDko", "plus_code": {"compound_code": "2X7H+CF Fatih/\u0130stanbul, Turkey", "global_code": "8GHC2X7H+CF"}, "rating": 4.7, "reference": "ChIJ6aF89sC5yhQRpEgpgbtvDko", "scope": "GOOGLE", "types": ["restaurant", "cafe", "food", "point_of_interest", "establishment"], "user_ratings_total": 15, "vicinity": "Cankurtaran, N\u00f6bethane Caddesi & Taya Hatun Sok., Sirkeci No:30, Fatih"}, {"business_status": "OPERATIONAL", "geometry": {"location": {"lat": 41.0129705, "lng": 28.9770832}, "viewport": {"northeast": {"lat": 41.01431633029149, "lng": 28.9784288802915}, "southwest": {"lat": 41.01161836970849, "lng": 28.9757309197085}}}, "icon": "https://maps.gstatic.com/mapfiles/place_api/icons/v1/png_71/restaurant-71.png", "icon_background_color": "#FF9E67", "icon_mask_base_uri": "https://maps.gstatic.com/mapfiles/place_api/icons/v2/restaurant_pinlet", "name": "Constantine's Ark Restaurant & Cafe", "opening_hours": {"open_now": true}, "photos": [{"height": 699, "html_attributions": ["<a href=\"https://maps.google.com/maps/contrib/111092433995394340539\">Constantine&#39;s Ark Restaurant &amp; Cafe</a>"], "photo_reference": "AW30NDyvam4moK3y6fS4tnovDx1Q_mmv9yInRMdadaJp_98hYYcCuf48W9LiepfFwsImtkKXqK2CBo4Y1xbYE7EHkUEwLSzh8O-1XdrNmFQGXM7zgmtvDqDtTSUccKp0SfMeiPfPzJpjMP7QnQu-W4zY8UNC-MafmzxoR-1Nj1kywDNIgoYw", "width": 1242}], "place_id": "ChIJnWxS8r-5yhQRw-ZA1EKxl5s", "plus_code": {"compound_code": "2X7G+5R Fatih/\u0130stanbul, Turkey", "global_code": "8GHC2X7G+5R"}, "price_level": 2, "rating": 4.6, "reference": "ChIJnWxS8r-5yhQRw-ZA1EKxl5s", "scope": "GOOGLE", "types": ["restaurant", "cafe", "food", "point_of_interest", "establishment"], "user_ratings_total": 600, "vicinity": "Hoca Pa\u015fa, \u0130bni Kemal Caddesi No:13"}, {"business_status": "CLOSED_TEMPORARILY", "geometry": {"location": {"lat": 41.0133772, "lng": 28.9774685}, "viewport": {"northeast": {"lat": 41.0146969802915, "lng": 28.9787600802915}, "southwest": {"lat": 41.0119990197085, "lng": 28.9760621197085}}}, "icon": "https://maps.gstatic.com/mapfiles/place_api/icons/v1/png_71/cafe-71.png", "icon_background_color": "#FF9E67", "icon_mask_base_uri": "https://maps.gstatic.com/mapfiles/place_api/icons/v2/cafe_pinlet", "name": "MUHAMMAD SAID Baklavaci", "permanently_closed": true, "photos": [{"height": 3000, "html_attributions": ["<a href=\"https://maps.google.com/maps/contrib/100856371269322283233\">Apollinaria Tumina</a>"], "photo_reference": "AW30NDwEM04c-ebJ1zpbwuz3ZGugcT6t9YRAluyfb8xr8_0ZV85G5dhmIuLAXeZJ78HnnOt_B1F3XbXL-PQIpbPYvGx-ST8vpvYfkIvIPrHFkEHO_4Fiy43vU7eQcTyBvQq8JPFAKhJc6-FXxI7CA8xHQqICvwJUVj-zOWsrSMxUfpn7j49B", "width": 4000}], "place_id": "ChIJ7W71GsC5yhQRhGoDs6JEB9Q", "plus_code": {"compound_code": "2X7G+9X Fatih/\u0130stanbul, Turkey", "global_code": "8GHC2X7G+9X"}, "rating": 5, "reference": "ChIJ7W71GsC5yhQRhGoDs6JEB9Q", "scope": "GOOGLE", "types": ["cafe", "food", "point_of_interest", "establishment"], "user_ratings_total": 4, "vicinity": "Hoca Pa\u015fa, H\u00fcdavendigar Caddesi 40/A"}, {"business_status": "OPERATIONAL", "geometry": {"location": {"lat": 41.0145355, "lng": 28.9757083}, "viewport": {"northeast": {"lat": 41.0159286302915, "lng": 28.9771328302915}, "southwest": {"lat": 41.0132306697085, "lng": 28.9744348697085}}}, "icon": "https://maps.gstatic.com/mapfiles/place_api/icons/v1/png_71/restaurant-71.png", "icon_background_color": "#FF9E67", "icon_mask_base_uri": "https://maps.gstatic.com/mapfiles/place_api/icons/v2/restaurant_pinlet", "name": "Ali Usta Burma Kadayif & Baklava", "opening_hours": {"open_now": true}, "photos": [{"height": 4032, "html_attributions": ["<a href=\"https://maps.google.com/maps/contrib/109762720935943166031\">D\u0130OR MEDYA</a>"], "photo_reference": "AW30NDyV0peaMsg6NXHAyzMSVWRlffFrvpjEeFM2ZVaXHT-9DK98NYgugIiVVxHwsJMxoJ4J8A7gHzw1Gv0M1yIXEN78rfzhoDFYl5dhK8uOd5adS4CpPkTeJGeH96Z2r7vqIDmH9QqdKj1YJ3jIng1kUpPrcmejpgl_rVPE0lplk9YpJYas", "width": 3024}], "place_id": "ChIJr0i-o-q5yhQRTSNH0BDJHDg", "plus_code": {"compound_code": "2X7G+R7 Fatih/\u0130stanbul, Turkey", "global_code": "8GHC2X7G+R7"}, "rating": 3.8, "reference": "ChIJr0i-o-q5yhQRTSNH0BDJHDg", "scope": "GOOGLE", "types": ["bakery", "cafe", "restaurant", "food", "point_of_interest", "store", "establishment"], "user_ratings_total": 101, "vicinity": "Hoca Pa\u015fa, Muradiye Caddesi No:25/A"}, {"business_status": "OPERATIONAL", "geometry": {"location": {"lat": 41.0143084, "lng": 28.97536719999999}, "viewport": {"northeast": {"lat": 41.01567078029149, "lng": 28.9766601802915}, "southwest": {"lat": 41.01297281970849, "lng": 28.9739622197085}}}, "icon": "https://maps.gstatic.com/mapfiles/place_api/icons/v1/png_71/cafe-71.png", "icon_background_color": "#FF9E67", "icon_mask_base_uri": "https://maps.gstatic.com/mapfiles/place_api/icons/v2/cafe_pinlet", "name": "Kahve D\u00fcnyas\u0131 Alg\u00f6t\u00fcr - Sirkeci", "opening_hours": {"open_now": true}, "photos": [{"height": 2998, "html_attributions": ["<a href=\"https://maps.google.com/maps/contrib/106384143416088090871\">Onur \u00d6zbek</a>"], "photo_reference": "AW30NDywf1dd7RqWuV4Qv_DwsDlVVTZfxIEEdMDx6S5zMEm2ZDIJFfGwmFMZvyXsvzjfHUFkHEjEnJgME6wFpDBdP--RRMSC52RAsxK-hi9Feb95x-wVi-1iHsRGJIzXE7XJX_6UN_C1PNZmlgze6AtiSBuUS5y8hgM5TAl7N1KTeqAkKKar", "width": 3998}], "place_id": "ChIJz6G8W5W5yhQRAHFVD8r19ww", "plus_code": {"compound_code": "2X7G+P4 Fatih/\u0130stanbul, Turkey", "global_code": "8GHC2X7G+P4"}, "price_level": 2, "rating": 4.1, "reference": "ChIJz6G8W5W5yhQRAHFVD8r19ww", "scope": "GOOGLE", "types": ["cafe", "food", "point_of_interest", "store", "establishment"], "user_ratings_total": 282, "vicinity": "Hoca Pa\u015fa, Ankara Caddesi No:42"}, {"business_status": "OPERATIONAL", "geometry": {"location": {"lat": 41.003912, "lng": 28.97697}, "viewport": {"northeast": {"lat": 41.0053521302915, "lng": 28.9783763302915}, "southwest": {"lat": 41.0026541697085, "lng": 28.9756783697085}}}, "icon": "https://maps.gstatic.com/mapfiles/place_api/icons/v1/png_71/cafe-71.png", "icon_background_color": "#FF9E67", "icon_mask_base_uri": "https://maps.gstatic.com/mapfiles/place_api/icons/v2/cafe_pinlet", "name": "Sultanahmet, Istanbul Bookstore Branch", "opening_hours": {"open_now": true}, "photos": [{"height": 2160, "html_attributions": ["<a href=\"https://maps.google.com/maps/contrib/117579535314960083006\">Dilek US</a>"], "photo_reference": "AW30NDzCNXwilwSe9ZAn819L1qPjNNkaNkW0jFg8B-PHdmnAiy_tqhuuLIJb0qaH6OfrKv0znbUweJf-4OYp6F2pF25iDJAtPcHryZyYlGrjn6ZD8vlwoyKp_6CoxAClztbN4Qkn2Ul1wp7G41qHDb7oiFLP5oI-ttpi3_6R1DuwR8PjMhG-", "width": 3840}], "place_id": "ChIJOWjSTL25yhQRJJBop7PwuHI", "plus_code": {"compound_code": "2X3G+HQ Fatih/\u0130stanbul, Turkey", "global_code": "8GHC2X3G+HQ"}, "rating": 4.5, "reference": "ChIJOWjSTL25yhQRJJBop7PwuHI", "scope": "GOOGLE", "types": ["cafe", "book_store", "food", "point_of_interest", "store", "establishment"], "user_ratings_total": 46, "vicinity": "Sultan Ahmet, Torun Sokak No:23"}, {"business_status": "OPERATIONAL", "geometry": {"location": {"lat": 41.015175, "lng": 28.97567}, "viewport": {"northeast": {"lat": 41.01650893029149, "lng": 28.9770580302915}, "southwest": {"lat": 41.0138109697085, "lng": 28.9743600697085}}}, "icon": "https://maps.gstatic.com/mapfiles/place_api/icons/v1/png_71/cafe-71.png", "icon_background_color": "#FF9E67", "icon_mask_base_uri": "https://maps.gstatic.com/mapfiles/place_api/icons/v2/cafe_pinlet", "name": "MADO", "opening_hours": {"open_now": true}, "photos": [{"height": 4032, "html_attributions": ["<a href=\"https://maps.google.com/maps/contrib/105743173758903205868\">NK Q8</a>"], "photo_reference": "AW30NDwUGQx_-zM-3k4oCWWPrpxF8EnI9Io-AMLyrrNRX0wFqXue7tFM1aC7p58lWR2GI19bTC9bnQCh8_4_yWaqLvjReqCR5FENLY4w_Io_vIsQZ_F3y7Gis7pU0BkapFMCvHJoG62tj38tdYbJ3sBxSsOfbjp2ASwb3fKHCflsHOYsSyj6", "width": 3024}], "place_id": "ChIJLaG4m-q5yhQR7ZqyvW-XZco", "plus_code": {"compound_code": "2X8G+37 Fatih/\u0130stanbul, Turkey", "global_code": "8GHC2X8G+37"}, "price_level": 3, "rating": 3.1, "reference": "ChIJLaG4m-q5yhQR7ZqyvW-XZco", "scope": "GOOGLE", "types": ["cafe", "restaurant", "food", "point_of_interest", "store", "establishment"], "user_ratings_total": 1198, "vicinity": "Hobyar, Giri\u015f, Ankara Caddesi No:67 Z"}, {"business_status": "OPERATIONAL", "geometry": {"location": {"lat": 41.01555560000001, "lng": 28.9758333}, "viewport": {"northeast": {"lat": 41.0169045802915, "lng": 28.97718228029149}, "southwest": {"lat": 41.01420661970851, "lng": 28.9744843197085}}}, "icon": "https://maps.gstatic.com/mapfiles/place_api/icons/v1/png_71/restaurant-71.png", "icon_background_color": "#FF9E67", "icon_mask_base_uri": "https://maps.gstatic.com/mapfiles/place_api/icons/v2/restaurant_pinlet", "name": "Cafe Esmer Shef", "photos": [{"height": 1280, "html_attributions": ["<a href=\"https://maps.google.com/maps/contrib/101647139786264868665\">Ashwag Alanzy</a>"], "photo_reference": "AW30NDxpCnxg_h6IzLI99tcPoigKc6b92M_vJ69G_c2rktKTtw02ALG7iwfhjY-gBo8Ni2T1CxJinLSgR3nyrZIjVVbJvrbb0Wc4DNajj21cxlthFX-ZmwKXnsucyAGHzW8MGYwsNN2kNIwgUBZeFqbrFCW_I0tEidroRxtnopJwvqAWR8S2", "width": 1047}], "place_id": "ChIJC5hp1cG5yhQRbcfNJFEomLM", "plus_code": {"compound_code": "2X8G+68 Fatih/\u0130stanbul, Turkey", "global_code": "8GHC2X8G+68"}, "price_level": 2, "rating": 4.2, "reference": "ChIJC5hp1cG5yhQRbcfNJFEomLM", "scope": "GOOGLE", "types": ["restaurant", "cafe", "food", "point_of_interest", "establishment"], "user_ratings_total": 2329, "vicinity": "Hobyar Mah., Ankara Cad. 73/B, Fatih"}, {"business_status": "OPERATIONAL", "geometry": {"location": {"lat": 41.00232189999999, "lng": 28.97820159999999}, "viewport": {"northeast": {"lat": 41.0035509302915, "lng": 28.9795539802915}, "southwest": {"lat": 41.0008529697085, "lng": 28.9768560197085}}}, "icon": "https://maps.gstatic.com/mapfiles/place_api/icons/v1/png_71/cafe-71.png", "icon_background_color": "#FF9E67", "icon_mask_base_uri": "https://maps.gstatic.com/mapfiles/place_api/icons/v2/cafe_pinlet", "name": "Semaver Cafe Hookah", "opening_hours": {"open_now": true}, "photos": [{"height": 4032, "html_attributions": ["<a href=\"https://maps.google.com/maps/contrib/106972076352797341251\">Semaver Cafe Nargile</a>"], "photo_reference": "AW30NDzvvjCOB05RcVQVVrLuQvNrN3QrO0WlQSFFEQo4iOkXuLIGyKcWN9lno5ZIYz4yQopBV0Nl-YzU4Ms7fs70YraJUvTXd6rA-0vOOkSKdKgrQMYFdBs7ChW-rZfh7e6HlyEHGl4g03-4uFB9-Ak8zge17RVTjfaQVC2-36cdR4g3h8HH", "width": 3024}], "place_id": "ChIJtVWO7aK5yhQR4OAmtDsstXc", "plus_code": {"compound_code": "2X2H+W7 Fatih/\u0130stanbul, Turkey", "global_code": "8GHC2X2H+W7"}, "price_level": 1, "rating": 4.4, "reference": "ChIJtVWO7aK5yhQR4OAmtDsstXc", "scope": "GOOGLE", "types": ["cafe", "food", "point_of_interest", "establishment"], "user_ratings_total": 360, "vicinity": "Sultan Ahmet, Kennedy Caddesi No:26"}], "status": "OK"}