{"html_attributions": [], "next_page_token": "AW30NDwNZ5lbdifxEvlnFJBr_Mgatm1ZzNqmt83dZfH96NeFvnO_aJ6lYX1saB7fQof_ZWb0bJnekALzFfi4Gd7cSF0s0mk6-zUdnOZf8YvSjkJMV4rxfVmj5qv_28Yvik-TkEv4UoYfhmdF1ZFQQ6NrenM9XPpiB5bPhnLgoSYxFp_xCI33OBnyNnapwGMc4viZaZAcgzlopc3G1tXkcPYhCwT4tYNf9ZWQu-GjRYp25OHorgrabGi65mZkG8AsOw_Lh21HACwAowSm9qpKl4Lwvro8_SaXLQvkEg7ED3U_tNwVrG7aEl2yFkqqeYNxI1j3VrK2VhGobdwyfvAHskEMsLu7cohBLr41patZ3UyiKDEDYTF01KqbHfk8vIZxsbKHumrId3YZxGu4SSLtYl25fK0bcZCrKnMgzO57l7rd54xHuXkmZEeW", "results": [{"business_status": "OPERATIONAL", "geometry": {"location": {"lat": 41.0416215, "lng": 28.950887}, "viewport": {"northeast": {"lat": 41.0429687802915, "lng": 28.9521911302915}, "southwest": {"lat": 41.0402708197085, "lng": 28.9494931697085}}}, "icon": "https://maps.gstatic.com/mapfiles/place_api/icons/v1/png_71/cafe-71.png", "icon_background_color": "#FF9E67", "icon_mask_base_uri": "https://maps.gstatic.com/mapfiles/place_api/icons/v2/cafe_pinlet", "name": "Coffee Sapiens Roastery & Workshop", "opening_hours": {"open_now": true}, "photos": [{"height": 3264, "html_attributions": ["<a href=\"https://maps.google.com/maps/contrib/116480964961168234692\">Coffee Sapiens Roastery &amp; Workshop</a>"], "photo_reference": "AW30NDyPijp7VWP5EoS5vDnFUsygseRSmODsLiK61nJ9k6qOdlqMG4iKjLZkam3-pSce3JiklFl0iWM-iEAvXrZhomXY2kVCukzpSb6icyZZjiS9Qtf_A0jlJ1JaFjPhNZ4NGJa0pI6pMbeRmScavzTEuUlx3ZLrh3mOIUTnADbWBIytPcls", "width": 2448}], "place_id": "ChIJj6aEG6uwyhQRM-Yzppy4ZKA", "plus_code": {"compound_code": "2XR2+J9 Beyo\u011flu/\u0130stanbul, Turkey", "global_code": "8GHC2XR2+J9"}, "rating": 4.1, "reference": "ChIJj6aEG6uwyhQRM-Yzppy4ZKA", "scope": "GOOGLE", "types": ["cafe", "food", "point_of_interest", "establishment"], "user_ratings_total": 18, "vicinity": "Piri Pa\u015fa, Kalayc\u0131bah\u00e7e Sokak No:6"}, {"business_status": "OPERATIONAL", "geometry": {"location": {"lat": 41.0404412, "lng": 28.9424036}, "viewport": {"northeast": {"lat": 41.0417475302915, "lng": 28.9432177302915}, "southwest": {"lat": 41.0390495697085, "lng": 28.9405197697085}}}, "icon": "https://maps.gstatic.com/mapfiles/place_api/icons/v1/png_71/cafe-71.png", "icon_background_color": "#FF9E67", "icon_mask_base_uri": "https://maps.gstatic.com/mapfiles/place_api/icons/v2/cafe_pinlet", "name": "Cafe Tolga", "photos": [{"height": 2248, "html_attributions": ["<a href=\"https://maps.google.com/maps/contrib/103029938585168613748\">maher mhlhl</a>"], "photo_reference": "AW30NDyZakuDOfGC7gWkLwEIpbZYED1aKJ4jW2JNWfS6DBtqx8Q6x-VruLa1NQ8_04TwKiE-QdIMf8KhrwGi8LO20j_ebOcEgHG-iu8E3q27E-7ZM8QYGD36EYpl5YUgxVo3IYrM33G1Q3S7qcnGmKrKjKwjMr31Biwrtt0ODWv9nNbvBA9m", "width": 4000}], "place_id": "ChIJGUp17Ae6yhQRHZQ3r6ALAnE", "plus_code": {"compound_code": "2WRR+5X Ey\u00fcpsultan/\u0130stanbul, Turkey", "global_code": "8GHC2WRR+5X"}, "price_level": 2, "rating": 4, "reference": "ChIJGUp17Ae6yhQRHZQ3r6ALAnE", "scope": "GOOGLE", "types": ["cafe", "food", "point_of_interest", "establishment"], "user_ratings_total": 628, "vicinity": "Defterdar, Ayvansaray Park \u0130\u00e7i Yolu"}, {"business_status": "CLOSED_TEMPORARILY", "geometry": {"location": {"lat": 41.03431299999999, "lng": 28.94644199999999}, "viewport": {"northeast": {"lat": 41.0356629802915, "lng": 28.9477964802915}, "southwest": {"lat": 41.0329650197085, "lng": 28.9450985197085}}}, "icon": "https://maps.gstatic.com/mapfiles/place_api/icons/v1/png_71/cafe-71.png", "icon_background_color": "#FF9E67", "icon_mask_base_uri": "https://maps.gstatic.com/mapfiles/place_api/icons/v2/cafe_pinlet", "name": "Afilli Cezve", "permanently_closed": true, "photos": [{"height": 3264, "html_attributions": ["<a href=\"https://maps.google.com/maps/contrib/117554950447781120758\">HASAN KIRMIZI</a>"], "photo_reference": "AW30NDxF1OcgJsRatxZb5Eabu078p3Am86V24NZZEPcnQ1ZH9n8jUxm9kIZezVs3qvP3WjdjVKfl-qzGoQQYUfbr2rJka18_8sg3Aixv5-hK5djg4kJ_7BRYvQKHjKsdga6tzvWjjxIttpU6zhjYIk_C9F7BVQ5PXCOmQA0p51nczJOQqZo_", "width": 4928}], "place_id": "ChIJwyLvcgS6yhQRWZ-6fbFojwU", "plus_code": {"compound_code": "2WMW+PH Fatih/\u0130stanbul, Turkey", "global_code": "8GHC2WMW+PH"}, "price_level": 2, "rating": 4.1, "reference": "ChIJwyLvcgS6yhQRWZ-6fbFojwU", "scope": "GOOGLE", "types": ["cafe", "food", "point_of_interest", "establishment"], "user_ratings_total": 35, "vicinity": "Ayvansaray, Eski Kasaplar Sokak"}, {"business_status": "OPERATIONAL", "geometry": {"location": {"lat": 41.0344279, "lng": 28.9461688}, "viewport": {"northeast": {"lat": 41.0357772802915, "lng": 28.94747998029149}, "southwest": {"lat": 41.0330793197085, "lng": 28.94478201970849}}}, "icon": "https://maps.gstatic.com/mapfiles/place_api/icons/v1/png_71/cafe-71.png", "icon_background_color": "#FF9E67", "icon_mask_base_uri": "https://maps.gstatic.com/mapfiles/place_api/icons/v2/cafe_pinlet", "name": "Coffee Hall", "opening_hours": {"open_now": true}, "photos": [{"height": 2202, "html_attributions": ["<a href=\"https://maps.google.com/maps/contrib/115486358189786807301\">Coffee Hall</a>"], "photo_reference": "AW30NDxvGZdccU4vDXA6OmZFFXzNTKldAsECkVBOu_3Yway5tWBv5xn7CRgh7R1cEXy-q5CKN0zno8xYbrNHOmoD8pRzZUXLnVIvLxNM7tn1hoPtiLAQQyNFPwS5FQPqEDvxb-TjCA1FvIndOYx5RT555ImbcAjbHIOY9EPEvK16qovcOFNo", "width": 1284}], "place_id": "ChIJDX0jbQS6yhQRRZpIjwaqQ4Q", "plus_code": {"compound_code": "2WMW+QF Fatih/\u0130stanbul, Turkey", "global_code": "8GHC2WMW+QF"}, "rating": 4.8, "reference": "ChIJDX0jbQS6yhQRRZpIjwaqQ4Q", "scope": "GOOGLE", "types": ["cafe", "food", "store", "point_of_interest", "establishment"], "user_ratings_total": 36, "vicinity": "Ayvansaray, Mahkeme Alt\u0131 Caddesi No:22"}, {"business_status": "OPERATIONAL", "geometry": {"location": {"lat": 41.034181, "lng": 28.946428}, "viewport": {"northeast": {"lat": 41.0355539302915, "lng": 28.9478160802915}, "southwest": {"lat": 41.0328559697085, "lng": 28.9451181197085}}}, "icon": "https://maps.gstatic.com/mapfiles/place_api/icons/v1/png_71/cafe-71.png", "icon_background_color": "#FF9E67", "icon_mask_base_uri": "https://maps.gstatic.com/mapfiles/place_api/icons/v2/cafe_pinlet", "name": "Mare Mosso Coffee", "opening_hours": {"open_now": true}, "photos": [{"height": 4000, "html_attributions": ["<a href=\"https://maps.google.com/maps/contrib/103330318448950930210\">Mare Mosso Coffee</a>"], "photo_reference": "AW30NDzeXwir3cWL6zdNj3E_Jg0Z2ISi3VR94oHLDwjH48Ef0FDAFjG-6bF9HQL_-HtFuOzo4D7x1OuceQKse_fg4IJCQo9vdIszetvgZTbXJAESKw8APOT8rIFC2_61aocTKmPkNNHs45K379f-plT5nYFs2iKN_kwS8Xx8rwCqrBaYlOk", "width": 6000}], "place_id": "ChIJ7_CMcQS6yhQR540reChO96g", "plus_code": {"compound_code": "2WMW+MH Fatih/\u0130stanbul, Turkey", "global_code": "8GHC2WMW+MH"}, "rating": 4.8, "reference": "ChIJ7_CMcQS6yhQR540reChO96g", "scope": "GOOGLE", "types": ["cafe", "food", "store", "point_of_interest", "establishment"], "user_ratings_total": 316, "vicinity": "Ayvansaray, Leblebiciler Sokak No:40/b"}, {"business_status": "CLOSED_TEMPORARILY", "geometry": {"location": {"lat": 41.0425329, "lng": 28.9491558}, "viewport": {"northeast": {"lat": 41.04391778029149, "lng": 28.9505526802915}, "southwest": {"lat": 41.04121981970849, "lng": 28.9478547197085}}}, "icon": "https://maps.gstatic.com/mapfiles/place_api/icons/v1/png_71/cafe-71.png", "icon_background_color": "#FF9E67", "icon_mask_base_uri": "https://maps.gstatic.com/mapfiles/place_api/icons/v2/cafe_pinlet", "name": "Tearoom", "permanently_closed": true, "place_id": "ChIJd-Y8sKuwyhQRuxKvbLMaBwA", "plus_code": {"compound_code": "2WVX+2M Beyo\u011flu/\u0130stanbul, Turkey", "global_code": "8GHC2WVX+2M"}, "reference": "ChIJd-Y8sKuwyhQRuxKvbLMaBwA", "scope": "GOOGLE", "types": ["cafe", "food", "point_of_interest", "establishment"], "vicinity": "Piri Pa\u015fa, Kumbarahane Caddesi No:5"}, {"business_status": "CLOSED_TEMPORARILY", "geometry": {"location": {"lat": 41.0425307, "lng": 28.9491864}, "viewport": {"northeast": {"lat": 41.0439099802915, "lng": 28.95057668029149}, "southwest": {"lat": 41.0412120197085, "lng": 28.94787871970849}}}, "icon": "https://maps.gstatic.com/mapfiles/place_api/icons/v1/png_71/cafe-71.png", "icon_background_color": "#FF9E67", "icon_mask_base_uri": "https://maps.gstatic.com/mapfiles/place_api/icons/v2/cafe_pinlet", "name": "Demlik Cafe", "permanently_closed": true, "place_id": "ChIJ0-MQdQC6yhQRLMxslbUvytU", "plus_code": {"compound_code": "2WVX+2M Beyo\u011flu/\u0130stanbul, Turkey", "global_code": "8GHC2WVX+2M"}, "rating": 1, "reference": "ChIJ0-MQdQC6yhQRLMxslbUvytU", "scope": "GOOGLE", "types": ["cafe", "food", "point_of_interest", "establishment"], "user_ratings_total": 1, "vicinity": "Piri Pa\u015fa, Hask\u00f6y Caddesi No:5"}, {"business_status": "OPERATIONAL", "geometry": {"location": {"lat": 41.04294449999999, "lng": 28.9487942}, "viewport": {"northeast": {"lat": 41.0443101302915, "lng": 28.9501630802915}, "southwest": {"lat": 41.0416121697085, "lng": 28.9474651197085}}}, "icon": "https://maps.gstatic.com/mapfiles/place_api/icons/v1/png_71/cafe-71.png", "icon_background_color": "#FF9E67", "icon_mask_base_uri": "https://maps.gstatic.com/mapfiles/place_api/icons/v2/cafe_pinlet", "name": "Nurten abla", "place_id": "ChIJcxUpstyxyhQRJLoM2QjNg1Q", "plus_code": {"compound_code": "2WVX+5G Beyo\u011flu/\u0130stanbul, Turkey", "global_code": "8GHC2WVX+5G"}, "reference": "ChIJcxUpstyxyhQRJLoM2QjNg1Q", "scope": "GOOGLE", "types": ["cafe", "food", "point_of_interest", "establishment"], "vicinity": "Piri Pa\u015fa, Kumbarahane Caddesi No:36"}, {"business_status": "OPERATIONAL", "geometry": {"location": {"lat": 41.0422167, "lng": 28.9485522}, "viewport": {"northeast": {"lat": 41.0435148302915, "lng": 28.94996383029149}, "southwest": {"lat": 41.0408168697085, "lng": 28.9472658697085}}}, "icon": "https://maps.gstatic.com/mapfiles/place_api/icons/v1/png_71/cafe-71.png", "icon_background_color": "#FF9E67", "icon_mask_base_uri": "https://maps.gstatic.com/mapfiles/place_api/icons/v2/cafe_pinlet", "name": "Rahmi Ko\u00e7 Cafe/ \u0645\u0642\u0647\u0649 \u0631\u062d\u0645\u064a \u0643\u0648\u062a\u062c", "opening_hours": {"open_now": true}, "photos": [{"height": 3000, "html_attributions": ["<a href=\"https://maps.google.com/maps/contrib/109652697431888457447\">ABDESSAMAD EL JARJINI</a>"], "photo_reference": "AW30NDx8iE48tgtOWSKnKKX_KFkhYCUSorWjbCKtoJYMUPnlWIi6kfYhfXxen9GzbTbTwSPgvFL5XOmj9VRSq8VamgFPPpDxv8luSHSZrsn1rXOhEmUIB1CvvwRNgbz4n-Eu2cZ-iwffksdJh9ZPkwWCuU7XMMSf5vtsyN53u2uIAODUiML8", "width": 4000}], "place_id": "ChIJrQ54utexyhQR3StzNJb0-Kw", "plus_code": {"compound_code": "2WRX+VC Beyo\u011flu/\u0130stanbul, Turkey", "global_code": "8GHC2WRX+VC"}, "reference": "ChIJrQ54utexyhQR3StzNJb0-Kw", "scope": "GOOGLE", "types": ["cafe", "food", "store", "point_of_interest", "establishment"], "vicinity": "Piri Pa\u015fa, Kumbarahane Caddesi No:5"}, {"business_status": "CLOSED_TEMPORARILY", "geometry": {"location": {"lat": 41.0431381, "lng": 28.9486678}, "viewport": {"northeast": {"lat": 41.04445218029151, "lng": 28.9499778302915}, "southwest": {"lat": 41.04175421970851, "lng": 28.9472798697085}}}, "icon": "https://maps.gstatic.com/mapfiles/place_api/icons/v1/png_71/cafe-71.png", "icon_background_color": "#FF9E67", "icon_mask_base_uri": "https://maps.gstatic.com/mapfiles/place_api/icons/v2/cafe_pinlet", "name": "Cafe'de A\u015fk", "permanently_closed": true, "photos": [{"height": 1836, "html_attributions": ["<a href=\"https://maps.google.com/maps/contrib/116514455878026663085\">batuhan araso\u011flu</a>"], "photo_reference": "AW30NDws5YRh5dUji7XtEoiM85LkIsvdTMPxDk6SJc8lqFBQgzZq-gGW_e7by0d8F4IrHnMJ4wjRTZqiNEGj8Dn-Dl3ePRjNNjltZHYg6h6mnOqoTdkzJL3FQIYjbJV5el0CBGfafpL8Px7qtQbDivppMA4bgVbBRBnPjfL1v86EgqCXPpzk", "width": 3264}], "place_id": "ChIJSSoLlauwyhQRvgWv80iQXtY", "plus_code": {"compound_code": "2WVX+7F Beyo\u011flu/\u0130stanbul, Turkey", "global_code": "8GHC2WVX+7F"}, "rating": 4.4, "reference": "ChIJSSoLlauwyhQRvgWv80iQXtY", "scope": "GOOGLE", "types": ["cafe", "food", "point_of_interest", "establishment"], "user_ratings_total": 22, "vicinity": "Piri Pa\u015fa, Kumbarahane Caddesi, Petrol Ofisi 14/A, Beyo\u011flu"}, {"business_status": "CLOSED_TEMPORARILY", "geometry": {"location": {"lat": 41.0431343, "lng": 28.94864879999999}, "viewport": {"northeast": {"lat": 41.04445288029149, "lng": 28.94996423029149}, "southwest": {"lat": 41.0417549197085, "lng": 28.9472662697085}}}, "icon": "https://maps.gstatic.com/mapfiles/place_api/icons/v1/png_71/cafe-71.png", "icon_background_color": "#FF9E67", "icon_mask_base_uri": "https://maps.gstatic.com/mapfiles/place_api/icons/v2/cafe_pinlet", "name": "A\u015fk Waf\u0131l", "permanently_closed": true, "place_id": "ChIJiTVylauwyhQR3FFraNLzlq0", "plus_code": {"compound_code": "2WVX+7F Beyo\u011flu/\u0130stanbul, Turkey", "global_code": "8GHC2WVX+7F"}, "rating": 4.5, "reference": "ChIJiTVylauwyhQR3FFraNLzlq0", "scope": "GOOGLE", "types": ["cafe", "food", "point_of_interest", "establishment"], "user_ratings_total": 15, "vicinity": "Piri Pa\u015fa, Kumbarahane Caddesi 2 B"}, {"business_status": "OPERATIONAL", "geometry": {"location": {"lat": 41.0431344, "lng": 28.9486487}, "viewport": {"northeast": {"lat": 41.0444529302915, "lng": 28.9499641802915}, "southwest": {"lat": 41.0417549697085, "lng": 28.9472662197085}}}, "icon": "https://maps.gstatic.com/mapfiles/place_api/icons/v1/png_71/cafe-71.png", "icon_background_color": "#FF9E67", "icon_mask_base_uri": "https://maps.gstatic.com/mapfiles/place_api/icons/v2/cafe_pinlet", "name": "Channel cafe lounge Okey 101 ve nargile de mevcuttur.", "opening_hours": {"open_now": true}, "photos": [{"height": 5472, "html_attributions": ["<a href=\"https://maps.google.com/maps/contrib/102791907565852168218\">Ufuk Olca</a>"], "photo_reference": "AW30NDwoQdmmetuMECShQ7Sv1kR-bIsnoXZcR1z8un6tOqkYzWRqDr6Zv72PiSz6bbwLGTr4fijWqlXaIKooSs8EzX0DwX6UHjfcCanpEZDl2Q3XG08an7Z_XUIdrNbObKCJIePtJ9Owlt7q6j4aUYtZvhsqB4mDAAFLA-yLoHdGBy_lpfUT", "width": 7296}], "place_id": "ChIJQwa-8yexyhQRyoNhNxs0-ww", "plus_code": {"compound_code": "2WVX+7F Beyo\u011flu/\u0130stanbul, Turkey", "global_code": "8GHC2WVX+7F"}, "rating": 4.5, "reference": "ChIJQwa-8yexyhQRyoNhNxs0-ww", "scope": "GOOGLE", "types": ["cafe", "food", "point_of_interest", "establishment"], "user_ratings_total": 19, "vicinity": "Piri Pa\u015fa, Kumbarahane Caddesi 2 B"}, {"business_status": "CLOSED_TEMPORARILY", "geometry": {"location": {"lat": 41.0413285, "lng": 28.950775}, "viewport": {"northeast": {"lat": 41.04268303029149, "lng": 28.9521534302915}, "southwest": {"lat": 41.03998506970849, "lng": 28.9494554697085}}}, "icon": "https://maps.gstatic.com/mapfiles/place_api/icons/v1/png_71/cafe-71.png", "icon_background_color": "#FF9E67", "icon_mask_base_uri": "https://maps.gstatic.com/mapfiles/place_api/icons/v2/cafe_pinlet", "name": "Sohbet Kiraathanesi", "permanently_closed": true, "place_id": "ChIJNeOf4qqwyhQRPL6j87Fa7jU", "plus_code": {"compound_code": "2XR2+G8 Beyo\u011flu/\u0130stanbul, Turkey", "global_code": "8GHC2XR2+G8"}, "reference": "ChIJNeOf4qqwyhQRPL6j87Fa7jU", "scope": "GOOGLE", "types": ["cafe", "restaurant", "food", "point_of_interest", "establishment"], "vicinity": "Piri Pa\u015fa, Kalayc\u0131bah\u00e7e Sokak 5B"}, {"business_status": "OPERATIONAL", "geometry": {"location": {"lat": 41.0409338, "lng": 28.9504169}, "viewport": {"northeast": {"lat": 41.0422542302915, "lng": 28.9517915802915}, "southwest": {"lat": 41.0395562697085, "lng": 28.94909361970851}}}, "icon": "https://maps.gstatic.com/mapfiles/place_api/icons/v1/png_71/cafe-71.png", "icon_background_color": "#FF9E67", "icon_mask_base_uri": "https://maps.gstatic.com/mapfiles/place_api/icons/v2/cafe_pinlet", "name": "Empire Cafe", "place_id": "ChIJ1edA-qqwyhQR4Iru2cvyXDc", "plus_code": {"compound_code": "2XR2+95 Beyo\u011flu/\u0130stanbul, Turkey", "global_code": "8GHC2XR2+95"}, "reference": "ChIJ1edA-qqwyhQR4Iru2cvyXDc", "scope": "GOOGLE", "types": ["cafe", "food", "point_of_interest", "establishment"], "vicinity": "Turkey"}, {"business_status": "OPERATIONAL", "geometry": {"location": {"lat": 41.0437622, "lng": 28.94674869999999}, "viewport": {"northeast": {"lat": 41.0451749802915, "lng": 28.9479844802915}, "southwest": {"lat": 41.0424770197085, "lng": 28.9452865197085}}}, "icon": "https://maps.gstatic.com/mapfiles/place_api/icons/v1/png_71/cafe-71.png", "icon_background_color": "#FF9E67", "icon_mask_base_uri": "https://maps.gstatic.com/mapfiles/place_api/icons/v2/cafe_pinlet", "name": "Caffes Hali\u00e7", "opening_hours": {"open_now": true}, "photos": [{"height": 3984, "html_attributions": ["<a href=\"https://maps.google.com/maps/contrib/109416411835968494609\">Sezgin Cevik</a>"], "photo_reference": "AW30NDwgq1jc4IIMYHsX1XzQpepmSPnoAbAJecwDmC09V6hjMoGXU8yZNcXMr1xOT-gyCeJBQNcXidBuW9LsUBjfMtcvOpCS0LkzzACTrysakdqDIatsA0mWfzJ8Crx3uSR9gyFvZw_WxUcXEeffAkY0gEPKyuP6pGzvclag7u5q3lqEdBnh", "width": 2988}], "place_id": "ChIJG36y4auwyhQRte_3hUCeS60", "plus_code": {"compound_code": "2WVW+GM Beyo\u011flu/\u0130stanbul, Turkey", "global_code": "8GHC2WVW+GM"}, "rating": 3.9, "reference": "ChIJG36y4auwyhQRte_3hUCeS60", "scope": "GOOGLE", "types": ["cafe", "food", "point_of_interest", "establishment"], "user_ratings_total": 188, "vicinity": "Piri Pa\u015fa, Kumbarahane Caddesi No:3, Hask\u00f6y"}, {"business_status": "OPERATIONAL", "geometry": {"location": {"lat": 41.0440038, "lng": 28.9513799}, "viewport": {"northeast": {"lat": 41.0453071302915, "lng": 28.9527768302915}, "southwest": {"lat": 41.04260916970851, "lng": 28.9500788697085}}}, "icon": "https://maps.gstatic.com/mapfiles/place_api/icons/v1/png_71/cafe-71.png", "icon_background_color": "#FF9E67", "icon_mask_base_uri": "https://maps.gstatic.com/mapfiles/place_api/icons/v2/cafe_pinlet", "name": "hask\u00f6y k\u00fclt\u00fcr ve sanat evi", "opening_hours": {"open_now": true}, "photos": [{"height": 4032, "html_attributions": ["<a href=\"https://maps.google.com/maps/contrib/114157066764623034403\">Kadriye \u00d6NDER</a>"], "photo_reference": "AW30NDyZvJ0MfBb_XIr5S_me9HuYHks1wL9MT1gqJcl34t3uzY4WzkS58Gw7B0NsHoTGcdmQe0BfqHO6lbldFdPY_Gm30uAz2v-Ovy7Ucf3AgmZ-Fh4irblyo230DNH8mnDc8xz_Ef9k2shF14IjtrVI6lcTxo_McDEmpwOtaG05ykonu_Ry", "width": 3024}], "place_id": "ChIJzTVEykyxyhQRqsi96znui04", "plus_code": {"compound_code": "2XV2+JH Beyo\u011flu/\u0130stanbul, Turkey", "global_code": "8GHC2XV2+JH"}, "rating": 4.3, "reference": "ChIJzTVEykyxyhQRqsi96znui04", "scope": "GOOGLE", "types": ["cafe", "food", "point_of_interest", "establishment"], "user_ratings_total": 20, "vicinity": "Piri Pa\u015fa, \u015fabandere caddesi"}, {"business_status": "CLOSED_TEMPORARILY", "geometry": {"location": {"lat": 41.0427879, "lng": 28.9523818}, "viewport": {"northeast": {"lat": 41.04408593029149, "lng": 28.9536806802915}, "southwest": {"lat": 41.0413879697085, "lng": 28.9509827197085}}}, "icon": "https://maps.gstatic.com/mapfiles/place_api/icons/v1/png_71/restaurant-71.png", "icon_background_color": "#FF9E67", "icon_mask_base_uri": "https://maps.gstatic.com/mapfiles/place_api/icons/v2/restaurant_pinlet", "name": "Neslim B\u00f6rek", "permanently_closed": true, "photos": [{"height": 8000, "html_attributions": ["<a href=\"https://maps.google.com/maps/contrib/113500468143349804711\">\u00d6zcan Y\u00fcksel</a>"], "photo_reference": "AW30NDzebYAvvw2mzW2YS-XNM-2nXQEM_DmSwoUsVclZqSmXvJYpxY1aVj9P6bwPvW-xcmSSAeeLj2nIMMQoCn0xK3RGh-4d0k7BaLmCEzhDyTU0YM0Udu19KcQrxXzyJDhALKEAHpq1VY7SonchwWFvoLEeqXu6p4wHtK6irqVXRmexlUbk", "width": 6000}], "place_id": "ChIJT2uxUauwyhQRSd9FMuUK6hM", "plus_code": {"compound_code": "2XV2+4X Beyo\u011flu/\u0130stanbul, Turkey", "global_code": "8GHC2XV2+4X"}, "rating": 5, "reference": "ChIJT2uxUauwyhQRSd9FMuUK6hM", "scope": "GOOGLE", "types": ["cafe", "bakery", "food", "store", "point_of_interest", "establishment"], "user_ratings_total": 3, "vicinity": "Piri Pa\u015fa, U\u011fur Ulun\u00e7 Sokak No:15"}, {"business_status": "CLOSED_TEMPORARILY", "geometry": {"location": {"lat": 41.0430054, "lng": 28.9524659}, "viewport": {"northeast": {"lat": 41.04438383029149, "lng": 28.95382433029149}, "southwest": {"lat": 41.0416858697085, "lng": 28.9511263697085}}}, "icon": "https://maps.gstatic.com/mapfiles/place_api/icons/v1/png_71/cafe-71.png", "icon_background_color": "#FF9E67", "icon_mask_base_uri": "https://maps.gstatic.com/mapfiles/place_api/icons/v2/cafe_pinlet", "name": "Hask\u00f6y k\u00fclt\u00fcr ve sanat evi", "permanently_closed": true, "place_id": "ChIJiwpW0dyxyhQRnPjqsuxzplU", "plus_code": {"compound_code": "2XV2+6X Beyo\u011flu/\u0130stanbul, Turkey", "global_code": "8GHC2XV2+6X"}, "reference": "ChIJiwpW0dyxyhQRnPjqsuxzplU", "scope": "GOOGLE", "types": ["cafe", "food", "point_of_interest", "establishment"], "vicinity": "Piri Pa\u015fa, Viran Aral\u0131\u011f\u0131 Sokak No:2, 34445"}, {"business_status": "OPERATIONAL", "geometry": {"location": {"lat": 41.0402948, "lng": 28.95106449999999}, "viewport": {"northeast": {"lat": 41.04163158029149, "lng": 28.9524206802915}, "southwest": {"lat": 41.03893361970849, "lng": 28.9497227197085}}}, "icon": "https://maps.gstatic.com/mapfiles/place_api/icons/v1/png_71/generic_business-71.png", "icon_background_color": "#7B9EB0", "icon_mask_base_uri": "https://maps.gstatic.com/mapfiles/place_api/icons/v2/generic_pinlet", "name": "FRANKFOOD - FOOD DELIVERY TAKSIM ISTANBUL - ESSEN LIEFERDIENST TAKSIM - EVE YEMEK GETIR S\u0130PAR\u0130\u015e SERVIS 7 / 24", "opening_hours": {"open_now": true}, "photos": [{"height": 300, "html_attributions": ["<a href=\"https://maps.google.com/maps/contrib/102548893264995722584\">FRANKFOOD - FOOD DELIVERY TAKSIM ISTANBUL - ESSEN LIEFERDIENST TAKSIM - EVE YEMEK GETIR S\u0130PAR\u0130\u015e SERVIS 7 / 24</a>"], "photo_reference": "AW30NDzOH04mgFDSI78dfM5dHTieYxBaNSAKyiZbJ-bzgp_LoQTWLdMxlLtaSYkZowhZswJTXci8yL81l1wr4LQIlR5SCa0tO0MFWkC1QgmfoXI8So1d67CypONqImhKYfTdc8D5G9N1lmfDFHW5hYzqlKjcd16pPAUg54WJTXeRASI7EuVF", "width": 449}], "place_id": "ChIJu20De0DbyhQRG2pOQyZhXGE", "plus_code": {"compound_code": "2XR2+4C Beyo\u011flu/\u0130stanbul, Turkey", "global_code": "8GHC2XR2+4C"}, "rating": 4.7, "reference": "ChIJu20De0DbyhQRG2pOQyZhXGE", "scope": "GOOGLE", "types": ["meal_delivery", "cafe", "restaurant", "food", "point_of_interest", "establishment"], "user_ratings_total": 11, "vicinity": "Ke\u00e7eci Piri Mahallesi Hask\u00f6y F\u0131r\u0131n\u0131 Sokak No.:1"}, {"business_status": "OPERATIONAL", "geometry": {"location": {"lat": 41.0445687, "lng": 28.9464134}, "viewport": {"northeast": {"lat": 41.0458845802915, "lng": 28.9477355302915}, "southwest": {"lat": 41.0431866197085, "lng": 28.9450375697085}}}, "icon": "https://maps.gstatic.com/mapfiles/place_api/icons/v1/png_71/cafe-71.png", "icon_background_color": "#FF9E67", "icon_mask_base_uri": "https://maps.gstatic.com/mapfiles/place_api/icons/v2/cafe_pinlet", "name": "bagg&cafe", "opening_hours": {"open_now": true}, "photos": [{"height": 3024, "html_attributions": ["<a href=\"https://maps.google.com/maps/contrib/111347990765062437157\">\u00d6znur \u00c7elebi</a>"], "photo_reference": "AW30NDwb3c0WPSXDVT837KCXRTtR2Zl1ediqBjYCv6-NcvGZtJZNLJ9jeqbETk3Dl8aj8W8F-P6lGc-zXunUwbyAlx6NtdkVsez2dsmiqAfhnjo2oOtgH8hfl64q45jJP-Ls6gupL5E06u1pB9aff_1VwLRLjqDThuevG6y7IkEBwCM-5PfI", "width": 4032}], "place_id": "ChIJOdck5h6xyhQRVJOaFKFaNlE", "plus_code": {"compound_code": "2WVW+RH Beyo\u011flu/\u0130stanbul, Turkey", "global_code": "8GHC2WVW+RH"}, "rating": 4.8, "reference": "ChIJOdck5h6xyhQRVJOaFKFaNlE", "scope": "GOOGLE", "types": ["cafe", "food", "point_of_interest", "establishment"], "user_ratings_total": 9, "vicinity": "Hal\u0131c\u0131o\u011flu, Piripa\u015fa Mahallesi, Kumbarahane Caddesi no: 36"}], "status": "OK"}