{"html_attributions": [], "next_page_token": "AW30NDwdb1jo1iILfNp5yWrtZhGW7fhhJxwLEQ27eb1JbJqfZexCgvKpyxytMgE96Ru2xTFq3bbOyZRb9sotRQze9oTTwvcM14_iQ9KhfcpRaxPqT9X-ocOQk_9zwzOGUzD0T96qX2D6PE8ZD2aIfjJxE94MWAjGeBV2V0GxKXwr4t2F5FPck_QUaMFI5LCcXE80ZrhK2IweYo6BdWRNc6Hvq49tFu6QDPXSw7QSzJsoWCTmXghnn041F3SD18d9u65BIcTQrW6ogXdOMthjGY7AcQMAhl8a6sAHkgu2PIhRBH9yoRsmXxg6zIvojffR0N4tKG16YflzFPKK4pS06KbKgwY-1zFbSesZ8rkBSlTGFnEMKdhyY1eO8rIK4cmfg6v3ucRJYEn65rzmx6QXoq1D7XZhxVyoslqhy-b_aIXdcZhjjkUXU_od", "results": [{"business_status": "OPERATIONAL", "geometry": {"location": {"lat": 40.96514449999999, "lng": 28.7982519}, "viewport": {"northeast": {"lat": 40.9665211302915, "lng": 28.7996135302915}, "southwest": {"lat": 40.9638231697085, "lng": 28.7969155697085}}}, "icon": "https://maps.gstatic.com/mapfiles/place_api/icons/v1/png_71/cafe-71.png", "icon_background_color": "#FF9E67", "icon_mask_base_uri": "https://maps.gstatic.com/mapfiles/place_api/icons/v2/cafe_pinlet", "name": "Starbucks", "opening_hours": {"open_now": true}, "photos": [{"height": 3472, "html_attributions": ["<a href=\"https://maps.google.com/maps/contrib/109522841124837527177\">Oleg Fedorov</a>"], "photo_reference": "AW30NDzZtAltYfa38IGqmqNPlk1JJGcqPb-_MQ6F7yLW1v437ED6KzJ80GsiX6DiOgX-sBLqXFw2or8sb0RjZ5dLIW5SaJVJbVDanH7KmL0CRPPPMdX24j-t4WmRgQB1abLU75vx7WQBVmn9h3G-0Cs3eajMEVsV9bnRQFoAkssj17R0476u", "width": 4624}], "place_id": "ChIJCYdvP0yiyhQRNUUotVTeKO0", "plus_code": {"compound_code": "XQ8X+38 Bak\u0131rk\u00f6y/\u0130stanbul, Turkey", "global_code": "8GGCXQ8X+38"}, "price_level": 2, "rating": 4.1, "reference": "ChIJCYdvP0yiyhQRNUUotVTeKO0", "scope": "GOOGLE", "types": ["cafe", "store", "food", "point_of_interest", "establishment"], "user_ratings_total": 1276, "vicinity": "\u015eenlikk\u00f6y Mah. Ye\u015filk\u00f6y Halkal\u0131 Cad. No:93 K:Zemin Aqua Florya Al\u0131\u015fveri\u015f Merkezi"}, {"business_status": "OPERATIONAL", "geometry": {"location": {"lat": 40.972973, "lng": 28.8043627}, "viewport": {"northeast": {"lat": 40.9742716802915, "lng": 28.80553528029149}, "southwest": {"lat": 40.9715737197085, "lng": 28.8028373197085}}}, "icon": "https://maps.gstatic.com/mapfiles/place_api/icons/v1/png_71/cafe-71.png", "icon_background_color": "#FF9E67", "icon_mask_base_uri": "https://maps.gstatic.com/mapfiles/place_api/icons/v2/cafe_pinlet", "name": "Mado", "opening_hours": {"open_now": true}, "photos": [{"height": 809, "html_attributions": ["<a href=\"https://maps.google.com/maps/contrib/107709560097443843418\">Mado</a>"], "photo_reference": "AW30NDw-otxm1mjhH01JM3m_kPu4I2RYpaucv6tMgMfEN4SR6r9s4VW_lI9FSE73-ZcasgmFtRIpzqvGbWKaWwGB7rFSq8_a_-qPf3Pbl9sxahMjQ_e5gXLHuRH-CRbJOdsVTwOjRjg_jjyAMKU8DSa31LrFeObNfOFx2xtgItF2mQTubpeJ", "width": 1440}], "place_id": "ChIJAzQniK6jyhQRg4G1CFM4gOI", "plus_code": {"compound_code": "XRF3+5P Bak\u0131rk\u00f6y/\u0130stanbul, Turkey", "global_code": "8GGCXRF3+5P"}, "price_level": 3, "rating": 3.2, "reference": "ChIJAzQniK6jyhQRg4G1CFM4gOI", "scope": "GOOGLE", "types": ["cafe", "food", "point_of_interest", "establishment"], "user_ratings_total": 27, "vicinity": "Fly Inn AVM \u015eenlikk\u00f6y Mahallesi Ye\u015filk\u00f6y Asfalt\u0131/harman Sok. Flyinn Al\u0131\u015fveri\u015f Ve Ya\u015fam Merkezi, D:No:48 D:30"}, {"business_status": "OPERATIONAL", "geometry": {"location": {"lat": 40.97295889999999, "lng": 28.8044171}, "viewport": {"northeast": {"lat": 40.97425168029149, "lng": 28.8055689802915}, "southwest": {"lat": 40.9715537197085, "lng": 28.8028710197085}}}, "icon": "https://maps.gstatic.com/mapfiles/place_api/icons/v1/png_71/cafe-71.png", "icon_background_color": "#FF9E67", "icon_mask_base_uri": "https://maps.gstatic.com/mapfiles/place_api/icons/v2/cafe_pinlet", "name": "Starbucks", "opening_hours": {"open_now": true}, "photos": [{"height": 3456, "html_attributions": ["<a href=\"https://maps.google.com/maps/contrib/100606516714845908104\">Andrii Kiev</a>"], "photo_reference": "AW30NDz4iku22plJaIUgz1WJcPtgZbDkPFWeVBHxoHLLQG3fjY7jqjhdpE6ZLm13xpkGXHjx2AzFwmJBv2BME42e_DsrrT0Sbxbk72LKfrcfid8_hET34GVjVFDANSvMai2SADU80O849W6iocGWbELLdtNV38sqngpxQx-bPyjWITTFkCJv", "width": 4608}], "place_id": "ChIJY2fV9K6jyhQRMO-uixRqowo", "plus_code": {"compound_code": "XRF3+5Q Bak\u0131rk\u00f6y/\u0130stanbul, Turkey", "global_code": "8GGCXRF3+5Q"}, "price_level": 2, "rating": 4, "reference": "ChIJY2fV9K6jyhQRMO-uixRqowo", "scope": "GOOGLE", "types": ["cafe", "store", "food", "point_of_interest", "establishment"], "user_ratings_total": 124, "vicinity": "\u015eenlikk\u00f6y Mah. Ye\u015filk\u00f6y Asfalt\u0131 Harman Sok. No:48 K:-1 Flyinn Al\u0131\u015fveri\u015f ve Ya\u015fam Merkezi"}, {"business_status": "OPERATIONAL", "geometry": {"location": {"lat": 40.9731362, "lng": 28.8044548}, "viewport": {"northeast": {"lat": 40.9746354802915, "lng": 28.8057257802915}, "southwest": {"lat": 40.9719375197085, "lng": 28.80302781970851}}}, "icon": "https://maps.gstatic.com/mapfiles/place_api/icons/v1/png_71/cafe-71.png", "icon_background_color": "#FF9E67", "icon_mask_base_uri": "https://maps.gstatic.com/mapfiles/place_api/icons/v2/cafe_pinlet", "name": "Cafe Crown", "opening_hours": {"open_now": true}, "photos": [{"height": 4000, "html_attributions": ["<a href=\"https://maps.google.com/maps/contrib/100467972689903190716\">Inna Goloborodko</a>"], "photo_reference": "AW30NDzI6xT8hVmqqmmOmjQu6nVF6DelAtes5-G3BeiVMoppI3iN0tP_u9Rl1PaVuQIFdjZZ759hqA-PPw0nSvGsmtscasSCdq0GP672XPQA1ll8jN3kvTdkMzKG1cTMCwbGG-jh2i8b_evMDsxeQ8AGEoUwp0cucUKqf0qpAMk2UqAE0Wc1", "width": 3000}], "place_id": "ChIJpTMZZK6jyhQRcWSEk804Yq0", "plus_code": {"compound_code": "XRF3+7Q Bak\u0131rk\u00f6y/\u0130stanbul, Turkey", "global_code": "8GGCXRF3+7Q"}, "price_level": 2, "rating": 3.5, "reference": "ChIJpTMZZK6jyhQRcWSEk804Yq0", "scope": "GOOGLE", "types": ["cafe", "food", "point_of_interest", "establishment"], "user_ratings_total": 96, "vicinity": "\u015eenlikk\u00f6y, Flyinn Avm, Harman Soka\u011fi No:48 D:54/B"}, {"business_status": "OPERATIONAL", "geometry": {"location": {"lat": 40.96527560000001, "lng": 28.7985304}, "viewport": {"northeast": {"lat": 40.9666965802915, "lng": 28.79996623029149}, "southwest": {"lat": 40.96399861970851, "lng": 28.79726826970849}}}, "icon": "https://maps.gstatic.com/mapfiles/place_api/icons/v1/png_71/cafe-71.png", "icon_background_color": "#FF9E67", "icon_mask_base_uri": "https://maps.gstatic.com/mapfiles/place_api/icons/v2/cafe_pinlet", "name": "Mikel Coffee Aqua Florya", "opening_hours": {"open_now": true}, "photos": [{"height": 3024, "html_attributions": ["<a href=\"https://maps.google.com/maps/contrib/107622851861765666131\">Can Y\u0131lmaz</a>"], "photo_reference": "AW30NDydELOgs3LS2Pgb0tiQxJ6_zj-jXUM_T8M_6Y3KTk5zxh6d0oHVB14GzvJaD8Dk7Vg81dmr_958LF40BI2y6diqTMBlIRr14vSFTkU4o1narm1tGW71P-2Oc9BcSuLaqF4tKyYG__-ovapZfmwolp-3fgV3NsJsHhFlX6-BruHXUbZO", "width": 3024}], "place_id": "ChIJT-yC_w2jyhQRgSJaO20ommg", "plus_code": {"compound_code": "XQ8X+4C Bak\u0131rk\u00f6y/\u0130stanbul, Turkey", "global_code": "8GGCXQ8X+4C"}, "rating": 3.8, "reference": "ChIJT-yC_w2jyhQRgSJaO20ommg", "scope": "GOOGLE", "types": ["cafe", "store", "food", "point_of_interest", "establishment"], "user_ratings_total": 18, "vicinity": "\u015eenlikk\u00f6y Mah. Ye\u015filk\u00f6y Halkal\u0131 Cad. No:93-93/1 Kat:1"}, {"business_status": "OPERATIONAL", "geometry": {"location": {"lat": 40.96527560000001, "lng": 28.7985304}, "viewport": {"northeast": {"lat": 40.9666965802915, "lng": 28.79996623029149}, "southwest": {"lat": 40.96399861970851, "lng": 28.79726826970849}}}, "icon": "https://maps.gstatic.com/mapfiles/place_api/icons/v1/png_71/cafe-71.png", "icon_background_color": "#FF9E67", "icon_mask_base_uri": "https://maps.gstatic.com/mapfiles/place_api/icons/v2/cafe_pinlet", "name": "Kahve D\u00fcnyas\u0131 - Aqua Florya AVM", "opening_hours": {"open_now": true}, "photos": [{"height": 3024, "html_attributions": ["<a href=\"https://maps.google.com/maps/contrib/108498919643960783381\">Lucas Vivere</a>"], "photo_reference": "AW30NDzBAHz_3CPMlBmFI8QFgCl5XKzI3Se6iVMnueoAwq6E-ciccCKHmQzwfJX4mcKwSBd7hiGl_wisDmdkaPkHjhR2CRzFanb1iVlW_iKWg_txHDaFTpiDh31SRHcIUiLtUxk6ll4y7XMHuGqaOXMMiT7M6IavBLFVrt9EwvPWLllCVdAh", "width": 4032}], "place_id": "ChIJq39-oBKjyhQRFOoVBmXts7s", "plus_code": {"compound_code": "XQ8X+4C Bak\u0131rk\u00f6y/\u0130stanbul, Turkey", "global_code": "8GGCXQ8X+4C"}, "rating": 3.4, "reference": "ChIJq39-oBKjyhQRFOoVBmXts7s", "scope": "GOOGLE", "types": ["cafe", "store", "food", "point_of_interest", "establishment"], "user_ratings_total": 41, "vicinity": "\u015eenlikk\u00f6y, Ye\u015filk\u00f6y Halkal\u0131 Caddesi No: 93 / 93-1"}, {"business_status": "CLOSED_TEMPORARILY", "geometry": {"location": {"lat": 40.9649855, "lng": 28.7983859}, "viewport": {"northeast": {"lat": 40.9663679302915, "lng": 28.79977848029149}, "southwest": {"lat": 40.9636699697085, "lng": 28.79708051970849}}}, "icon": "https://maps.gstatic.com/mapfiles/place_api/icons/v1/png_71/cafe-71.png", "icon_background_color": "#FF9E67", "icon_mask_base_uri": "https://maps.gstatic.com/mapfiles/place_api/icons/v2/cafe_pinlet", "name": "Chillbox", "permanently_closed": true, "photos": [{"height": 4032, "html_attributions": ["<a href=\"https://maps.google.com/maps/contrib/113432467225592502866\">Manal Kamal</a>"], "photo_reference": "AW30NDwh4MYBkGlz2eo4N934cDNl6AmVaM4Zmpn-GFBNztSA0550Zd34j0SJr5U2lZVsC7jc51SbhYK42L_JRe96mh0Ja1IJYAaaXzyxjCeV_iKvOXAqA_bl0mdPRM_7szXx9419XZeeHlWqnrQU2MWwlapezM4_vkDhwr9ENzUnP4Q-DRG2", "width": 3024}], "place_id": "ChIJM50BO0yiyhQRLFgkY3CzKhs", "plus_code": {"compound_code": "XQ7X+X9 Bak\u0131rk\u00f6y/\u0130stanbul, Turkey", "global_code": "8GGCXQ7X+X9"}, "rating": 3.1, "reference": "ChIJM50BO0yiyhQRLFgkY3CzKhs", "scope": "GOOGLE", "types": ["cafe", "store", "food", "point_of_interest", "establishment"], "user_ratings_total": 49, "vicinity": "\u015eenlikk\u00f6y, Ye\u015filk\u00f6y Halkal\u0131 Caddesi No:93"}, {"business_status": "OPERATIONAL", "geometry": {"location": {"lat": 40.9649035, "lng": 28.7983662}, "viewport": {"northeast": {"lat": 40.96625248029149, "lng": 28.7997151802915}, "southwest": {"lat": 40.9635545197085, "lng": 28.7970172197085}}}, "icon": "https://maps.gstatic.com/mapfiles/place_api/icons/v1/png_71/cafe-71.png", "icon_background_color": "#FF9E67", "icon_mask_base_uri": "https://maps.gstatic.com/mapfiles/place_api/icons/v2/cafe_pinlet", "name": "Gloria Jean's Coffees Aqua Florya", "opening_hours": {"open_now": true}, "photos": [{"height": 6936, "html_attributions": ["<a href=\"https://maps.google.com/maps/contrib/101927438180646418374\">Murat T.</a>"], "photo_reference": "AW30NDzksr-oeEHF_tAQcIizbyXDid4tWbPc_0sxedzQKOYPJINJ0gBaHSaJxdW94U19lIgN7vl9H8q3qn-inQCBhktrqtScMl0roPOGv8T34zuAsqnSLM86zXwy9lbr4MVDTv2FVFagQLzvFGGbrMCCUFvcpNBTHNJ9_s7ng14LPWKpUgOF", "width": 9248}], "place_id": "ChIJh2DQhFajyhQRiRq0BImRrcQ", "plus_code": {"compound_code": "XQ7X+X8 Bak\u0131rk\u00f6y/\u0130stanbul, Turkey", "global_code": "8GGCXQ7X+X8"}, "price_level": 2, "rating": 4, "reference": "ChIJh2DQhFajyhQRiRq0BImRrcQ", "scope": "GOOGLE", "types": ["cafe", "store", "food", "point_of_interest", "establishment"], "user_ratings_total": 338, "vicinity": "\u015eenlikk\u00f6y, Aqua Florya"}, {"business_status": "OPERATIONAL", "geometry": {"location": {"lat": 40.9646192, "lng": 28.7983424}, "viewport": {"northeast": {"lat": 40.9659950802915, "lng": 28.7996972302915}, "southwest": {"lat": 40.9632971197085, "lng": 28.7969992697085}}}, "icon": "https://maps.gstatic.com/mapfiles/place_api/icons/v1/png_71/cafe-71.png", "icon_background_color": "#FF9E67", "icon_mask_base_uri": "https://maps.gstatic.com/mapfiles/place_api/icons/v2/cafe_pinlet", "name": "S\u0130O", "opening_hours": {"open_now": true}, "photos": [{"height": 9000, "html_attributions": ["<a href=\"https://maps.google.com/maps/contrib/111019908662982291374\">\u062f \u0639\u0628\u062f\u0627\u0644\u0644\u0647 \u0625\u0628\u0631\u0627\u0647\u064a\u0645 \u0627\u0644\u0633\u0627\u062f\u0629</a>"], "photo_reference": "AW30NDxEMN-qsqW1hglaw_kIVojxZOKk68rBj0bgdmaXktt2xp8X7IRhQFNcabvCaYtjH9NP_jTirzmrjG3HVQGVqeF41iSUkwrijggjwKyTq_5dWdx7Zz-mpORDlanyvW38n3rIuizYsJ7-Pkdp0InYRlbt6QacKfYjuvxOKArXFRYtHzfk", "width": 12000}], "place_id": "ChIJ-0wxgE6iyhQRtH4yahFjYRw", "plus_code": {"compound_code": "XQ7X+R8 Bak\u0131rk\u00f6y/\u0130stanbul, Turkey", "global_code": "8GGCXQ7X+R8"}, "rating": 4.4, "reference": "ChIJ-0wxgE6iyhQRtH4yahFjYRw", "scope": "GOOGLE", "types": ["cafe", "restaurant", "food", "point_of_interest", "establishment"], "user_ratings_total": 437, "vicinity": "\u015eenlikk\u00f6y AQUA AVM SAH\u0130L, Ye\u015filk\u00f6y Halkal\u0131 Caddesi"}, {"business_status": "OPERATIONAL", "geometry": {"location": {"lat": 40.9644027, "lng": 28.7989796}, "viewport": {"northeast": {"lat": 40.9657112802915, "lng": 28.8002937802915}, "southwest": {"lat": 40.96301331970851, "lng": 28.7975958197085}}}, "icon": "https://maps.gstatic.com/mapfiles/place_api/icons/v1/png_71/restaurant-71.png", "icon_background_color": "#FF9E67", "icon_mask_base_uri": "https://maps.gstatic.com/mapfiles/place_api/icons/v2/restaurant_pinlet", "name": "S Lounge Florya", "opening_hours": {"open_now": true}, "photos": [{"height": 1064, "html_attributions": ["<a href=\"https://maps.google.com/maps/contrib/100963233976355721706\">S Lounge Florya</a>"], "photo_reference": "AW30NDytCG5TRkWOAVoh-GsP9Z113MoYT9pEeMaJHjqwimznEq9UeI6ixeNEw06Tx73cSG9vqe7QTyllNWlqplUS12IlXYN_ce8jfoeWGAR4EBCQLwbSMVsx4Llu2Q6zEo5mRTWuco-7xDveHm55RuPjsyDtGICXPVtRKp4LXCgWxJ8HDIyb", "width": 1600}], "place_id": "ChIJBcXueE6iyhQRy0wAaZV-lnk", "plus_code": {"compound_code": "XQ7X+QH Bak\u0131rk\u00f6y/\u0130stanbul, Turkey", "global_code": "8GGCXQ7X+QH"}, "rating": 4.5, "reference": "ChIJBcXueE6iyhQRy0wAaZV-lnk", "scope": "GOOGLE", "types": ["restaurant", "cafe", "food", "point_of_interest", "establishment"], "user_ratings_total": 30, "vicinity": "\u015eenlikk\u00f6y"}, {"business_status": "OPERATIONAL", "geometry": {"location": {"lat": 40.96489529999999, "lng": 28.797931}, "viewport": {"northeast": {"lat": 40.96624428029149, "lng": 28.7992799802915}, "southwest": {"lat": 40.9635463197085, "lng": 28.7965820197085}}}, "icon": "https://maps.gstatic.com/mapfiles/place_api/icons/v1/png_71/cafe-71.png", "icon_background_color": "#FF9E67", "icon_mask_base_uri": "https://maps.gstatic.com/mapfiles/place_api/icons/v2/cafe_pinlet", "name": "Strabucks Aqua Florya", "photos": [{"height": 4032, "html_attributions": ["<a href=\"https://maps.google.com/maps/contrib/118382477605082085605\">Hayrettin O\u011eUZ</a>"], "photo_reference": "AW30NDx5ItbSf_8JB9ueG1h2j62mPM3akqs4ETRKYYuoIWw1-KofC0V3837_SSdaM3Qe1oh0PFI93Atb4enf21JQ4GHSYLCwiTWJ_ym57hduWoCV56pYiD9fWHxxsIJrcB2YFAQB60II870YQPcN9H0Vj7GdyKwjKy10-0SxLp8Pyd2m-VX2", "width": 3024}], "place_id": "ChIJMwRSKEyiyhQRlBYrnWfSFTw", "plus_code": {"compound_code": "XQ7X+X5 Bak\u0131rk\u00f6y/\u0130stanbul, Turkey", "global_code": "8GGCXQ7X+X5"}, "rating": 2.7, "reference": "ChIJMwRSKEyiyhQRlBYrnWfSFTw", "scope": "GOOGLE", "types": ["cafe", "food", "point_of_interest", "establishment"], "user_ratings_total": 19, "vicinity": "\u015eenlikk\u00f6y"}, {"business_status": "OPERATIONAL", "geometry": {"location": {"lat": 40.96563539999999, "lng": 28.79804619999999}, "viewport": {"northeast": {"lat": 40.96698438029149, "lng": 28.79939518029149}, "southwest": {"lat": 40.96428641970849, "lng": 28.79669721970849}}}, "icon": "https://maps.gstatic.com/mapfiles/place_api/icons/v1/png_71/cafe-71.png", "icon_background_color": "#FF9E67", "icon_mask_base_uri": "https://maps.gstatic.com/mapfiles/place_api/icons/v2/cafe_pinlet", "name": "Gloria Jean's Coffees", "opening_hours": {"open_now": true}, "photos": [{"height": 2448, "html_attributions": ["<a href=\"https://maps.google.com/maps/contrib/109102247560227738877\">kamal shoukry</a>"], "photo_reference": "AW30NDxsdzK7R_cRCzaHGyZRDZRyO9spwjqx3IFff4ojNyRr31BFQPg4ocylfcIuGSUKwjb8J5HbFbmR9WtKM8fmrYQNlozJIy7qU4C0ixUTJ_4iGAx5C3fvDJRHo1OfI0vPqc5Pm9RbTakQwC50qEHwRd-wBS_xJQiwpzhes9KjoydJSktV", "width": 3264}], "place_id": "ChIJ68_riU6jyhQRHGndC0k9cko", "plus_code": {"compound_code": "XQ8X+76 Bak\u0131rk\u00f6y/\u0130stanbul, Turkey", "global_code": "8GGCXQ8X+76"}, "price_level": 2, "rating": 3.8, "reference": "ChIJ68_riU6jyhQRHGndC0k9cko", "scope": "GOOGLE", "types": ["cafe", "store", "food", "point_of_interest", "establishment"], "user_ratings_total": 18, "vicinity": "\u015eenlikk\u00f6y Mah. Ye\u015filk\u00f6y Halkal\u0131 Cad. Aqua Florya No:93, D:1"}, {"business_status": "OPERATIONAL", "geometry": {"location": {"lat": 40.965176, "lng": 28.7978575}, "viewport": {"northeast": {"lat": 40.96660498029149, "lng": 28.7993089802915}, "southwest": {"lat": 40.9639070197085, "lng": 28.7966110197085}}}, "icon": "https://maps.gstatic.com/mapfiles/place_api/icons/v1/png_71/restaurant-71.png", "icon_background_color": "#FF9E67", "icon_mask_base_uri": "https://maps.gstatic.com/mapfiles/place_api/icons/v2/restaurant_pinlet", "name": "Kitchenette", "opening_hours": {"open_now": true}, "photos": [{"height": 3000, "html_attributions": ["<a href=\"https://maps.google.com/maps/contrib/105066210274760000417\">\u00c7a\u011fr\u0131 Ah\u0131skal\u0131</a>"], "photo_reference": "AW30NDxZvRIUXXww2uRCWR8ybLXQPWFOrllXOqYuVmhgEsIN0u0IMbNIpyGhJMbRCEbXxxh_cnFpYgD7tWoewj0_WRntnZ0gHfs4ShUu-bmQ3Yoxvaylo1rM4CnWJzk75Xp_nYEbAbgrbXjrNZ2RPfO3ztmmxchigppXdltAYnR69cJB-mtP", "width": 4000}], "place_id": "ChIJsdpqL0yiyhQRud55SgvRjmE", "plus_code": {"compound_code": "XQ8X+34 Bak\u0131rk\u00f6y/\u0130stanbul, Turkey", "global_code": "8GGCXQ8X+34"}, "rating": 3.9, "reference": "ChIJsdpqL0yiyhQRud55SgvRjmE", "scope": "GOOGLE", "types": ["restaurant", "cafe", "food", "point_of_interest", "establishment"], "user_ratings_total": 870, "vicinity": "\u015eenlikk\u00f6y Mah. Halkal\u0131 Cad. Aqua Florya AVM No: 93 Kat: Zemin, Florya"}, {"business_status": "OPERATIONAL", "geometry": {"location": {"lat": 40.9658123, "lng": 28.7976241}, "viewport": {"northeast": {"lat": 40.96716128029149, "lng": 28.7989730802915}, "southwest": {"lat": 40.96446331970849, "lng": 28.7962751197085}}}, "icon": "https://maps.gstatic.com/mapfiles/place_api/icons/v1/png_71/cafe-71.png", "icon_background_color": "#FF9E67", "icon_mask_base_uri": "https://maps.gstatic.com/mapfiles/place_api/icons/v2/cafe_pinlet", "name": "Godiva Aqua Florya", "opening_hours": {"open_now": true}, "photos": [{"height": 4032, "html_attributions": ["<a href=\"https://maps.google.com/maps/contrib/108973812649456247222\">Merve Canl\u0131</a>"], "photo_reference": "AW30NDwD_pO3a2ah4VnUXW15MBasp7hpXnhKQVC7V1eHi5wb7Xa4MdkaLoPabd2fmHxyWxzcGxt-9A37f888ObM7f6800xz7a2awXfaCeV3wmBrOZAe2KtRii2z9xuJXqHWci-AErbrAX0IailW_W_vTVpUgE-hKCeFrDPoOMp9piFel3gUF", "width": 3024}], "place_id": "ChIJ3dPw1725yhQRdS98gaJd8UQ", "plus_code": {"compound_code": "XQ8X+82 Fatih/\u0130stanbul, Turkey", "global_code": "8GGCXQ8X+82"}, "rating": 3.7, "reference": "ChIJ3dPw1725yhQRdS98gaJd8UQ", "scope": "GOOGLE", "types": ["cafe", "food", "point_of_interest", "establishment"], "user_ratings_total": 26, "vicinity": "Alemdar, Alemdar Caddesi"}, {"business_status": "OPERATIONAL", "geometry": {"location": {"lat": 40.9658264, "lng": 28.7975026}, "viewport": {"northeast": {"lat": 40.9671601802915, "lng": 28.7988311802915}, "southwest": {"lat": 40.9644622197085, "lng": 28.7961332197085}}}, "icon": "https://maps.gstatic.com/mapfiles/place_api/icons/v1/png_71/cafe-71.png", "icon_background_color": "#FF9E67", "icon_mask_base_uri": "https://maps.gstatic.com/mapfiles/place_api/icons/v2/cafe_pinlet", "name": "BOSS COFFEE", "opening_hours": {"open_now": true}, "photos": [{"height": 5472, "html_attributions": ["<a href=\"https://maps.google.com/maps/contrib/105413881875164018737\">BOSS COFFEE ROASTERY</a>"], "photo_reference": "AW30NDz93ispkIyqrpRHvt3jaWS002ntgF_eQ1_1Cfdg7VXAnvUsfZCnzzdBK759qpbEctMNbP2h7ktYac8iYCMcCwdn9jx9oMrfcCFwr3YhT5Np3eIyUFR0g7PUKOTDRRGTsAFy8kcpdCWgwhreH5RECbzzOEsqGu6Ilo_fYA1cbTKeZ9o7", "width": 7296}], "place_id": "ChIJ9eW4LkyiyhQRXa8lttTQ0QI", "plus_code": {"compound_code": "XQ8X+82 Bak\u0131rk\u00f6y/\u0130stanbul, Turkey", "global_code": "8GGCXQ8X+82"}, "rating": 4, "reference": "ChIJ9eW4LkyiyhQRXa8lttTQ0QI", "scope": "GOOGLE", "types": ["cafe", "store", "food", "point_of_interest", "establishment"], "user_ratings_total": 347, "vicinity": "\u015eenlikk\u00f6y, Ye\u015filk\u00f6y Halkal\u0131 Caddesi no:93"}, {"business_status": "OPERATIONAL", "geometry": {"location": {"lat": 40.965984, "lng": 28.7966871}, "viewport": {"northeast": {"lat": 40.9673400302915, "lng": 28.79802268029149}, "southwest": {"lat": 40.9646420697085, "lng": 28.79532471970849}}}, "icon": "https://maps.gstatic.com/mapfiles/place_api/icons/v1/png_71/shopping-71.png", "icon_background_color": "#4B96F3", "icon_mask_base_uri": "https://maps.gstatic.com/mapfiles/place_api/icons/v2/shopping_pinlet", "name": "Haf\u0131z Mustafa 1864 Florya", "opening_hours": {"open_now": true}, "photos": [{"height": 1080, "html_attributions": ["<a href=\"https://maps.google.com/maps/contrib/116837878701201093641\">Haf\u0131z Mustafa 1864 Florya</a>"], "photo_reference": "AW30NDxcA-i9ZcGkz56qLYYSeVbAXXTiacsjuoK0_i73ey5vNBuJPAHmq3TOMPvp3u738fIatfWan4MW4CG52U4uYO6H8DVJJfkrRxeM--BeYnXaSbc7UmoDo9D1Wph9kGU10rz7nEY8Oun72ebBgHJ6kI8LQhadcFsPZKLKgcGAPqRW1yDb", "width": 1080}], "place_id": "ChIJhSIQw5mjyhQRalOYbDRq6Dk", "plus_code": {"compound_code": "XQ8W+9M Bak\u0131rk\u00f6y/\u0130stanbul, Turkey", "global_code": "8GGCXQ8W+9M"}, "price_level": 2, "rating": 4.7, "reference": "ChIJhSIQw5mjyhQRalOYbDRq6Dk", "scope": "GOOGLE", "types": ["cafe", "bakery", "store", "food", "point_of_interest", "establishment"], "user_ratings_total": 2272, "vicinity": "\u015eenlikk\u00f6y, Aqua Florya AVM, Florya Caddesi, Ye\u015filk\u00f6y Halkal\u0131 Caddesi No:93"}, {"business_status": "OPERATIONAL", "geometry": {"location": {"lat": 40.9661695, "lng": 28.7967214}, "viewport": {"northeast": {"lat": 40.9673565302915, "lng": 28.7979313802915}, "southwest": {"lat": 40.9646585697085, "lng": 28.7952334197085}}}, "icon": "https://maps.gstatic.com/mapfiles/place_api/icons/v1/png_71/restaurant-71.png", "icon_background_color": "#FF9E67", "icon_mask_base_uri": "https://maps.gstatic.com/mapfiles/place_api/icons/v2/restaurant_pinlet", "name": "Mizu", "opening_hours": {"open_now": true}, "photos": [{"height": 2384, "html_attributions": ["<a href=\"https://maps.google.com/maps/contrib/117558953196139770707\">Mizu</a>"], "photo_reference": "AW30NDwabjkAQnxA0aHKGLIC81ki5aVeuwnBP9lZxAQGYC2axV9kFRQv2CczN0jtIK401KjANFB0p8wX3_X14UXjWpIHgeBQQcvgRCyYM1LxNIsvolmlrX_cEX1KJdmJNKX7EJNeyRuaplqFuZNFdIhK88Jdai7rJkZeIl_FegWhgfK0rYXl", "width": 4240}], "place_id": "ChIJ0b0o0c6jyhQRyyrnIGSLeiM", "plus_code": {"compound_code": "XQ8W+FM Bak\u0131rk\u00f6y/\u0130stanbul, Turkey", "global_code": "8GGCXQ8W+FM"}, "price_level": 3, "rating": 4.2, "reference": "ChIJ0b0o0c6jyhQRyyrnIGSLeiM", "scope": "GOOGLE", "types": ["restaurant", "cafe", "store", "food", "point_of_interest", "establishment"], "user_ratings_total": 585, "vicinity": "\u015eenlikk\u00f6y, Ye\u015filk\u00f6y Halkal\u0131 Caddesi No:93"}, {"business_status": "OPERATIONAL", "geometry": {"location": {"lat": 40.9661698, "lng": 28.7961246}, "viewport": {"northeast": {"lat": 40.9675187802915, "lng": 28.7974735802915}, "southwest": {"lat": 40.9648208197085, "lng": 28.7947756197085}}}, "icon": "https://maps.gstatic.com/mapfiles/place_api/icons/v1/png_71/cafe-71.png", "icon_background_color": "#FF9E67", "icon_mask_base_uri": "https://maps.gstatic.com/mapfiles/place_api/icons/v2/cafe_pinlet", "name": "Florya Sahil", "opening_hours": {"open_now": true}, "photos": [{"height": 3000, "html_attributions": ["<a href=\"https://maps.google.com/maps/contrib/100400773454815325722\">Bozhidar Nikolov</a>"], "photo_reference": "AW30NDwb7xtVecfi60uT0VT0YECVsZBwVNToIl57rpF6LRpKUYpTZvguYqXjRQvz1TlO31MN5mmvLieFZRn_cCvPAs9-i0DJHffZCKZfueTy-GNyLXSX-YfXe2Ze9m-d968xAnVddAdham15d0qfkyJtZpYNeh0SvuekkFML5nZ7B7Ugk73-", "width": 4000}], "place_id": "ChIJmeo8wPqjyhQRlom09eHi86U", "plus_code": {"compound_code": "XQ8W+FC Bak\u0131rk\u00f6y/\u0130stanbul, Turkey", "global_code": "8GGCXQ8W+FC"}, "rating": 4.7, "reference": "ChIJmeo8wPqjyhQRlom09eHi86U", "scope": "GOOGLE", "types": ["cafe", "food", "point_of_interest", "establishment"], "user_ratings_total": 87, "vicinity": "\u015eenlikk\u00f6y, Ye\u015filk\u00f6y Halkal\u0131 Caddesi No:93, 34153"}, {"business_status": "OPERATIONAL", "geometry": {"location": {"lat": 40.9643677, "lng": 28.8028668}, "viewport": {"northeast": {"lat": 40.96564508029149, "lng": 28.8042049302915}, "southwest": {"lat": 40.9629471197085, "lng": 28.8015069697085}}}, "icon": "https://maps.gstatic.com/mapfiles/place_api/icons/v1/png_71/cafe-71.png", "icon_background_color": "#FF9E67", "icon_mask_base_uri": "https://maps.gstatic.com/mapfiles/place_api/icons/v2/cafe_pinlet", "name": "Pepechura Cafe nargile", "opening_hours": {"open_now": true}, "photos": [{"height": 3144, "html_attributions": ["<a href=\"https://maps.google.com/maps/contrib/100298358527534813681\">Pepechura Cafe nargile</a>"], "photo_reference": "AW30NDx1QUMsi4Cuu0VNqohRqOI5kzNwIwPHe9NVPo3-6mpQ_U8Yhzvdyqfdh6GoXBNazJKaMt6pYjxgOXwVdV_SMwCkmwNegJ0xerEERLNUGrtfl9IKaUGsDtdEJjLvUoGWBf0pkkoOx39Rwtrgsl4vGozuN6dkvODA8OwK9Y8Kd-QhufYc", "width": 4192}], "place_id": "ChIJSWqhrMWjyhQRcVI-RlKl-2E", "plus_code": {"compound_code": "XR73+P4 Bak\u0131rk\u00f6y/\u0130stanbul, Turkey", "global_code": "8GGCXR73+P4"}, "rating": 4, "reference": "ChIJSWqhrMWjyhQRcVI-RlKl-2E", "scope": "GOOGLE", "types": ["cafe", "food", "point_of_interest", "establishment"], "user_ratings_total": 57, "vicinity": "\u015eenlikk\u00f6y Mh. Ye\u015filk\u00f6y Halkal\u0131 Cd, Florya Caddesi No 301"}, {"business_status": "CLOSED_TEMPORARILY", "geometry": {"location": {"lat": 40.964887, "lng": 28.8030329}, "viewport": {"northeast": {"lat": 40.96617543029151, "lng": 28.8043672302915}, "southwest": {"lat": 40.96347746970851, "lng": 28.8016692697085}}}, "icon": "https://maps.gstatic.com/mapfiles/place_api/icons/v1/png_71/cafe-71.png", "icon_background_color": "#FF9E67", "icon_mask_base_uri": "https://maps.gstatic.com/mapfiles/place_api/icons/v2/cafe_pinlet", "name": "Nargilacafe", "permanently_closed": true, "photos": [{"height": 5120, "html_attributions": ["<a href=\"https://maps.google.com/maps/contrib/117282385991815074834\">Baris Efe</a>"], "photo_reference": "AW30NDxutn6HPRONsg92aaEsMSEk3ukFbUFq2pywH9gKTd-r-ugfwiak0wd9c0peeFo0_UbgSWHwKrTPBBekbCpPMhUHpQRI6Qv_90Ky8F_Pfd0GyGxBgmDn4qrxswce7qNb4S-HDvZ6A7lSBVoRApieS6EcDTUpnyIAuElreDGaduhJFxfE", "width": 3840}], "place_id": "ChIJ--uZQVKiyhQR-MRPgnebuJY", "plus_code": {"compound_code": "XR73+X6 Bak\u0131rk\u00f6y/\u0130stanbul, Turkey", "global_code": "8GGCXR73+X6"}, "rating": 3.7, "reference": "ChIJ--uZQVKiyhQR-MRPgnebuJY", "scope": "GOOGLE", "types": ["cafe", "food", "point_of_interest", "establishment"], "user_ratings_total": 10, "vicinity": "\u015eenlikk\u00f6y, K\u0131rserdar Sokak No:81"}], "status": "OK"}