{"html_attributions": [], "next_page_token": "AW30NDxl1kXeMqYpM_nwcDA_WR7_6lXNngh2QpoOgctzzA5TRnJUaDgX7nFo8IwrsBStbYuFodO6otftUp3_93U7EhQabZfQIy1mh06l1ELnszvZOKaHD5zwQhOxxKufR0BN38BYaZzIhdu5rCOZ3aN4-YPCK00NxTQ8z6X-j0rdlAvQsQOvwotSFt2uz60NQs31DyXcXxUSdnAmu-v8Mn1dl48-WUT5FtqGSHK6rqULnlPYhhBh2uLemYElcDOiqkaC0vxt68XI5vPAEW7ARKA2Ltpky9VkG65inYKeJ7drSriRuy_K_1H5QjCCeBRWLyCS9D1ztMk5cfqyNgvhVOCATuLgxcImYPl-1jrt8b3zWiWQMrjwu-kXgu-eNEVAb9fMr76JBk-RZqpf2o3pqdOf9WHkQ7q_nO5Tz4hi57skfcXWmC2KVAwX", "results": [{"business_status": "OPERATIONAL", "geometry": {"location": {"lat": 41.013154, "lng": 28.97773}, "viewport": {"northeast": {"lat": 41.0144618302915, "lng": 28.9790150802915}, "southwest": {"lat": 41.0117638697085, "lng": 28.9763171197085}}}, "icon": "https://maps.gstatic.com/mapfiles/place_api/icons/v1/png_71/lodging-71.png", "icon_background_color": "#909CE1", "icon_mask_base_uri": "https://maps.gstatic.com/mapfiles/place_api/icons/v2/hotel_pinlet", "name": "Orient Express & Spa by Orka Hotels", "opening_hours": {"open_now": true}, "photos": [{"height": 3449, "html_attributions": ["<a href=\"https://maps.google.com/maps/contrib/110921849677727866437\">Orient Express &amp; Spa by Orka Hotels</a>"], "photo_reference": "AW30NDwu3opeN1PZ9C_sRFbttfS-kn4L9cAbNVS-0EumhbDQSJSIHsyDmTosQojtDcWT-mMhmp1DwWLN5b02iznUQvGjTy6z7HMIvHGMQ4PoxFtBFPnOarwFLqSq5nJVF_6qyaVKJvT9OQ040b_iKB5pMLYfgY3AusbV9Rp0f36bmI2Bw6a6", "width": 2100}], "place_id": "ChIJbUDBCsC5yhQRrbehwLl8acs", "plus_code": {"compound_code": "2X7H+73 Fatih/\u0130stanbul, Turkey", "global_code": "8GHC2X7H+73"}, "rating": 4.2, "reference": "ChIJbUDBCsC5yhQRrbehwLl8acs", "scope": "GOOGLE", "types": ["cafe", "bar", "restaurant", "food", "spa", "lodging", "point_of_interest", "establishment"], "user_ratings_total": 707, "vicinity": "Hoca Pa\u015fa, Old City Sirkeci, H\u00fcdavendigar Caddesi No:24"}, {"business_status": "OPERATIONAL", "geometry": {"location": {"lat": 41.0081399, "lng": 28.9760521}, "viewport": {"northeast": {"lat": 41.0094379302915, "lng": 28.9773934802915}, "southwest": {"lat": 41.00673996970851, "lng": 28.9746955197085}}}, "icon": "https://maps.gstatic.com/mapfiles/place_api/icons/v1/png_71/restaurant-71.png", "icon_background_color": "#FF9E67", "icon_mask_base_uri": "https://maps.gstatic.com/mapfiles/place_api/icons/v2/restaurant_pinlet", "name": "Mado", "opening_hours": {"open_now": true}, "photos": [{"height": 3000, "html_attributions": ["<a href=\"https://maps.google.com/maps/contrib/118230918393891210030\">\u0410\u043b\u0435\u043a\u0441\u0430\u043d\u0434\u0440\u0430</a>"], "photo_reference": "AW30NDzD00uhqxTgrtzE7kGuyFaBBFCi90ZCNYGNdV7OBszXum_OxMRba7BEBi-PUHWhtTf5M0PaOIZUcY4NWAEYDAz2TjeH5V0H-ogEDyaSiqBEJ3hamWE33xjLQFhC_38S-o5pO-_57SczYnqxf5FwV-1j6Q0iUlOpXtcVznSZI3l8v_9c", "width": 4000}], "place_id": "ChIJC_89GZa5yhQRAenIvYOc_a0", "plus_code": {"compound_code": "2X5G+7C Fatih/\u0130stanbul, Turkey", "global_code": "8GHC2X5G+7C"}, "price_level": 3, "rating": 3.8, "reference": "ChIJC_89GZa5yhQRAenIvYOc_a0", "scope": "GOOGLE", "types": ["cafe", "bakery", "restaurant", "food", "store", "point_of_interest", "establishment"], "user_ratings_total": 1822, "vicinity": "Alemdar, Divan Yolu Caddesi No:24"}, {"business_status": "OPERATIONAL", "geometry": {"location": {"lat": 41.017173, "lng": 28.969859}, "viewport": {"northeast": {"lat": 41.0185439802915, "lng": 28.9712361302915}, "southwest": {"lat": 41.0158460197085, "lng": 28.9685381697085}}}, "icon": "https://maps.gstatic.com/mapfiles/place_api/icons/v1/png_71/restaurant-71.png", "icon_background_color": "#FF9E67", "icon_mask_base_uri": "https://maps.gstatic.com/mapfiles/place_api/icons/v2/restaurant_pinlet", "name": "Hamdi Restaurant - Emin\u00f6n\u00fc", "opening_hours": {"open_now": true}, "photos": [{"height": 4032, "html_attributions": ["<a href=\"https://maps.google.com/maps/contrib/103530421596097074606\">AsH</a>"], "photo_reference": "AW30NDy-D86u5w7yMJ1bAQm6SCV-BhbJ1SbFEmAhEKLtKgf02ARjfA4JblvHP6_tMUmo6bHzDXB4JDeNbLlBd8Faed6jNDqjTquHao0JI5o4azHtAtxi4PTkRBwaIUj7A5Jpli866ABlhbJAHaZ5b3QcdOnT3XULIXBm5WLKBRayY3VMjBh3", "width": 3024}], "place_id": "ChIJHcPKg-y5yhQREEHS-JpdxuM", "plus_code": {"compound_code": "2X89+VW Fatih/\u0130stanbul, Turkey", "global_code": "8GHC2X89+VW"}, "price_level": 2, "rating": 4, "reference": "ChIJHcPKg-y5yhQREEHS-JpdxuM", "scope": "GOOGLE", "types": ["cafe", "bar", "restaurant", "food", "point_of_interest", "establishment"], "user_ratings_total": 6366, "vicinity": "R\u00fcstem Pa\u015fa Mah Tahmis Caddesi, Kal\u00e7in Sokak No:11"}, {"business_status": "OPERATIONAL", "geometry": {"location": {"lat": 41.0084766, "lng": 28.9776073}, "viewport": {"northeast": {"lat": 41.0098363302915, "lng": 28.9790844302915}, "southwest": {"lat": 41.0071383697085, "lng": 28.9763864697085}}}, "icon": "https://maps.gstatic.com/mapfiles/place_api/icons/v1/png_71/cafe-71.png", "icon_background_color": "#FF9E67", "icon_mask_base_uri": "https://maps.gstatic.com/mapfiles/place_api/icons/v2/cafe_pinlet", "name": "Omar Cafe & Restaurant", "opening_hours": {"open_now": true}, "photos": [{"height": 1966, "html_attributions": ["<a href=\"https://maps.google.com/maps/contrib/117735397904241721778\">GHA</a>"], "photo_reference": "AW30NDzGLyBvDC9cxgMVpu2-kROUuD9soiCn8fdxKzNNGLK9k-x65b1nAWdzQfMh1lAdUp_zqNVK5AiNGsGI_Olc4UnjkYp_P84hsO6E2F1MOOZfRQ3BgTqQx4BTS3TC-zNr73x55Zs1599Ouv-B2iJAm3TynHd7EumLQYFSp0z69RR5m-wv", "width": 1680}], "place_id": "ChIJ07B-4L25yhQRBaEzMbEjsw8", "plus_code": {"compound_code": "2X5H+92 Fatih/\u0130stanbul, Turkey", "global_code": "8GHC2X5H+92"}, "rating": 4.3, "reference": "ChIJ07B-4L25yhQRBaEzMbEjsw8", "scope": "GOOGLE", "types": ["cafe", "restaurant", "food", "point_of_interest", "establishment"], "user_ratings_total": 168, "vicinity": "Alemdar, \u015eeftali Sokak No:8"}, {"business_status": "CLOSED_TEMPORARILY", "geometry": {"location": {"lat": 41.0052589, "lng": 28.9754118}, "viewport": {"northeast": {"lat": 41.0066122802915, "lng": 28.97651913029149}, "southwest": {"lat": 41.0039143197085, "lng": 28.97382116970849}}}, "icon": "https://maps.gstatic.com/mapfiles/place_api/icons/v1/png_71/cafe-71.png", "icon_background_color": "#FF9E67", "icon_mask_base_uri": "https://maps.gstatic.com/mapfiles/place_api/icons/v2/cafe_pinlet", "name": "Grand Vezir Cafe", "permanently_closed": true, "photos": [{"height": 2976, "html_attributions": ["<a href=\"https://maps.google.com/maps/contrib/116377171943806717039\">Umar Gilani</a>"], "photo_reference": "AW30NDx-rEtLMTplxZ9OYy3cM9jSsNtM_h0ZKedZiXVMe4cFIGBCcU9b_7AlT6kOj9QweG9m57drRCIX9_FP8XgAS0Dhid_57l5OpCOrVtaxS7vjUdWdosbJw_G0oYiWSyfwRezB8kQJympW59ah6tDAXGJU1jCPPPoE6TxlZ1viWuoboXQq", "width": 3968}], "place_id": "ChIJhTM_75e5yhQRXGz_mQfNz18", "plus_code": {"compound_code": "2X4G+45 Fatih/\u0130stanbul, Turkey", "global_code": "8GHC2X4G+45"}, "rating": 3.6, "reference": "ChIJhTM_75e5yhQRXGz_mQfNz18", "scope": "GOOGLE", "types": ["cafe", "restaurant", "food", "point_of_interest", "establishment"], "user_ratings_total": 43, "vicinity": "Sultan Ahmet, At Meydan\u0131 Caddesi 27/1"}, {"business_status": "CLOSED_TEMPORARILY", "geometry": {"location": {"lat": 41.0081678, "lng": 28.9755379}, "viewport": {"northeast": {"lat": 41.00951678029149, "lng": 28.9768868802915}, "southwest": {"lat": 41.00681881970849, "lng": 28.9741889197085}}}, "icon": "https://maps.gstatic.com/mapfiles/place_api/icons/v1/png_71/restaurant-71.png", "icon_background_color": "#FF9E67", "icon_mask_base_uri": "https://maps.gstatic.com/mapfiles/place_api/icons/v2/restaurant_pinlet", "name": "Petrol Palace Restaurant", "permanently_closed": true, "photos": [{"height": 1920, "html_attributions": ["<a href=\"https://maps.google.com/maps/contrib/111400895931951310437\">Pavel Semashko</a>"], "photo_reference": "AW30NDzbL0SxLarC6b3cGi_9OMlNDedeGqbvxR-cAZR_pbYgqVo6hzlG80YJcztLuh0Mkak-lYdIpXR-7Eoimz_EItzdaW3VhfKYmRC_CO8Aqm_aQkRGkPTrBR9kbHe2EcepWSCGSdkzHpe4G4s4rqKvEPV97qTDhHqCdG4uXO_Q3FBCwgJS", "width": 1080}], "place_id": "ChIJ0Z8Hif25yhQRaaOkMiqZPjI", "plus_code": {"compound_code": "2X5G+76 Fatih/\u0130stanbul, Turkey", "global_code": "8GHC2X5G+76"}, "rating": 3, "reference": "ChIJ0Z8Hif25yhQRaaOkMiqZPjI", "scope": "GOOGLE", "types": ["restaurant", "cafe", "food", "point_of_interest", "establishment"], "user_ratings_total": 2, "vicinity": "Turkey"}, {"business_status": "OPERATIONAL", "geometry": {"location": {"lat": 41.0093588, "lng": 28.9767798}, "viewport": {"northeast": {"lat": 41.0107401302915, "lng": 28.9781815802915}, "southwest": {"lat": 41.0080421697085, "lng": 28.9754836197085}}}, "icon": "https://maps.gstatic.com/mapfiles/place_api/icons/v1/png_71/cafe-71.png", "icon_background_color": "#FF9E67", "icon_mask_base_uri": "https://maps.gstatic.com/mapfiles/place_api/icons/v2/cafe_pinlet", "name": "Maya's Corner Cafe", "photos": [{"height": 1024, "html_attributions": ["<a href=\"https://maps.google.com/maps/contrib/100726985610563849024\">Maya&#39;s Corner Cafe</a>"], "photo_reference": "AW30NDx_2_YWTCHTo6UGdlYcdJcxh-9dti8DY0UX4hI5iNT6u6bdiVDoOjGXI4EdoLGPyBX1HRNdEcUpMceXPB8DELOxbjmxWwkZQsPBNwxT09iygkKLcvi6r75cuDHMdyOtB6l6acw0ZsnbQbl8yj3CWC_93f-NZscpTDSkUF7erMfOQ6nV", "width": 768}], "place_id": "ChIJ_zPXGr65yhQRkJAL0-6DY5k", "plus_code": {"compound_code": "2X5G+PP Fatih/\u0130stanbul, Turkey", "global_code": "8GHC2X5G+PP"}, "price_level": 1, "rating": 4.6, "reference": "ChIJ_zPXGr65yhQRkJAL0-6DY5k", "scope": "GOOGLE", "types": ["cafe", "restaurant", "food", "store", "point_of_interest", "establishment"], "user_ratings_total": 114, "vicinity": "Alemdar, Yerebatan Caddesi No:25"}, {"business_status": "OPERATIONAL", "geometry": {"location": {"lat": 41.00320490000001, "lng": 28.9743107}, "viewport": {"northeast": {"lat": 41.0045202302915, "lng": 28.9756580302915}, "southwest": {"lat": 41.00182226970851, "lng": 28.9729600697085}}}, "icon": "https://maps.gstatic.com/mapfiles/place_api/icons/v1/png_71/cafe-71.png", "icon_background_color": "#FF9E67", "icon_mask_base_uri": "https://maps.gstatic.com/mapfiles/place_api/icons/v2/cafe_pinlet", "name": "Nostra Casa Cafe & Restaurant", "opening_hours": {"open_now": false}, "photos": [{"height": 4000, "html_attributions": ["<a href=\"https://maps.google.com/maps/contrib/111535389153149039110\">Giorgio Sanseverino</a>"], "photo_reference": "AW30NDy0HOVcwLxrD7dze94b7YeoBAH0g7ek1E8Z_6e3TD8__ibdBQkHf36JydY_K-rxCk04rv0pePbdutwl-A0x5wTXuoCuKi2j3R0FaXTIWZPllK-CiXfTPXh6EJV0X2rYYVnU92CxW7fdYa58c64IaUDsXGysh8Es__tBeaJc9exy3tgq", "width": 6000}], "place_id": "ChIJkzSyRpi5yhQRW8SkLgYY-rM", "plus_code": {"compound_code": "2X3F+7P Fatih/\u0130stanbul, Turkey", "global_code": "8GHC2X3F+7P"}, "rating": 4.3, "reference": "ChIJkzSyRpi5yhQRW8SkLgYY-rM", "scope": "GOOGLE", "types": ["cafe", "restaurant", "food", "point_of_interest", "establishment"], "user_ratings_total": 141, "vicinity": "K\u00fc\u00e7\u00fck Ayasofya Mahallesi, Mustafa Pa\u015fa Sokak No:42"}, {"business_status": "CLOSED_TEMPORARILY", "geometry": {"location": {"lat": 41.0117143, "lng": 28.9712946}, "viewport": {"northeast": {"lat": 41.01304528029149, "lng": 28.9726438802915}, "southwest": {"lat": 41.01034731970849, "lng": 28.9699459197085}}}, "icon": "https://maps.gstatic.com/mapfiles/place_api/icons/v1/png_71/cafe-71.png", "icon_background_color": "#FF9E67", "icon_mask_base_uri": "https://maps.gstatic.com/mapfiles/place_api/icons/v2/cafe_pinlet", "name": "34-18 Tuzcafe", "permanently_closed": true, "photos": [{"height": 4128, "html_attributions": ["<a href=\"https://maps.google.com/maps/contrib/111745892587895645420\">Bilal Karabacak</a>"], "photo_reference": "AW30NDy1BJWxI34NV5LgY152nAURgi37FHltXbHLP8pz6h4E-xFzez5ZcgyYaVHbq99Vp5KgWBea04p-OLrH7hX-jakrmp92vRSlHVkgqtBDFkG5ujFUQ4qHEAo0terhITpDoInOLlzX74nSeZQ9OEDcITb29RsZg1kYGfpbNnxDcTeo3gs1", "width": 3096}], "place_id": "ChIJf6WRbpS5yhQROED0CyahATg", "plus_code": {"compound_code": "2X6C+MG Fatih/\u0130stanbul, Turkey", "global_code": "8GHC2X6C+MG"}, "rating": 5, "reference": "ChIJf6WRbpS5yhQROED0CyahATg", "scope": "GOOGLE", "types": ["cafe", "food", "point_of_interest", "establishment"], "user_ratings_total": 1, "vicinity": "Sururi, Bezciler Sokak No:12"}, {"business_status": "OPERATIONAL", "geometry": {"location": {"lat": 41.0080549, "lng": 28.97662870000001}, "viewport": {"northeast": {"lat": 41.0093663302915, "lng": 28.97796703029151}, "southwest": {"lat": 41.0066683697085, "lng": 28.97526906970851}}}, "icon": "https://maps.gstatic.com/mapfiles/place_api/icons/v1/png_71/restaurant-71.png", "icon_background_color": "#FF9E67", "icon_mask_base_uri": "https://maps.gstatic.com/mapfiles/place_api/icons/v2/restaurant_pinlet", "name": "Haf\u0131z Mustafa", "opening_hours": {"open_now": true}, "photos": [{"height": 9000, "html_attributions": ["<a href=\"https://maps.google.com/maps/contrib/106621184986402764066\">Erkan Saka</a>"], "photo_reference": "AW30NDyQvEcOxICma_WO6EMz50ZTk28eVUhNWN7NeOWTir3VJNpH0EPDkBObUd4RP4Zhjmhok5S-bx5eNi5HPhlH0_yrBWhzfQDTxMlpW_cnk6IjMX8_j79xV5RBR4qWjP1xsdSa8BiuqHLrRutwPt9R0xHwLbi34f8jt13kjjbBhwCTAgr0", "width": 12000}], "place_id": "ChIJwUXy8b25yhQRwnPmaC7PlSU", "plus_code": {"compound_code": "2X5G+6M Fatih/\u0130stanbul, Turkey", "global_code": "8GHC2X5G+6M"}, "price_level": 2, "rating": 4.6, "reference": "ChIJwUXy8b25yhQRwnPmaC7PlSU", "scope": "GOOGLE", "types": ["cafe", "bakery", "restaurant", "food", "store", "point_of_interest", "establishment"], "user_ratings_total": 5841, "vicinity": "Binbirdirek, Divan Yolu Caddesi No:14"}, {"business_status": "OPERATIONAL", "geometry": {"location": {"lat": 41.00963, "lng": 28.979444}, "viewport": {"northeast": {"lat": 41.01097888029149, "lng": 28.9807931802915}, "southwest": {"lat": 41.00828091970849, "lng": 28.9780952197085}}}, "icon": "https://maps.gstatic.com/mapfiles/place_api/icons/v1/png_71/cafe-71.png", "icon_background_color": "#FF9E67", "icon_mask_base_uri": "https://maps.gstatic.com/mapfiles/place_api/icons/v2/cafe_pinlet", "name": "Cafe Turing", "opening_hours": {"open_now": true}, "photos": [{"height": 1080, "html_attributions": ["<a href=\"https://maps.google.com/maps/contrib/108854334772985862780\">Azeema Faizunnisa</a>"], "photo_reference": "AW30NDzZuhRu_lmIihRWU0fTnarEx5lJIp_CCgUkKjEjZy-SRrc4UMbQ5etaE0YtJ7tXRDjLjEMUGyo4wwmjLwc5wBuUjUuHDSbqRjQQA_yjgSovGTXMny5W_zsnUNNj3oBjUlX-lfuWf6DyztMjij373g4-j1H6akhFCRLpBt8CaCYdKhZT", "width": 1920}], "place_id": "ChIJv6aO-r65yhQR4iltIYgmZfM", "plus_code": {"compound_code": "2X5H+VQ Fatih/\u0130stanbul, Turkey", "global_code": "8GHC2X5H+VQ"}, "rating": 4.9, "reference": "ChIJv6aO-r65yhQR4iltIYgmZfM", "scope": "GOOGLE", "types": ["cafe", "food", "point_of_interest", "establishment"], "user_ratings_total": 14, "vicinity": "Cankurtaran, Caferiye Sokak No:2"}, {"business_status": "OPERATIONAL", "geometry": {"location": {"lat": 41.0129705, "lng": 28.9770832}, "viewport": {"northeast": {"lat": 41.01431633029149, "lng": 28.9784288802915}, "southwest": {"lat": 41.01161836970849, "lng": 28.9757309197085}}}, "icon": "https://maps.gstatic.com/mapfiles/place_api/icons/v1/png_71/restaurant-71.png", "icon_background_color": "#FF9E67", "icon_mask_base_uri": "https://maps.gstatic.com/mapfiles/place_api/icons/v2/restaurant_pinlet", "name": "Constantine's Ark Restaurant & Cafe", "opening_hours": {"open_now": true}, "photos": [{"height": 699, "html_attributions": ["<a href=\"https://maps.google.com/maps/contrib/111092433995394340539\">Constantine&#39;s Ark Restaurant &amp; Cafe</a>"], "photo_reference": "AW30NDyCD02aGF6nhwGHOZrmrC_B3HsBkl9jRbbKG34NGm0gwoGTnHMnID2memuxS7EJR1FiYwXmwUl2FMOdY9zIRCryt2QHHfY1qHYSkuGeFsNvOM-pWXDuiOshSANael8ZdZeiqR8FGob6wUTIRPxPK38YVKB5vPjVO9c-_AoVlWkFljms", "width": 1242}], "place_id": "ChIJnWxS8r-5yhQRw-ZA1EKxl5s", "plus_code": {"compound_code": "2X7G+5R Fatih/\u0130stanbul, Turkey", "global_code": "8GHC2X7G+5R"}, "price_level": 2, "rating": 4.6, "reference": "ChIJnWxS8r-5yhQRw-ZA1EKxl5s", "scope": "GOOGLE", "types": ["restaurant", "cafe", "food", "point_of_interest", "establishment"], "user_ratings_total": 600, "vicinity": "Hoca Pa\u015fa, \u0130bni Kemal Caddesi No:13"}, {"business_status": "OPERATIONAL", "geometry": {"location": {"lat": 41.0145355, "lng": 28.9757083}, "viewport": {"northeast": {"lat": 41.0159286302915, "lng": 28.9771328302915}, "southwest": {"lat": 41.0132306697085, "lng": 28.9744348697085}}}, "icon": "https://maps.gstatic.com/mapfiles/place_api/icons/v1/png_71/restaurant-71.png", "icon_background_color": "#FF9E67", "icon_mask_base_uri": "https://maps.gstatic.com/mapfiles/place_api/icons/v2/restaurant_pinlet", "name": "Ali Usta Burma Kadayif & Baklava", "opening_hours": {"open_now": true}, "photos": [{"height": 4032, "html_attributions": ["<a href=\"https://maps.google.com/maps/contrib/109762720935943166031\">D\u0130OR MEDYA</a>"], "photo_reference": "AW30NDzi4gUJSQyTLB8TUHKEY-5VCi5JhxB9_FBMvAc36tdOd3v-HAmWR26K2KQ2cBdsOZGyCSLMSCSZuqRASZHycoXnw3ukePX0w52xEFMJxG4tQSpAeusuYil1iuN0bdJxl45XB5qgu74tg7AJ2ejiVt48VaMIszSGZp_RRxwYHQ3VZtmP", "width": 3024}], "place_id": "ChIJr0i-o-q5yhQRTSNH0BDJHDg", "plus_code": {"compound_code": "2X7G+R7 Fatih/\u0130stanbul, Turkey", "global_code": "8GHC2X7G+R7"}, "rating": 3.8, "reference": "ChIJr0i-o-q5yhQRTSNH0BDJHDg", "scope": "GOOGLE", "types": ["cafe", "bakery", "restaurant", "food", "store", "point_of_interest", "establishment"], "user_ratings_total": 101, "vicinity": "Hoca Pa\u015fa, Muradiye Caddesi No:25/A"}, {"business_status": "OPERATIONAL", "geometry": {"location": {"lat": 41.0143084, "lng": 28.97536719999999}, "viewport": {"northeast": {"lat": 41.01567078029149, "lng": 28.9766601802915}, "southwest": {"lat": 41.01297281970849, "lng": 28.9739622197085}}}, "icon": "https://maps.gstatic.com/mapfiles/place_api/icons/v1/png_71/cafe-71.png", "icon_background_color": "#FF9E67", "icon_mask_base_uri": "https://maps.gstatic.com/mapfiles/place_api/icons/v2/cafe_pinlet", "name": "Kahve D\u00fcnyas\u0131 Alg\u00f6t\u00fcr - Sirkeci", "opening_hours": {"open_now": true}, "photos": [{"height": 2998, "html_attributions": ["<a href=\"https://maps.google.com/maps/contrib/106384143416088090871\">Onur \u00d6zbek</a>"], "photo_reference": "AW30NDxv77lSGIGzzYYSDA-WZTDEEQnv11HSRoqP3TiDuemGhuBjw6nH0cQqrh3bAZhccZrR_EZz_jT_R0CgfefMxxZ1GhpkPMZxzcwFjoMy0e5V2sFIhveSeH0QuPQFDOerpRgJkI_1nkSBeA7QsXAKXGa6Jon1ZITWThHAaw5rJ7HLYkLb", "width": 3998}], "place_id": "ChIJz6G8W5W5yhQRAHFVD8r19ww", "plus_code": {"compound_code": "2X7G+P4 Fatih/\u0130stanbul, Turkey", "global_code": "8GHC2X7G+P4"}, "price_level": 2, "rating": 4.1, "reference": "ChIJz6G8W5W5yhQRAHFVD8r19ww", "scope": "GOOGLE", "types": ["cafe", "food", "store", "point_of_interest", "establishment"], "user_ratings_total": 282, "vicinity": "Hoca Pa\u015fa, Ankara Caddesi No:42"}, {"business_status": "OPERATIONAL", "geometry": {"location": {"lat": 41.003912, "lng": 28.97697}, "viewport": {"northeast": {"lat": 41.0053521302915, "lng": 28.9783763302915}, "southwest": {"lat": 41.0026541697085, "lng": 28.9756783697085}}}, "icon": "https://maps.gstatic.com/mapfiles/place_api/icons/v1/png_71/cafe-71.png", "icon_background_color": "#FF9E67", "icon_mask_base_uri": "https://maps.gstatic.com/mapfiles/place_api/icons/v2/cafe_pinlet", "name": "Sultanahmet, Istanbul Bookstore Branch", "opening_hours": {"open_now": true}, "photos": [{"height": 2160, "html_attributions": ["<a href=\"https://maps.google.com/maps/contrib/117579535314960083006\">Dilek US</a>"], "photo_reference": "AW30NDx53mCd4BFrjY4l-nyVK9xnLK_fQ0n3zs1ygkahtjqjAvDJ5VuZuG1j_rrnRYP9LuLOnJoAh3ll6D3OLfS_rEUT1SY--m0Jr502NdwneCglwgRRLFSfZhnbhDWTqK9WxUk1kqnXJ4ZKug_6zcDznmqlSKYmRgJfIY8OE1_QnIaaYYC6", "width": 3840}], "place_id": "ChIJOWjSTL25yhQRJJBop7PwuHI", "plus_code": {"compound_code": "2X3G+HQ Fatih/\u0130stanbul, Turkey", "global_code": "8GHC2X3G+HQ"}, "rating": 4.5, "reference": "ChIJOWjSTL25yhQRJJBop7PwuHI", "scope": "GOOGLE", "types": ["cafe", "book_store", "food", "store", "point_of_interest", "establishment"], "user_ratings_total": 46, "vicinity": "Sultan Ahmet, Torun Sokak No:23"}, {"business_status": "CLOSED_TEMPORARILY", "geometry": {"location": {"lat": 41.0133772, "lng": 28.9774685}, "viewport": {"northeast": {"lat": 41.0146969802915, "lng": 28.9787600802915}, "southwest": {"lat": 41.0119990197085, "lng": 28.9760621197085}}}, "icon": "https://maps.gstatic.com/mapfiles/place_api/icons/v1/png_71/cafe-71.png", "icon_background_color": "#FF9E67", "icon_mask_base_uri": "https://maps.gstatic.com/mapfiles/place_api/icons/v2/cafe_pinlet", "name": "MUHAMMAD SAID Baklavaci", "permanently_closed": true, "photos": [{"height": 3000, "html_attributions": ["<a href=\"https://maps.google.com/maps/contrib/100856371269322283233\">Apollinaria Tumina</a>"], "photo_reference": "AW30NDze9OMtWuLBQKSMiM0JXaW_A3MScM-Wn1rzdDu353NPXe8fTKX5X5vtHCWOa6mzOpDzpdmiyrcoYUE8bGv_Bd3v3-Bhl4h6kgzyuUYJ7phCP6kcc_8eKaZSTo8Y0mofSdcukSZBDaN0Xoikr1sAkEVHIb4UUsEitR_bY__YxIv-hcoC", "width": 4000}], "place_id": "ChIJ7W71GsC5yhQRhGoDs6JEB9Q", "plus_code": {"compound_code": "2X7G+9X Fatih/\u0130stanbul, Turkey", "global_code": "8GHC2X7G+9X"}, "rating": 5, "reference": "ChIJ7W71GsC5yhQRhGoDs6JEB9Q", "scope": "GOOGLE", "types": ["cafe", "food", "point_of_interest", "establishment"], "user_ratings_total": 4, "vicinity": "Hoca Pa\u015fa, H\u00fcdavendigar Caddesi 40/A"}, {"business_status": "OPERATIONAL", "geometry": {"location": {"lat": 41.0149899, "lng": 28.9683988}, "viewport": {"northeast": {"lat": 41.01637658029149, "lng": 28.9697546302915}, "southwest": {"lat": 41.01367861970849, "lng": 28.9670566697085}}}, "icon": "https://maps.gstatic.com/mapfiles/place_api/icons/v1/png_71/restaurant-71.png", "icon_background_color": "#FF9E67", "icon_mask_base_uri": "https://maps.gstatic.com/mapfiles/place_api/icons/v2/restaurant_pinlet", "name": "Faruk G\u00fcll\u00fco\u011flu", "opening_hours": {"open_now": true}, "photos": [{"height": 4032, "html_attributions": ["<a href=\"https://maps.google.com/maps/contrib/113205645685818645171\">GOLD Senegal</a>"], "photo_reference": "AW30NDxuwC_Er9xtAraVR5kaqp-AMMyLsF0H0s3XLUJGAqxL8aBG6ojhZmHwpdNeaGLDeX7ICZGsKFZQpYLXefsny57NVVL8omAzlOXfpqh4N_4KMVTmMlLgFDmbQvwrBfVmcLTGAa5X5N1zSisGFqveOheqgnpuLvUT705MM8dc5erPM0F7", "width": 3024}], "place_id": "ChIJzcv1OpO5yhQRIg8EkDrzPc8", "plus_code": {"compound_code": "2X79+X9 Fatih/\u0130stanbul, Turkey", "global_code": "8GHC2X79+X9"}, "price_level": 2, "rating": 3.8, "reference": "ChIJzcv1OpO5yhQRIg8EkDrzPc8", "scope": "GOOGLE", "types": ["cafe", "bakery", "restaurant", "food", "store", "point_of_interest", "establishment"], "user_ratings_total": 442, "vicinity": "Mercan, Vas\u0131f \u00c7\u0131nar Caddesi 16/A"}, {"business_status": "OPERATIONAL", "geometry": {"location": {"lat": 41.0126242, "lng": 28.9783824}, "viewport": {"northeast": {"lat": 41.01393813029149, "lng": 28.9796793302915}, "southwest": {"lat": 41.01124016970849, "lng": 28.9769813697085}}}, "icon": "https://maps.gstatic.com/mapfiles/place_api/icons/v1/png_71/cafe-71.png", "icon_background_color": "#FF9E67", "icon_mask_base_uri": "https://maps.gstatic.com/mapfiles/place_api/icons/v2/cafe_pinlet", "name": "\u202aOsmanlizadeler\u202c", "opening_hours": {"open_now": true}, "photos": [{"height": 1846, "html_attributions": ["<a href=\"https://maps.google.com/maps/contrib/104435811679032605050\">Kakha Khmelidze</a>"], "photo_reference": "AW30NDxWjVtNMA9dGiNfSb3fkYI9DnwTtbq2o5sH6k-uOXJFtmBu70rPztvvwczWMUWPnvC6lAbG50NqCjfN692Xh7MIzgrpZAUqyjtiM9676kTJe_9RRQSJ6oDJDrvrbcd7IjJ_ybGs_M23fntMeC9_EdLWkVSxyR1uRECOV_y9dv7Ho9_F", "width": 4000}], "place_id": "ChIJP3gOhr-5yhQR5bDa6bcmY0A", "plus_code": {"compound_code": "2X7H+29 Fatih/\u0130stanbul, Turkey", "global_code": "8GHC2X7H+29"}, "price_level": 2, "rating": 3.8, "reference": "ChIJP3gOhr-5yhQR5bDa6bcmY0A", "scope": "GOOGLE", "types": ["cafe", "food", "point_of_interest", "establishment"], "user_ratings_total": 896, "vicinity": "Hoca Pa\u015fa, H\u00fcdavendigar Caddesi 2/A"}, {"business_status": "CLOSED_TEMPORARILY", "geometry": {"location": {"lat": 41.0123968, "lng": 28.97870009999999}, "viewport": {"northeast": {"lat": 41.0137712302915, "lng": 28.97995853029149}, "southwest": {"lat": 41.0110732697085, "lng": 28.97726056970849}}}, "icon": "https://maps.gstatic.com/mapfiles/place_api/icons/v1/png_71/cafe-71.png", "icon_background_color": "#FF9E67", "icon_mask_base_uri": "https://maps.gstatic.com/mapfiles/place_api/icons/v2/cafe_pinlet", "name": "Ala Turca Art Cafe", "permanently_closed": true, "photos": [{"height": 2645, "html_attributions": ["<a href=\"https://maps.google.com/maps/contrib/105180558797056999414\">\u05db\u05d5\u05db\u05d1\u05d4 \u05d6\u05dc\u05d3\u05de\u05df \u05d0\u05dc\u05e7\u05d1\u05e5</a>"], "photo_reference": "AW30NDyo9DKJGTlfu5t4MEa-vGCz_r_7YJ8f72wXV_9kbBiOpb4QWGNr4QYWloBMpNh2b46cK4rshHdN1M3L1YMqn5AHNq3lvVTYEnUw0baFaTN06kJmEC8G5fppVFml2xMsdbxtT3mn7C5leLhSYvRbWvOFBaMLybhQOzoS8yGHor-lRA4m", "width": 6048}], "place_id": "ChIJ0779g7-5yhQR9yslM_d8o6A", "plus_code": {"compound_code": "2X6H+XF Fatih/\u0130stanbul, Turkey", "global_code": "8GHC2X6H+XF"}, "rating": 4.2, "reference": "ChIJ0779g7-5yhQR9yslM_d8o6A", "scope": "GOOGLE", "types": ["cafe", "food", "store", "point_of_interest", "establishment"], "user_ratings_total": 9, "vicinity": "Cankurtaran, Taya Hatun Sokak No:2"}, {"business_status": "OPERATIONAL", "geometry": {"location": {"lat": 41.0063288, "lng": 28.9800008}, "viewport": {"northeast": {"lat": 41.00766653029149, "lng": 28.9813357802915}, "southwest": {"lat": 41.0049685697085, "lng": 28.9786378197085}}}, "icon": "https://maps.gstatic.com/mapfiles/place_api/icons/v1/png_71/bar-71.png", "icon_background_color": "#FF9E67", "icon_mask_base_uri": "https://maps.gstatic.com/mapfiles/place_api/icons/v2/bar_pinlet", "name": "The Lounge", "opening_hours": {"open_now": true}, "photos": [{"height": 720, "html_attributions": ["<a href=\"https://maps.google.com/maps/contrib/111997794214383816114\">The Lounge</a>"], "photo_reference": "AW30NDwgS0jN6hB-xvh-LYFicxkx_XD4osuDh--QNzTRG0QtQ-Q8lR6YyZ5AYvlmmPZ2YbxDAwsSWi67G22i-BzUNdej2p1sa_XkpBHVDJxhBgBeuK33e5tRv7M7vr9KBNMsRfOR7tYTWDYG_uwKLia98KoOKj1FoJ48k450u-3hrtCswK67", "width": 1280}], "place_id": "ChIJ7TpWRLy5yhQRtT1fydOXAis", "plus_code": {"compound_code": "2X4J+G2 Fatih/\u0130stanbul, Turkey", "global_code": "8GHC2X4J+G2"}, "rating": 5, "reference": "ChIJ7TpWRLy5yhQRtT1fydOXAis", "scope": "GOOGLE", "types": ["cafe", "bar", "food", "night_club", "point_of_interest", "establishment"], "user_ratings_total": 3, "vicinity": "Cankurtaran, Tevkifhane Sokak No. 1"}], "status": "OK"}