{"html_attributions": [], "next_page_token": "AW30NDwBy7p5m2xATEuH5UZW5PS26FMrSg2Pj-Mqn3AOc9a-TZpmxiOw6SARM3VpIhwynpQ3ZFtRyekUYZZY3GaJppq6AaUZ0ofUO2Xdkdpz9R7vVEsk1RvchrPWtvIxscwmjYWBGp9Pn8sxyJf6yiUZlEo8HOTk1qjOrtA9PBhx7qkFEqYYnLOtQQoxal9LWpkYTWpbNXlu50g5yJw7wS7Xl_ioYrAMilt9nhTBJ9qZuotCTJF7A2X0HhlgSwaFjvCn8vxk5ut7lFdG-m9F-7zREpHPwcAtn0uuEQHV0tU5S0XXe_DHe7nx1esuXTsp-GZ2ZxiDao98Ugc-olP3A1JmPROdl666nBnmPGWFnKFBBaLaxZm5gYRMa5Llwi7LWmhyQDizFAkjE77GFm0O0Jj_Rv4xZOUnDVT1zt1io3-vbE84NsCY54iQ", "results": [{"business_status": "OPERATIONAL", "geometry": {"location": {"lat": 41.03113330000001, "lng": 28.9741806}, "viewport": {"northeast": {"lat": 41.0325701302915, "lng": 28.97563338029149}, "southwest": {"lat": 41.02987216970851, "lng": 28.9729354197085}}}, "icon": "https://maps.gstatic.com/mapfiles/place_api/icons/v1/png_71/lodging-71.png", "icon_background_color": "#909CE1", "icon_mask_base_uri": "https://maps.gstatic.com/mapfiles/place_api/icons/v2/hotel_pinlet", "name": "The Marmara Pera", "opening_hours": {"open_now": true}, "photos": [{"height": 1142, "html_attributions": ["<a href=\"https://maps.google.com/maps/contrib/117240233082937548966\">The Marmara Pera</a>"], "photo_reference": "AW30NDyUdya4B9LTmHA-j9_gLhcoF43CqXele3tZTLlx5UGTaG8Q1bOsbKtD1MmsidMaPIsHhZyrm_c-QFCNjIXmTdaBDMzKKJXJrf94OnTyHhqt74RefKHudh1-nc8IYH6kzuGQcWzjRhBRULyC9a0V6fsDg3ZGaaqczwXrtdLw1aBbCnbR", "width": 2048}], "place_id": "ChIJi_me3-iUyhQRwSMYHJX1drw", "plus_code": {"compound_code": "2XJF+FM Beyo\u011flu/\u0130stanbul, Turkey", "global_code": "8GHC2XJF+FM"}, "rating": 4.3, "reference": "ChIJi_me3-iUyhQRwSMYHJX1drw", "scope": "GOOGLE", "types": ["cafe", "lodging", "restaurant", "bar", "point_of_interest", "food", "establishment"], "user_ratings_total": 3039, "vicinity": "Asmal\u0131 Mescit, Me\u015frutiyet Caddesi No:15"}, {"business_status": "OPERATIONAL", "geometry": {"location": {"lat": 41.02689799999999, "lng": 28.975531}, "viewport": {"northeast": {"lat": 41.02824228029149, "lng": 28.9768876302915}, "southwest": {"lat": 41.02554431970849, "lng": 28.9741896697085}}}, "icon": "https://maps.gstatic.com/mapfiles/place_api/icons/v1/png_71/lodging-71.png", "icon_background_color": "#909CE1", "icon_mask_base_uri": "https://maps.gstatic.com/mapfiles/place_api/icons/v2/hotel_pinlet", "name": "Georges Hotel Galata", "opening_hours": {"open_now": true}, "photos": [{"height": 3744, "html_attributions": ["<a href=\"https://maps.google.com/maps/contrib/112645193343133014210\">Georges Hotel Galata</a>"], "photo_reference": "AW30NDxKRKuLy8cX8SSmHls5RFiAHtCogWny-o0R5YuVWM_DPMmKpixemYndv1RCb1YpLJs4mUItdpjg6lE4bAYb-jWEG_46ZHpSYbYTHQiDxfTFFvm6IeQBMyND07QImyP74Ats38dvYI-yjf22kyASKAsrlTCUvJ6jMhgfHziWlMPBpg4k", "width": 5616}], "place_id": "ChIJf7cjW-e5yhQReQJOcLddVxg", "plus_code": {"compound_code": "2XGG+Q6 Beyo\u011flu/\u0130stanbul, Turkey", "global_code": "8GHC2XGG+Q6"}, "rating": 4.5, "reference": "ChIJf7cjW-e5yhQReQJOcLddVxg", "scope": "GOOGLE", "types": ["cafe", "lodging", "restaurant", "bar", "point_of_interest", "store", "food", "establishment"], "user_ratings_total": 464, "vicinity": "M\u00fceyyedzade, Serdar-\u0131 Ekrem Caddesi No:24"}, {"business_status": "OPERATIONAL", "geometry": {"location": {"lat": 41.03225440000001, "lng": 28.9822603}, "viewport": {"northeast": {"lat": 41.0336010302915, "lng": 28.9836237302915}, "southwest": {"lat": 41.0309030697085, "lng": 28.9809257697085}}}, "icon": "https://maps.gstatic.com/mapfiles/place_api/icons/v1/png_71/lodging-71.png", "icon_background_color": "#909CE1", "icon_mask_base_uri": "https://maps.gstatic.com/mapfiles/place_api/icons/v2/hotel_pinlet", "name": "Suiteness Taksim Hotel", "opening_hours": {"open_now": true}, "photos": [{"height": 901, "html_attributions": ["<a href=\"https://maps.google.com/maps/contrib/100528272897255859000\">Orka Taksim Suites &amp; Hotel</a>"], "photo_reference": "AW30NDxrq6rei9oewVZfwa_o1y7aVlJ3DIyDbmf5-eOPvFRmuRUSQrm5_6i8MJoEHjdPKsKliwNMF0EtqqBo4F1EmfvEhrr75U9WbWbp7uM2PaSUmSLcmeYtG2JF06I8DIABc9ECKvYLsyoSavjA_OnSe-rjT5wdda7p1Q8arGGW8Z5Slni2", "width": 1600}], "place_id": "ChIJX9BmKWK3yhQRffLxnWOzyMs", "plus_code": {"compound_code": "2XJJ+WW Beyo\u011flu/\u0130stanbul, Turkey", "global_code": "8GHC2XJJ+WW"}, "rating": 3.4, "reference": "ChIJX9BmKWK3yhQRffLxnWOzyMs", "scope": "GOOGLE", "types": ["cafe", "lodging", "restaurant", "point_of_interest", "food", "establishment"], "user_ratings_total": 322, "vicinity": "Cihangir, Kulo\u011flu Mh, A\u011fa Hamam\u0131 Sokak No:18"}, {"business_status": "OPERATIONAL", "geometry": {"location": {"lat": 41.040393, "lng": 28.985065}, "viewport": {"northeast": {"lat": 41.0417237802915, "lng": 28.9864251802915}, "southwest": {"lat": 41.0390258197085, "lng": 28.9837272197085}}}, "icon": "https://maps.gstatic.com/mapfiles/place_api/icons/v1/png_71/lodging-71.png", "icon_background_color": "#909CE1", "icon_mask_base_uri": "https://maps.gstatic.com/mapfiles/place_api/icons/v2/hotel_pinlet", "name": "Nippon Hotel", "opening_hours": {"open_now": true}, "photos": [{"height": 4804, "html_attributions": ["<a href=\"https://maps.google.com/maps/contrib/116116259233858108944\">Nippon Hotel</a>"], "photo_reference": "AW30NDxdjtIkiCAJD5QRGMCX0oWsaudhqk_kBPkmebvUoulKeekx0cGj-OMvUVI5JLc-MsuSVG7rjxz88NIodISuQJ7W5iTYUevzrkGxRIKVmc6319yUOUPAuygB7kMf9FoGQOgDipYlUWbGTrnQKIXwZuJRoSJNrR2UomQzzhrfbMxwE4YT", "width": 3203}], "place_id": "ChIJa1T4noy3yhQRqWjYW5v3rZA", "plus_code": {"compound_code": "2XRP+52 Beyo\u011flu/\u0130stanbul, Turkey", "global_code": "8GHC2XRP+52"}, "rating": 4, "reference": "ChIJa1T4noy3yhQRqWjYW5v3rZA", "scope": "GOOGLE", "types": ["cafe", "gym", "lodging", "restaurant", "point_of_interest", "food", "health", "establishment"], "user_ratings_total": 1551, "vicinity": "Kocatepe, Top\u00e7u Caddesi No:6"}, {"business_status": "OPERATIONAL", "geometry": {"location": {"lat": 41.0366684, "lng": 28.99054709999999}, "viewport": {"northeast": {"lat": 41.0380291302915, "lng": 28.9918851302915}, "southwest": {"lat": 41.0353311697085, "lng": 28.9891871697085}}}, "icon": "https://maps.gstatic.com/mapfiles/place_api/icons/v1/png_71/lodging-71.png", "icon_background_color": "#909CE1", "icon_mask_base_uri": "https://maps.gstatic.com/mapfiles/place_api/icons/v2/hotel_pinlet", "name": "Opera Hotel Bosphorus", "opening_hours": {"open_now": true}, "photos": [{"height": 2268, "html_attributions": ["<a href=\"https://maps.google.com/maps/contrib/104348380479769133233\">Erdem Alten</a>"], "photo_reference": "AW30NDxSVsUjV05T34iJL0pqxqhdJ8hQChu0A2k_Nz8tJc7_ZD_BqPl6Rp_CKk40y9lf748lBerawRYSFmAMNoJXoJsg0Dzn2EqBf6k_pf_eyDm2BX_-WANOIPYCxoZFP-PUTGqTQohQe19salmSiWazUYWHIKqquHZ9PBaqtCdCA5Wm3VJh", "width": 4032}], "place_id": "ChIJfYqvKC63yhQRFX0-NsxAzfk", "plus_code": {"compound_code": "2XPR+M6 Beyo\u011flu/\u0130stanbul, Turkey", "global_code": "8GHC2XPR+M6"}, "rating": 3.8, "reference": "ChIJfYqvKC63yhQRFX0-NsxAzfk", "scope": "GOOGLE", "types": ["cafe", "parking", "spa", "lodging", "restaurant", "point_of_interest", "food", "establishment"], "user_ratings_total": 531, "vicinity": "G\u00fcm\u00fc\u015fsuyu, \u00d6mer Avni, \u0130n\u00f6n\u00fc Caddesi No:26"}, {"business_status": "OPERATIONAL", "geometry": {"location": {"lat": 41.0329795, "lng": 28.97746700000001}, "viewport": {"northeast": {"lat": 41.0343373302915, "lng": 28.9788335802915}, "southwest": {"lat": 41.0316393697085, "lng": 28.9761356197085}}}, "icon": "https://maps.gstatic.com/mapfiles/place_api/icons/v1/png_71/movies-71.png", "icon_background_color": "#13B5C7", "icon_mask_base_uri": "https://maps.gstatic.com/mapfiles/place_api/icons/v2/movie_pinlet", "name": "Kafika Kacirdiginiz Filmler Kahvesi", "opening_hours": {"open_now": true}, "photos": [{"height": 3024, "html_attributions": ["<a href=\"https://maps.google.com/maps/contrib/108906011721986342385\">Artur Voznenko</a>"], "photo_reference": "AW30NDwq4FAqhaH8slFd_sPhkTdi9NXdmbBG-4Z14zSnnoyOlw24508e_iuGscPC99kDtffrUT88lIhnIxeXd4H1izV9n4G-jPy0z64Ri89LLtbWeycHO6lDM4AQ0R4ltEI3bgwA4BBk5E4JKr1NAgUgsnInW-3aK_MKZJShHkw3m7VF-BTI", "width": 4032}], "place_id": "ChIJfXL0VWO3yhQRXM1Mi98qU3I", "plus_code": {"compound_code": "2XMG+5X Beyo\u011flu/\u0130stanbul, Turkey", "global_code": "8GHC2XMG+5X"}, "rating": 4.4, "reference": "ChIJfXL0VWO3yhQRXM1Mi98qU3I", "scope": "GOOGLE", "types": ["movie_theater", "cafe", "night_club", "bar", "point_of_interest", "food", "establishment"], "user_ratings_total": 196, "vicinity": "Tomtom, Yeni \u00c7ar\u015f\u0131 Caddesi No: 10"}, {"business_status": "OPERATIONAL", "geometry": {"location": {"lat": 41.03370509999999, "lng": 28.9787259}, "viewport": {"northeast": {"lat": 41.03505408029149, "lng": 28.9800748802915}, "southwest": {"lat": 41.03235611970849, "lng": 28.9773769197085}}}, "icon": "https://maps.gstatic.com/mapfiles/place_api/icons/v1/png_71/cafe-71.png", "icon_background_color": "#FF9E67", "icon_mask_base_uri": "https://maps.gstatic.com/mapfiles/place_api/icons/v2/cafe_pinlet", "name": "Urban Cafe", "opening_hours": {"open_now": true}, "photos": [{"height": 3024, "html_attributions": ["<a href=\"https://maps.google.com/maps/contrib/107920855108262160756\">The Five Star Nomad</a>"], "photo_reference": "AW30NDw2LxQfQEANbfkcXJti1XoQ9D9LzbX4SNzfUIRTfEi3ygPrCfVUJLXwDE_0LBnSlg07GSewLRn8EBhYv4Ezikw7-s53dkmYuGCHBa9u_HJ0LKThKCPy9GBuOAze2zR-WZ2oAYry0YPCRwPO1D9CdGYIfsgPxxrJuOpeqRVlmzN66vKi", "width": 4032}], "place_id": "ChIJdfIyWmC3yhQRkQ4_Q0Of4SA", "plus_code": {"compound_code": "2XMH+FF Beyo\u011flu/\u0130stanbul, Turkey", "global_code": "8GHC2XMH+FF"}, "price_level": 2, "rating": 4.4, "reference": "ChIJdfIyWmC3yhQRkQ4_Q0Of4SA", "scope": "GOOGLE", "types": ["cafe", "point_of_interest", "food", "establishment"], "user_ratings_total": 677, "vicinity": "Kulo\u011flu, Galatasaray Kartal sok No:6/A"}, {"business_status": "CLOSED_TEMPORARILY", "geometry": {"location": {"lat": 41.036072, "lng": 28.981192}, "viewport": {"northeast": {"lat": 41.03741723029149, "lng": 28.98250103029149}, "southwest": {"lat": 41.0347192697085, "lng": 28.9798030697085}}}, "icon": "https://maps.gstatic.com/mapfiles/place_api/icons/v1/png_71/cafe-71.png", "icon_background_color": "#FF9E67", "icon_mask_base_uri": "https://maps.gstatic.com/mapfiles/place_api/icons/v2/cafe_pinlet", "name": "Persian hotel and Cafe Bar", "permanently_closed": true, "photos": [{"height": 4160, "html_attributions": ["<a href=\"https://maps.google.com/maps/contrib/109005388343549685858\">Birg\u00fcl Tuncel</a>"], "photo_reference": "AW30NDyOidKeGu9A0pbCJ3shBraDl9BNUALaWcCVqcRCST5hEjd8ISPq-IJ5D9Fuc8IDhQcQLO091z0JLmebe6X-sEXNL4eH5HoIUAnVUbr2OqumXNtkPuvnF7hd-2fRNopLGRbzk12UC7FLtJswfzxCQ5tDypF9AmVU6yFYRDj3AY7sa95K", "width": 2340}], "place_id": "ChIJaVztuma3yhQR323dBbTm5Mc", "plus_code": {"compound_code": "2XPJ+CF Beyo\u011flu/\u0130stanbul, Turkey", "global_code": "8GHC2XPJ+CF"}, "rating": 3.8, "reference": "ChIJaVztuma3yhQR323dBbTm5Mc", "scope": "GOOGLE", "types": ["cafe", "point_of_interest", "food", "establishment"], "user_ratings_total": 25, "vicinity": "\u015eehit Muhtar, \u0130mam Adnan Sokak No:22"}, {"business_status": "OPERATIONAL", "geometry": {"location": {"lat": 41.03495719999999, "lng": 28.9780682}, "viewport": {"northeast": {"lat": 41.03626753029149, "lng": 28.9795778802915}, "southwest": {"lat": 41.0335695697085, "lng": 28.9768799197085}}}, "icon": "https://maps.gstatic.com/mapfiles/place_api/icons/v1/png_71/cafe-71.png", "icon_background_color": "#FF9E67", "icon_mask_base_uri": "https://maps.gstatic.com/mapfiles/place_api/icons/v2/cafe_pinlet", "name": "Akdeniz", "opening_hours": {"open_now": true}, "photos": [{"height": 3024, "html_attributions": ["<a href=\"https://maps.google.com/maps/contrib/115109350290148749479\">Sunborn</a>"], "photo_reference": "AW30NDwNgaVYNRi_Z1N0hk7nqdHp2ZDf9hpMysIrPYOboqixR9bg5Z1g043S1WpSjTnFPKRnb_VgJ0mfSfk5ONh7CWlf4suiY4fjCQAlpt0mJd3dCEuZzJo4qciBPn0kqC5TckT-IMoLMFTlYdOSr5nPmBm_kFBA0zdbvDujbpvLptID1Rww", "width": 4032}], "place_id": "ChIJ6wG462C3yhQRnJGx7AenK_s", "plus_code": {"compound_code": "2XMH+X6 Beyo\u011flu/\u0130stanbul, Turkey", "global_code": "8GHC2XMH+X6"}, "price_level": 2, "rating": 4.5, "reference": "ChIJ6wG462C3yhQRnJGx7AenK_s", "scope": "GOOGLE", "types": ["cafe", "bar", "point_of_interest", "food", "establishment"], "user_ratings_total": 85, "vicinity": "H\u00fcseyina\u011fa, Nevizade Sokak 25/A"}, {"business_status": "OPERATIONAL", "geometry": {"location": {"lat": 41.035109, "lng": 28.982938}, "viewport": {"northeast": {"lat": 41.03643613029149, "lng": 28.9843186302915}, "southwest": {"lat": 41.0337381697085, "lng": 28.98162066970851}}}, "icon": "https://maps.gstatic.com/mapfiles/place_api/icons/v1/png_71/cafe-71.png", "icon_background_color": "#FF9E67", "icon_mask_base_uri": "https://maps.gstatic.com/mapfiles/place_api/icons/v2/cafe_pinlet", "name": "Cafe Mor Kedi", "opening_hours": {"open_now": true}, "photos": [{"height": 1600, "html_attributions": ["<a href=\"https://maps.google.com/maps/contrib/113929052878652505086\">Morkedi Gay Cafe</a>"], "photo_reference": "AW30NDxh7pglHIdypsEXi1iHUtzBXXx6bkjAxczqFy8wxjKyNerW-s4tazEbVI7AuGuDYpVwqI7aCDy117RyYcXjZrtSeyqJoW3ui36pFBTjWuzi2ML53kFv4twlJb4Y7oOyhsMdhyklZmdQTAnhSHh0kUaUmHAKYB0cp6qdMs9zG724xpEG", "width": 1200}], "place_id": "ChIJAao4rWa3yhQRgmQtkY4iMxw", "plus_code": {"compound_code": "2XPM+25 Beyo\u011flu/\u0130stanbul, Turkey", "global_code": "8GHC2XPM+25"}, "rating": 3.9, "reference": "ChIJAao4rWa3yhQRgmQtkY4iMxw", "scope": "GOOGLE", "types": ["cafe", "bar", "point_of_interest", "food", "establishment"], "user_ratings_total": 215, "vicinity": "Katip Mustafa \u00c7elebi, \u0130pek Sokak no:16"}, {"business_status": "CLOSED_TEMPORARILY", "geometry": {"location": {"lat": 41.0357338, "lng": 28.9850347}, "viewport": {"northeast": {"lat": 41.0370462302915, "lng": 28.9863688802915}, "southwest": {"lat": 41.0343482697085, "lng": 28.9836709197085}}}, "icon": "https://maps.gstatic.com/mapfiles/place_api/icons/v1/png_71/cafe-71.png", "icon_background_color": "#FF9E67", "icon_mask_base_uri": "https://maps.gstatic.com/mapfiles/place_api/icons/v2/cafe_pinlet", "name": "Cajun Cafe Brasserie", "permanently_closed": true, "place_id": "ChIJZ_WF-GS3yhQR0jG2YW1SUq4", "plus_code": {"compound_code": "2XPP+72 Beyo\u011flu/\u0130stanbul, Turkey", "global_code": "8GHC2XPP+72"}, "rating": 3.6, "reference": "ChIJZ_WF-GS3yhQR0jG2YW1SUq4", "scope": "GOOGLE", "types": ["cafe", "restaurant", "point_of_interest", "food", "establishment"], "user_ratings_total": 5, "vicinity": "G\u00fcm\u00fc\u015fsuyu, S\u0131raselviler Cad. Innpera Hotel No:15"}, {"business_status": "OPERATIONAL", "geometry": {"location": {"lat": 41.0309183, "lng": 28.98303560000001}, "viewport": {"northeast": {"lat": 41.0322399802915, "lng": 28.9843470802915}, "southwest": {"lat": 41.0295420197085, "lng": 28.98164911970851}}}, "icon": "https://maps.gstatic.com/mapfiles/place_api/icons/v1/png_71/bar-71.png", "icon_background_color": "#FF9E67", "icon_mask_base_uri": "https://maps.gstatic.com/mapfiles/place_api/icons/v2/bar_pinlet", "name": "Kahvedan Bistro & Bar", "opening_hours": {"open_now": true}, "photos": [{"height": 3024, "html_attributions": ["<a href=\"https://maps.google.com/maps/contrib/113141226821127137337\">Kahvedan Bistro &amp; Bar</a>"], "photo_reference": "AW30NDy8wSeyYSbSM002Jy5gUtrwkSTF2_R9F4RlLVJnahaZCCO50tUypUUJLYaE9_3M6RrlAyneteYzOkNPDu5O7bbqHHy9DugVDLOC6p4jmJKXjBbGSiW_egvUYeTgMQdSv6sBq9ynK7vUwbfNENioliHH9Netl6wepuNnFGhv7N7yKbqh", "width": 4032}], "place_id": "ChIJ3TZ-EWK3yhQRfynQ_9Sdw_g", "plus_code": {"compound_code": "2XJM+96 Beyo\u011flu/\u0130stanbul, Turkey", "global_code": "8GHC2XJM+96"}, "rating": 4.2, "reference": "ChIJ3TZ-EWK3yhQRfynQ_9Sdw_g", "scope": "GOOGLE", "types": ["cafe", "restaurant", "bar", "point_of_interest", "food", "establishment"], "user_ratings_total": 186, "vicinity": "Cihangir, Akarsu Yoku\u015fu Soka\u011f\u0131 No:38"}, {"business_status": "OPERATIONAL", "geometry": {"location": {"lat": 41.0352621, "lng": 28.9817993}, "viewport": {"northeast": {"lat": 41.0366774302915, "lng": 28.9831878302915}, "southwest": {"lat": 41.0339794697085, "lng": 28.9804898697085}}}, "icon": "https://maps.gstatic.com/mapfiles/place_api/icons/v1/png_71/cafe-71.png", "icon_background_color": "#FF9E67", "icon_mask_base_uri": "https://maps.gstatic.com/mapfiles/place_api/icons/v2/cafe_pinlet", "name": "Kahve Fal\u0131", "opening_hours": {"open_now": true}, "photos": [{"height": 2736, "html_attributions": ["<a href=\"https://maps.google.com/maps/contrib/117817388982579042140\">\u00d6zcan G\u00fcven</a>"], "photo_reference": "AW30NDx5FPfiUCd3clfE-U6jQf81lvLOyMl_Xx423QGEaS91MJ3V17krhHKSWSkmQyJodUtj5239KyOwIf3-yQpfXwb0bp-U5GdDLCQx_J5SqKuf33DHAXkYbcAqsf_GG143EXHNoYuKh8i_oXAJ2MyU2SsVGutBXZZbCBHLfr1OakpLNCH2", "width": 2736}], "place_id": "ChIJG5q2RmG3yhQR_vCyWXkUWVQ", "plus_code": {"compound_code": "2XPJ+4P Beyo\u011flu/\u0130stanbul, Turkey", "global_code": "8GHC2XPJ+4P"}, "rating": 3.7, "reference": "ChIJG5q2RmG3yhQR_vCyWXkUWVQ", "scope": "GOOGLE", "types": ["cafe", "point_of_interest", "store", "food", "establishment"], "user_ratings_total": 29, "vicinity": "Katip Mustafa \u00c7elebi, \u0130stiklal Caddesi No:73"}, {"business_status": "OPERATIONAL", "geometry": {"location": {"lat": 41.0336219, "lng": 28.9808772}, "viewport": {"northeast": {"lat": 41.0348072302915, "lng": 28.9822297802915}, "southwest": {"lat": 41.0321092697085, "lng": 28.9795318197085}}}, "icon": "https://maps.gstatic.com/mapfiles/place_api/icons/v1/png_71/cafe-71.png", "icon_background_color": "#FF9E67", "icon_mask_base_uri": "https://maps.gstatic.com/mapfiles/place_api/icons/v2/cafe_pinlet", "name": "Symbol FAL Cafe Teras Restaurant Nargile", "opening_hours": {"open_now": true}, "photos": [{"height": 4032, "html_attributions": ["<a href=\"https://maps.google.com/maps/contrib/113032287414111594181\">Symbol FAL Cafe Teras Restaurant Nargile</a>"], "photo_reference": "AW30NDyuJz9AP8nbf2dDpPmclSs7fbxJauPoRYIMLVtv5QJPoa-36KQyDvOUqLVxZI6ZuO-3DfQEFj-YQd0PtQ1-2yLe5sjVV0nZsgTIzdATP2xDnxdZflrO0OTJFJ-KwTafp2EzPprorxM2hzQaMA2fNnK46DXupuIMJaVN9yFIZ1EoRW-l", "width": 3024}], "place_id": "ChIJX9uicmG3yhQRgOr-VKwCpXM", "plus_code": {"compound_code": "2XMJ+C9 Beyo\u011flu/\u0130stanbul, Turkey", "global_code": "8GHC2XMJ+C9"}, "price_level": 2, "rating": 4.2, "reference": "ChIJX9uicmG3yhQRgOr-VKwCpXM", "scope": "GOOGLE", "types": ["cafe", "restaurant", "bar", "point_of_interest", "food", "establishment"], "user_ratings_total": 630, "vicinity": "Kulo\u011flu, Ayhan I\u015f\u0131k Sokak No 23"}, {"business_status": "OPERATIONAL", "geometry": {"location": {"lat": 41.0314401, "lng": 28.9792088}, "viewport": {"northeast": {"lat": 41.0329385302915, "lng": 28.98048058029149}, "southwest": {"lat": 41.0302405697085, "lng": 28.9777826197085}}}, "icon": "https://maps.gstatic.com/mapfiles/place_api/icons/v1/png_71/cafe-71.png", "icon_background_color": "#FF9E67", "icon_mask_base_uri": "https://maps.gstatic.com/mapfiles/place_api/icons/v2/cafe_pinlet", "name": "Terrasse", "opening_hours": {"open_now": true}, "photos": [{"height": 4000, "html_attributions": ["<a href=\"https://maps.google.com/maps/contrib/113065147096120749791\">\u0141ukasz Blachowski</a>"], "photo_reference": "AW30NDw0DqEIqXYNKRNBFCO5B3ryapGq8V35-xT7MV4srdHBKNNa0YDV6ZyUKBovoZ2HJrzwqAalHAib52WVCpq5N4awu5c8IErWekDW1c1YNOeEUfJQM3BJeM9FZzz-_CHl9LA-RACu5a930KUQmGMvl1TtE5cQWyQ_yevQKMITJYCfydIG", "width": 1800}], "place_id": "ChIJnbSqLGC3yhQRRPXHxJki5bg", "plus_code": {"compound_code": "2XJH+HM Beyo\u011flu/\u0130stanbul, Turkey", "global_code": "8GHC2XJH+HM"}, "rating": 4.6, "reference": "ChIJnbSqLGC3yhQRRPXHxJki5bg", "scope": "GOOGLE", "types": ["cafe", "restaurant", "point_of_interest", "food", "establishment"], "user_ratings_total": 8, "vicinity": "Firuza\u011fa, Cezayir Sokak No:15"}, {"business_status": "OPERATIONAL", "geometry": {"location": {"lat": 41.034424, "lng": 28.982979}, "viewport": {"northeast": {"lat": 41.03576118029149, "lng": 28.9843103302915}, "southwest": {"lat": 41.0330632197085, "lng": 28.9816123697085}}}, "icon": "https://maps.gstatic.com/mapfiles/place_api/icons/v1/png_71/cafe-71.png", "icon_background_color": "#FF9E67", "icon_mask_base_uri": "https://maps.gstatic.com/mapfiles/place_api/icons/v2/cafe_pinlet", "name": "Betat \u0130kinci Kat", "opening_hours": {"open_now": true}, "photos": [{"height": 4000, "html_attributions": ["<a href=\"https://maps.google.com/maps/contrib/110366924166652104102\">Jafar Kaviani</a>"], "photo_reference": "AW30NDwUCh4w1HoWPsl_kITTqDj8Le_ShWpL6PwMRtY0_Zba4-GptFPiTXmLpS9BRQKmrHO4PrDuvGs1oKmtGEqljocyhKb-8VV3BXGheOd4xQle61svyhXdOTO_GFZ3YnwlFQyR7deZxAdYtVsV8xmmgUIs7ZgevAPWskm4WhrXBCUIqz4", "width": 3000}], "place_id": "ChIJv9Jq8WO3yhQRr90JMK3nXtY", "plus_code": {"compound_code": "2XMM+Q5 Beyo\u011flu/\u0130stanbul, Turkey", "global_code": "8GHC2XMM+Q5"}, "price_level": 2, "rating": 4.4, "reference": "ChIJv9Jq8WO3yhQRr90JMK3nXtY", "scope": "GOOGLE", "types": ["cafe", "point_of_interest", "food", "establishment"], "user_ratings_total": 81, "vicinity": "Katip Mustafa \u00c7elebi, \u00c7ukurlu \u00c7e\u015fme Sokak No:11"}, {"business_status": "OPERATIONAL", "geometry": {"location": {"lat": 41.03539499999999, "lng": 28.9811829}, "viewport": {"northeast": {"lat": 41.03675233029149, "lng": 28.9825837302915}, "southwest": {"lat": 41.03405436970849, "lng": 28.9798857697085}}}, "icon": "https://maps.gstatic.com/mapfiles/place_api/icons/v1/png_71/cafe-71.png", "icon_background_color": "#FF9E67", "icon_mask_base_uri": "https://maps.gstatic.com/mapfiles/place_api/icons/v2/cafe_pinlet", "name": "Ivy Cafe", "opening_hours": {"open_now": true}, "photos": [{"height": 2268, "html_attributions": ["<a href=\"https://maps.google.com/maps/contrib/105669770065718416408\">ibrahim y\u00fccel</a>"], "photo_reference": "AW30NDzoZw6Qny7wS6aTILRgd8q4sqnm8XFsQnTJWczJsLtwLhubyLKi6j7gR-2mVhZtZAGYsRTvzssCNvJZW0sUdopcA8rS97YDO_Fx4MARS3GoGMcOlI4goXrDIjaiQn0ngkRFCILqriWDpQSaUE7DNmMclvhnFA6eBeGTZNG-9GJSbpDM", "width": 4032}], "place_id": "ChIJYVZHrWa3yhQRTxlU3yNvgNw", "plus_code": {"compound_code": "2XPJ+5F Beyo\u011flu/\u0130stanbul, Turkey", "global_code": "8GHC2XPJ+5F"}, "rating": 4.4, "reference": "ChIJYVZHrWa3yhQRTxlU3yNvgNw", "scope": "GOOGLE", "types": ["cafe", "point_of_interest", "food", "establishment"], "user_ratings_total": 22, "vicinity": "\u0130stiklal caddesi \u0130mam adnan sokak Karaaslan Apt, D:7 kat:1"}, {"business_status": "CLOSED_TEMPORARILY", "geometry": {"location": {"lat": 41.0383729, "lng": 28.984954}, "viewport": {"northeast": {"lat": 41.0396914302915, "lng": 28.9862090802915}, "southwest": {"lat": 41.0369934697085, "lng": 28.9835111197085}}}, "icon": "https://maps.gstatic.com/mapfiles/place_api/icons/v1/png_71/cafe-71.png", "icon_background_color": "#FF9E67", "icon_mask_base_uri": "https://maps.gstatic.com/mapfiles/place_api/icons/v2/cafe_pinlet", "name": "Taksim Coffee", "permanently_closed": true, "place_id": "ChIJuwv_d2W3yhQRgGdqd4X4wwk", "plus_code": {"compound_code": "2XQM+8X Beyo\u011flu/\u0130stanbul, Turkey", "global_code": "8GHC2XQM+8X"}, "rating": 4, "reference": "ChIJuwv_d2W3yhQRgGdqd4X4wwk", "scope": "GOOGLE", "types": ["cafe", "point_of_interest", "food", "establishment"], "user_ratings_total": 17, "vicinity": "Kocatepe, \u015eehit Muhtar Bey Caddesi 2-1"}, {"business_status": "CLOSED_TEMPORARILY", "geometry": {"location": {"lat": 41.0329601, "lng": 28.9751486}, "viewport": {"northeast": {"lat": 41.0343095802915, "lng": 28.9764553802915}, "southwest": {"lat": 41.0316116197085, "lng": 28.9737574197085}}}, "icon": "https://maps.gstatic.com/mapfiles/place_api/icons/v1/png_71/cafe-71.png", "icon_background_color": "#FF9E67", "icon_mask_base_uri": "https://maps.gstatic.com/mapfiles/place_api/icons/v2/cafe_pinlet", "name": "Selucia Cafe & Bistro", "permanently_closed": true, "place_id": "ChIJNzQO8l-3yhQRM6ckYWrJpko", "plus_code": {"compound_code": "2XMG+53 Beyo\u011flu/\u0130stanbul, Turkey", "global_code": "8GHC2XMG+53"}, "reference": "ChIJNzQO8l-3yhQRM6ckYWrJpko", "scope": "GOOGLE", "types": ["cafe", "restaurant", "point_of_interest", "food", "establishment"], "vicinity": "Hotel Troya No:45 Me\u015frutiyet Caddesi Asmal\u0131 Mescit Mahallesi"}, {"business_status": "OPERATIONAL", "geometry": {"location": {"lat": 41.0386337, "lng": 28.9840424}, "viewport": {"northeast": {"lat": 41.0400268302915, "lng": 28.9853645802915}, "southwest": {"lat": 41.0373288697085, "lng": 28.9826666197085}}}, "icon": "https://maps.gstatic.com/mapfiles/place_api/icons/v1/png_71/cafe-71.png", "icon_background_color": "#FF9E67", "icon_mask_base_uri": "https://maps.gstatic.com/mapfiles/place_api/icons/v2/cafe_pinlet", "name": "Muizz Cafe", "opening_hours": {"open_now": true}, "photos": [{"height": 4000, "html_attributions": ["<a href=\"https://maps.google.com/maps/contrib/108233056676121057558\">Anna Jia</a>"], "photo_reference": "AW30NDzxeqQ1w8JLos0lWBdexCMDAP9MmutH2E5lF-OyuRB_awO7YP2LePSVPg_hLFFK0EhP2QZXgGC2UPb1RFb-hgf_YqNpKbvbwy1HiCj3VZtSPaxATdsm2er89yWziCj9baAclL6OeT5FKHJuC_5nyllynO_U2gPCzdCBgrwj-g9SjS47", "width": 3000}], "place_id": "ChIJc163kWW3yhQROvyTLaevQxg", "plus_code": {"compound_code": "2XQM+FJ Beyo\u011flu/\u0130stanbul, Turkey", "global_code": "8GHC2XQM+FJ"}, "rating": 3.7, "reference": "ChIJc163kWW3yhQROvyTLaevQxg", "scope": "GOOGLE", "types": ["cafe", "point_of_interest", "food", "establishment"], "user_ratings_total": 6, "vicinity": "Kocatepe, Taksim Cad. Taksim G\u00f6nen Hotel No:27"}], "status": "OK"}