{"html_attributions": [], "next_page_token": "AW30NDxgdWxIH0P_eg6mPfhI8AIa6Duxr263eF92djAzI__y0AHb5AKW_XGjjIIsNmZH9shseJ9lrB6iMPs_7lE-leQHOW-tbFPcqNnwmzh0Mx77MIWVxGqj3o0EwoV93RpPeprPZj_69SGYfSOvnjzdfhX_xXbQR0gMtVDzHmh4-MWqJg72ZyfK761JbOmmHvdu-G6jsbVfdfPDz6iNOzCoROqPhDWAMTUd6K13IeKqMkVYNT4VIOpxqKvAtU3BrUtjVjz9wzuybAu6r7Fy3sXeUzpW2QlFyri2jC1lMuHEHmi1RURLpj5jk6uIoxFuLq31ouMfmexZKPn26f9DC8C3rZk6LeaTpv6Q7yOPPB5AA-YkKik4kMx6NpleBino7GyiqvOdgYdNdDt46inOoVyRSG5I5UM6448QYOF6vvm3zraCcIxVNgxE", "results": [{"business_status": "OPERATIONAL", "geometry": {"location": {"lat": 41.034074, "lng": 28.94173}, "viewport": {"northeast": {"lat": 41.0354475802915, "lng": 28.9429569302915}, "southwest": {"lat": 41.0327496197085, "lng": 28.9402589697085}}}, "icon": "https://maps.gstatic.com/mapfiles/place_api/icons/v1/png_71/generic_business-71.png", "icon_background_color": "#7B9EB0", "icon_mask_base_uri": "https://maps.gstatic.com/mapfiles/place_api/icons/v2/generic_pinlet", "name": "Pedall\u0131yorum Bisiklet ve Eko Turizm Derne\u011fi", "opening_hours": {"open_now": true}, "photos": [{"height": 596, "html_attributions": ["<a href=\"https://maps.google.com/maps/contrib/114348456818536931701\">Pedall\u0131yorum Bisiklet ve Eko Turizm Derne\u011fi</a>"], "photo_reference": "AW30NDxXPFFsrSIYmer2XUGVh9T30iaa751llQiMSR5bhTxFAvMJUt0pMeaz7zEXm96b3zwSKZiRJw5fNxsGgIxYW7G4jN3fWiYPSzr87pqkE1aLEZvcmjkx7jIssvd-bsbCn1nAkcA7_eAK31J63QpIiSFM7bq921_ee7OARsLzCNf2cGE0", "width": 990}], "place_id": "ChIJ2SPqphG6yhQRyDE-TtFO-dU", "plus_code": {"compound_code": "2WMR+JM Fatih/\u0130stanbul, Turkey", "global_code": "8GHC2WMR+JM"}, "rating": 4.2, "reference": "ChIJ2SPqphG6yhQRyDE-TtFO-dU", "scope": "GOOGLE", "types": ["cafe", "point_of_interest", "food", "establishment"], "user_ratings_total": 5, "vicinity": "K\u00fc\u00e7\u00fck Ayasofya Mahallesi, Hoca \u00c7ak\u0131r Caddesi No:24, Fatih"}, {"business_status": "OPERATIONAL", "geometry": {"location": {"lat": 41.03385919999999, "lng": 28.9435939}, "viewport": {"northeast": {"lat": 41.0353727802915, "lng": 28.9447195302915}, "southwest": {"lat": 41.0326748197085, "lng": 28.9420215697085}}}, "icon": "https://maps.gstatic.com/mapfiles/place_api/icons/v1/png_71/cafe-71.png", "icon_background_color": "#FF9E67", "icon_mask_base_uri": "https://maps.gstatic.com/mapfiles/place_api/icons/v2/cafe_pinlet", "name": "Molla A\u015fk\u0131 Teras\u0131", "opening_hours": {"open_now": true}, "photos": [{"height": 640, "html_attributions": ["<a href=\"https://maps.google.com/maps/contrib/116465372861850269084\">Molla A\u015fk\u0131 Teras\u0131</a>"], "photo_reference": "AW30NDxnB78-WcQbium3tfTsaCkqfrQnLQx2Pb8DLz1Nmrct4JSDAJQksWYexLCa4adNmdFzzfVY6SPUTbxxc_gzjelBR4d0OewgaNt4aMVLJTb3NfhX-rTPbQENfENU6v-_vIQbJem80R7kFf4T-Lu18TyZA_DHxiLNYVrxdJoCaqhG5b4s", "width": 852}], "place_id": "ChIJpQ_82ie6yhQRpEokxkxvvZE", "plus_code": {"compound_code": "2WMV+GC Fatih/\u0130stanbul, Turkey", "global_code": "8GHC2WMV+GC"}, "price_level": 2, "rating": 3.9, "reference": "ChIJpQ_82ie6yhQRpEokxkxvvZE", "scope": "GOOGLE", "types": ["cafe", "restaurant", "point_of_interest", "food", "establishment"], "user_ratings_total": 2326, "vicinity": "Ayvansaray, Pa\u015fa Hamam\u0131 Caddesi No:70"}, {"business_status": "OPERATIONAL", "geometry": {"location": {"lat": 41.038224, "lng": 28.93256349999999}, "viewport": {"northeast": {"lat": 41.0396297802915, "lng": 28.9339379302915}, "southwest": {"lat": 41.0369318197085, "lng": 28.9312399697085}}}, "icon": "https://maps.gstatic.com/mapfiles/place_api/icons/v1/png_71/cafe-71.png", "icon_background_color": "#FF9E67", "icon_mask_base_uri": "https://maps.gstatic.com/mapfiles/place_api/icons/v2/cafe_pinlet", "name": "Mambocino Coffee", "opening_hours": {"open_now": true}, "photos": [{"height": 1080, "html_attributions": ["<a href=\"https://maps.google.com/maps/contrib/114892588898904728610\">Erkan AKIN</a>"], "photo_reference": "AW30NDw8lA3IE6x3GxNsqiuIHLdKvFovDcodcPXIaqwxo6xY5nako9g8iMZN7o8EmdIx0wDx3C0q4g8zOBE9Nfifqy3CzAklW1Ym_5PNVvBLaBEn50wvrHl0uzlJ8XfG7uLtmCYKKF33KDLybGAOs_YSPIgVLc50bR2bMSN7wKgjjqhFoo3d", "width": 1920}], "place_id": "ChIJX4MLYAy6yhQR33ubigNVEac", "plus_code": {"compound_code": "2WQM+72 Ey\u00fcpsultan/\u0130stanbul, Turkey", "global_code": "8GHC2WQM+72"}, "rating": 4, "reference": "ChIJX4MLYAy6yhQR33ubigNVEac", "scope": "GOOGLE", "types": ["cafe", "point_of_interest", "food", "establishment"], "user_ratings_total": 60, "vicinity": "Defterdar, No:, Otak\u00e7\u0131lar Caddesi No:78"}, {"business_status": "CLOSED_TEMPORARILY", "geometry": {"location": {"lat": 41.0336068, "lng": 28.9441803}, "viewport": {"northeast": {"lat": 41.0348085802915, "lng": 28.9455768302915}, "southwest": {"lat": 41.0321106197085, "lng": 28.9428788697085}}}, "icon": "https://maps.gstatic.com/mapfiles/place_api/icons/v1/png_71/cafe-71.png", "icon_background_color": "#FF9E67", "icon_mask_base_uri": "https://maps.gstatic.com/mapfiles/place_api/icons/v2/cafe_pinlet", "name": "Kahve Bah\u00e7esi", "permanently_closed": true, "photos": [{"height": 726, "html_attributions": ["<a href=\"https://maps.google.com/maps/contrib/108267316160474196227\">Kahve Bah\u00e7esi</a>"], "photo_reference": "AW30NDyqwmYAgb3Hs_5nZxIdHtv9IhZFWJJtC3hbR4aIMoH9N4jjgCDRJvS53FNhCXHbdIHiCbwoZ7bJBRtddfi-krcKIr3KnzEkpwazPJ77Dj0bcSYCQXL_1M3W3ouSQbB3aiMYNjvRrjlsW5neBD93-2YNarrr6rEKI6sfrKiR5U3WPyTJ", "width": 1089}], "place_id": "ChIJaZB0jgS6yhQRg5SXgYmr8Ss", "plus_code": {"compound_code": "2WMV+CM Fatih/\u0130stanbul, Turkey", "global_code": "8GHC2WMV+CM"}, "price_level": 1, "rating": 4.4, "reference": "ChIJaZB0jgS6yhQRg5SXgYmr8Ss", "scope": "GOOGLE", "types": ["cafe", "point_of_interest", "food", "establishment"], "user_ratings_total": 235, "vicinity": "Balat, Ayvansaray Mahallesi, Sultan \u00c7e\u015fmesi Caddesi 79/1"}, {"business_status": "OPERATIONAL", "geometry": {"location": {"lat": 41.0315022, "lng": 28.9450612}, "viewport": {"northeast": {"lat": 41.0328484802915, "lng": 28.9464170302915}, "southwest": {"lat": 41.0301505197085, "lng": 28.9437190697085}}}, "icon": "https://maps.gstatic.com/mapfiles/place_api/icons/v1/png_71/cafe-71.png", "icon_background_color": "#FF9E67", "icon_mask_base_uri": "https://maps.gstatic.com/mapfiles/place_api/icons/v2/cafe_pinlet", "name": "Coffeeworks", "opening_hours": {"open_now": true}, "place_id": "ChIJqx1LzAS6yhQR_NixlX4Wzuc", "plus_code": {"compound_code": "2WJW+J2 Fatih/\u0130stanbul, Turkey", "global_code": "8GHC2WJW+J2"}, "rating": 5, "reference": "ChIJqx1LzAS6yhQR_NixlX4Wzuc", "scope": "GOOGLE", "types": ["cafe", "point_of_interest", "store", "food", "establishment"], "user_ratings_total": 2, "vicinity": "Dervi\u015fali, Ayan Caddesi No:11"}, {"business_status": "OPERATIONAL", "geometry": {"location": {"lat": 41.0330173, "lng": 28.9458052}, "viewport": {"northeast": {"lat": 41.0343294802915, "lng": 28.9471285802915}, "southwest": {"lat": 41.0316315197085, "lng": 28.9444306197085}}}, "icon": "https://maps.gstatic.com/mapfiles/place_api/icons/v1/png_71/cafe-71.png", "icon_background_color": "#FF9E67", "icon_mask_base_uri": "https://maps.gstatic.com/mapfiles/place_api/icons/v2/cafe_pinlet", "name": "Cumbal\u0131 Kahve", "opening_hours": {"open_now": true}, "photos": [{"height": 2048, "html_attributions": ["<a href=\"https://maps.google.com/maps/contrib/112645033872927498729\">Cumbal\u0131 Kahve</a>"], "photo_reference": "AW30NDzfancoflXWd1QhluAKuCw27fVZIpaDV0xgn7dBoyjFmM3DHU4hNqJDpJkT6Lms4QJeVVfIw9kGnHJqmzX2xhJTlg3h6g1rG58sBcXBecsOsaldn0HOaYNh5pnz91_-rjlj-Mcl9Nnq-JjNz1MHBH_qe69fU4WLN1-QBOiQq9B7c1Bb", "width": 2048}], "place_id": "ChIJdYlTjAS6yhQRHMbWMebANqY", "plus_code": {"compound_code": "2WMW+68 Fatih/\u0130stanbul, Turkey", "global_code": "8GHC2WMW+68"}, "rating": 4.6, "reference": "ChIJdYlTjAS6yhQRHMbWMebANqY", "scope": "GOOGLE", "types": ["cafe", "point_of_interest", "store", "food", "establishment"], "user_ratings_total": 539, "vicinity": "Ayvansaray, Balat, K\u00fcrk\u00e7\u00fc \u00c7e\u015fmesi Sokak No:12"}, {"business_status": "OPERATIONAL", "geometry": {"location": {"lat": 41.0328574, "lng": 28.9457956}, "viewport": {"northeast": {"lat": 41.0342332802915, "lng": 28.94716328029149}, "southwest": {"lat": 41.0315353197085, "lng": 28.9444653197085}}}, "icon": "https://maps.gstatic.com/mapfiles/place_api/icons/v1/png_71/cafe-71.png", "icon_background_color": "#FF9E67", "icon_mask_base_uri": "https://maps.gstatic.com/mapfiles/place_api/icons/v2/cafe_pinlet", "name": "Coffee Department", "opening_hours": {"open_now": true}, "photos": [{"height": 1357, "html_attributions": ["<a href=\"https://maps.google.com/maps/contrib/104890355587291039280\">Coffee Department</a>"], "photo_reference": "AW30NDwWnu8dVyUSNDu1G9_D6yaV5w0IQ8l9KUuASD5pVa7lv1mYSawIbgQseRR8qvhyzKIGK6kojh1iq72okTaZwZZREuiV8eCyAO8nMnCUSwLaDq3sGtGmz31rWxu2T_BMk45IkQ2RGdhwrobSjJdIAfrTPHYb4qwHXj3g1ANij55qUiXJ", "width": 2035}], "place_id": "ChIJ6UdvjgS6yhQR1BfgC23KDEs", "plus_code": {"compound_code": "2WMW+48 Fatih/\u0130stanbul, Turkey", "global_code": "8GHC2WMW+48"}, "price_level": 2, "rating": 4.7, "reference": "ChIJ6UdvjgS6yhQR1BfgC23KDEs", "scope": "GOOGLE", "types": ["cafe", "point_of_interest", "store", "food", "establishment"], "user_ratings_total": 420, "vicinity": "Ayvansaray, K\u00fcrk\u00e7\u00fc \u00c7e\u015fmesi Sokak No:5"}, {"business_status": "CLOSED_TEMPORARILY", "geometry": {"location": {"lat": 41.03431299999999, "lng": 28.94644199999999}, "viewport": {"northeast": {"lat": 41.0356629802915, "lng": 28.9477964802915}, "southwest": {"lat": 41.0329650197085, "lng": 28.9450985197085}}}, "icon": "https://maps.gstatic.com/mapfiles/place_api/icons/v1/png_71/cafe-71.png", "icon_background_color": "#FF9E67", "icon_mask_base_uri": "https://maps.gstatic.com/mapfiles/place_api/icons/v2/cafe_pinlet", "name": "Afilli Cezve", "permanently_closed": true, "photos": [{"height": 3264, "html_attributions": ["<a href=\"https://maps.google.com/maps/contrib/117554950447781120758\">HASAN KIRMIZI</a>"], "photo_reference": "AW30NDw9n4GBuvXCWtLfbDvfiZVnbsTgLN0PPIuaQrm6sq2za939Ucn8yHMlRF8hxkHdhfp5z6242GSWC9gBzHrBnDMCkpcicqbmdN9owjEozzO0gbQ-wlT5VpCwkHGC0Jl0LburAxAiOwhnQQCchVxFvdAXhA6wQg3tx41haV_TI0I25VNF", "width": 4928}], "place_id": "ChIJwyLvcgS6yhQRWZ-6fbFojwU", "plus_code": {"compound_code": "2WMW+PH Fatih/\u0130stanbul, Turkey", "global_code": "8GHC2WMW+PH"}, "price_level": 2, "rating": 4.1, "reference": "ChIJwyLvcgS6yhQRWZ-6fbFojwU", "scope": "GOOGLE", "types": ["cafe", "point_of_interest", "food", "establishment"], "user_ratings_total": 35, "vicinity": "Ayvansaray, Eski Kasaplar Sokak"}, {"business_status": "OPERATIONAL", "geometry": {"location": {"lat": 41.0344279, "lng": 28.9461688}, "viewport": {"northeast": {"lat": 41.0357772802915, "lng": 28.94747998029149}, "southwest": {"lat": 41.0330793197085, "lng": 28.94478201970849}}}, "icon": "https://maps.gstatic.com/mapfiles/place_api/icons/v1/png_71/cafe-71.png", "icon_background_color": "#FF9E67", "icon_mask_base_uri": "https://maps.gstatic.com/mapfiles/place_api/icons/v2/cafe_pinlet", "name": "Coffee Hall", "opening_hours": {"open_now": true}, "photos": [{"height": 2202, "html_attributions": ["<a href=\"https://maps.google.com/maps/contrib/115486358189786807301\">Coffee Hall</a>"], "photo_reference": "AW30NDwGXKn5ndDf_WJpZNL04gPTsEMV0T38_5tUB6wExv8w-XDMjnG_nv5CTD4meumSxKUjrfQTbAsunIkSl4O9Oa6OITMPhRFBOKR5fAoidNsixcyEjzIchbswdSQVrXiJRW-0CiLq_EP-R5NWMXjiaqmp9EBcbYI5no0Z4J95AkVj8m5v", "width": 1284}], "place_id": "ChIJDX0jbQS6yhQRRZpIjwaqQ4Q", "plus_code": {"compound_code": "2WMW+QF Fatih/\u0130stanbul, Turkey", "global_code": "8GHC2WMW+QF"}, "rating": 4.8, "reference": "ChIJDX0jbQS6yhQRRZpIjwaqQ4Q", "scope": "GOOGLE", "types": ["cafe", "point_of_interest", "store", "food", "establishment"], "user_ratings_total": 36, "vicinity": "Ayvansaray, Mahkeme Alt\u0131 Caddesi No:22"}, {"business_status": "OPERATIONAL", "geometry": {"location": {"lat": 41.034181, "lng": 28.946428}, "viewport": {"northeast": {"lat": 41.0355539302915, "lng": 28.9478160802915}, "southwest": {"lat": 41.0328559697085, "lng": 28.9451181197085}}}, "icon": "https://maps.gstatic.com/mapfiles/place_api/icons/v1/png_71/cafe-71.png", "icon_background_color": "#FF9E67", "icon_mask_base_uri": "https://maps.gstatic.com/mapfiles/place_api/icons/v2/cafe_pinlet", "name": "Mare Mosso Coffee", "opening_hours": {"open_now": true}, "photos": [{"height": 4000, "html_attributions": ["<a href=\"https://maps.google.com/maps/contrib/103330318448950930210\">Mare Mosso Coffee</a>"], "photo_reference": "AW30NDwtTR751L_YGYVFZWfNajuaW_kBngYhHTEh3nndgtCf8FDCllPaeGSGSaWosugKgpSyhgWQnkDx4A2CAFoL-ftP87EmDhSbT2LYFAZdJOeYLabdKflN7AHtk5eXKnxfoVkYDSTiCuTVO1bVyRP0Th7yp6vm3gSdtxPbpJGrZgqq3VI", "width": 6000}], "place_id": "ChIJ7_CMcQS6yhQR540reChO96g", "plus_code": {"compound_code": "2WMW+MH Fatih/\u0130stanbul, Turkey", "global_code": "8GHC2WMW+MH"}, "rating": 4.8, "reference": "ChIJ7_CMcQS6yhQR540reChO96g", "scope": "GOOGLE", "types": ["cafe", "point_of_interest", "store", "food", "establishment"], "user_ratings_total": 316, "vicinity": "Ayvansaray, Leblebiciler Sokak No:40/b"}, {"business_status": "OPERATIONAL", "geometry": {"location": {"lat": 41.0328997, "lng": 28.9466012}, "viewport": {"northeast": {"lat": 41.0342526802915, "lng": 28.9479397802915}, "southwest": {"lat": 41.0315547197085, "lng": 28.9452418197085}}}, "icon": "https://maps.gstatic.com/mapfiles/place_api/icons/v1/png_71/cafe-71.png", "icon_background_color": "#FF9E67", "icon_mask_base_uri": "https://maps.gstatic.com/mapfiles/place_api/icons/v2/cafe_pinlet", "name": "Lotus Cafe", "opening_hours": {"open_now": false}, "photos": [{"height": 1087, "html_attributions": ["<a href=\"https://maps.google.com/maps/contrib/108136240565072597185\">Lotus Cafe</a>"], "photo_reference": "AW30NDzjqP_2tx8kzwUYKEywA6titASPA8OUlbOFnPoeKEU1yabXIj_4eXuaQZKtR78LkyPeu7YeZNbzDprAxSmJd4uKi4phfe2mQMtHbold0Qan4apUNp1rqfbN0CW4yguWfow0sYFGHaD4WglT2DdBYbAPnTYyifSRpUJL-sDCibir0CXM", "width": 1080}], "place_id": "ChIJN9AehAS6yhQRaWl2pDAp_zg", "plus_code": {"compound_code": "2WMW+5J Fatih/\u0130stanbul, Turkey", "global_code": "8GHC2WMW+5J"}, "rating": 4.5, "reference": "ChIJN9AehAS6yhQRaWl2pDAp_zg", "scope": "GOOGLE", "types": ["cafe", "point_of_interest", "food", "establishment"], "user_ratings_total": 31, "vicinity": "H\u0131z\u0131r \u00c7avu\u015f mahallesi yar\u0131m balat sok no 6/A, Fatih/Balat"}, {"business_status": "OPERATIONAL", "geometry": {"location": {"lat": 41.0404412, "lng": 28.9424036}, "viewport": {"northeast": {"lat": 41.0417475302915, "lng": 28.9432177302915}, "southwest": {"lat": 41.0390495697085, "lng": 28.9405197697085}}}, "icon": "https://maps.gstatic.com/mapfiles/place_api/icons/v1/png_71/cafe-71.png", "icon_background_color": "#FF9E67", "icon_mask_base_uri": "https://maps.gstatic.com/mapfiles/place_api/icons/v2/cafe_pinlet", "name": "Cafe Tolga", "photos": [{"height": 2248, "html_attributions": ["<a href=\"https://maps.google.com/maps/contrib/103029938585168613748\">maher mhlhl</a>"], "photo_reference": "AW30NDx_SYnsdSX2Kw6ApfudHgwZwBkUtFBIUHgzQWVvAvTfUTaTWpG3QbrxLg1BNcFXRiAvr2pt5tQnyshGUKVXQ8pr1Y86ZGjb7zVA7TSuIPsvGDbl-bLm-kuoLOvaMmvBzU5TYNXopB52THHwH8H6fUmm0mmBn5wq7o_3J_KFfETmdlwf", "width": 4000}], "place_id": "ChIJGUp17Ae6yhQRHZQ3r6ALAnE", "plus_code": {"compound_code": "2WRR+5X Ey\u00fcpsultan/\u0130stanbul, Turkey", "global_code": "8GHC2WRR+5X"}, "price_level": 2, "rating": 4, "reference": "ChIJGUp17Ae6yhQRHZQ3r6ALAnE", "scope": "GOOGLE", "types": ["cafe", "point_of_interest", "food", "establishment"], "user_ratings_total": 628, "vicinity": "Defterdar, Ayvansaray Park \u0130\u00e7i Yolu"}, {"business_status": "OPERATIONAL", "geometry": {"location": {"lat": 41.0330924, "lng": 28.94772870000001}, "viewport": {"northeast": {"lat": 41.0343883302915, "lng": 28.9490129302915}, "southwest": {"lat": 41.0316903697085, "lng": 28.9463149697085}}}, "icon": "https://maps.gstatic.com/mapfiles/place_api/icons/v1/png_71/cafe-71.png", "icon_background_color": "#FF9E67", "icon_mask_base_uri": "https://maps.gstatic.com/mapfiles/place_api/icons/v2/cafe_pinlet", "name": "Karakoy kahvesi balat", "opening_hours": {"open_now": true}, "photos": [{"height": 607, "html_attributions": ["<a href=\"https://maps.google.com/maps/contrib/118192850381983407764\">Karakoy kahvesi balat</a>"], "photo_reference": "AW30NDy2zwK1aPidxI6wOFbAo0gKh8V2RPIcHMlGjgZTMYjKIiwsBsG7167cATD5Bu-VVCpYgORdvhmmz5OGqdefQ9Snd8hhcULkgiVwj2SyX8GUFGDl365ixrxCUUcivN-VSimg3cmjU6877Q7cZ_Ry7hJsn9P-X16DdDJxmTRQL2A7rci0", "width": 1080}], "place_id": "ChIJRVR-HwO6yhQRITL7sQgYRqg", "plus_code": {"compound_code": "2WMX+63 Fatih/\u0130stanbul, Turkey", "global_code": "8GHC2WMX+63"}, "price_level": 2, "rating": 4.1, "reference": "ChIJRVR-HwO6yhQRITL7sQgYRqg", "scope": "GOOGLE", "types": ["cafe", "point_of_interest", "food", "establishment"], "user_ratings_total": 1602, "vicinity": "Balat, M\u00fcrselpa\u015fa Caddesi"}, {"business_status": "OPERATIONAL", "geometry": {"location": {"lat": 41.0324975, "lng": 28.9477062}, "viewport": {"northeast": {"lat": 41.0338339802915, "lng": 28.9490880302915}, "southwest": {"lat": 41.0311360197085, "lng": 28.9463900697085}}}, "icon": "https://maps.gstatic.com/mapfiles/place_api/icons/v1/png_71/cafe-71.png", "icon_background_color": "#FF9E67", "icon_mask_base_uri": "https://maps.gstatic.com/mapfiles/place_api/icons/v2/cafe_pinlet", "name": "Rico Balat", "opening_hours": {"open_now": true}, "photos": [{"height": 960, "html_attributions": ["<a href=\"https://maps.google.com/maps/contrib/110829509743992908211\">Rico Balat</a>"], "photo_reference": "AW30NDye05pv-CcEwOnI4hZqWTLbruy1RlB-lKBKygIvUot40blFr6P86OsoYFYMwWN-9JqT4kvPvUQwGbAXFoR1vUIK8MEda-4doziET1Tbdrumg6EP3JDqsF19aZ5UmEPf1MT8Sw8YhAPAQcqdrW6BahX-AXw-Ck19dM_omHVcJQYsRfeE", "width": 960}], "place_id": "ChIJnVescAO6yhQR8GZuRTkhakQ", "plus_code": {"compound_code": "2WJX+X3 Fatih/\u0130stanbul, Turkey", "global_code": "8GHC2WJX+X3"}, "price_level": 2, "rating": 4.5, "reference": "ChIJnVescAO6yhQR8GZuRTkhakQ", "scope": "GOOGLE", "types": ["cafe", "point_of_interest", "food", "establishment"], "user_ratings_total": 169, "vicinity": "Balat, \u00c7i\u00e7ekli Bostan Sokak No:6/C"}, {"business_status": "CLOSED_TEMPORARILY", "geometry": {"location": {"lat": 41.0322387, "lng": 28.9478056}, "viewport": {"northeast": {"lat": 41.0335513802915, "lng": 28.9491339302915}, "southwest": {"lat": 41.0308534197085, "lng": 28.9464359697085}}}, "icon": "https://maps.gstatic.com/mapfiles/place_api/icons/v1/png_71/cafe-71.png", "icon_background_color": "#FF9E67", "icon_mask_base_uri": "https://maps.gstatic.com/mapfiles/place_api/icons/v2/cafe_pinlet", "name": "Filozof", "permanently_closed": true, "photos": [{"height": 2048, "html_attributions": ["<a href=\"https://maps.google.com/maps/contrib/109797539098320812042\">Chaynaya Sonya</a>"], "photo_reference": "AW30NDyTZ07URw3s1xHb48_jd9Q-d5Hh0GikpaFDf0BTHk22bQWK_o57EE-Vw83eOMjKQ1X2XCu_wQiTrAG9bCoHENR6AJ9eFNwqMC6bkceePZA6o4jcEEBBLGVWWTfd5GtFHI3xcmyNQa0IMsx3cjIlLte-24eVbfQVC4eUteEJbDWyq9L5", "width": 1152}], "place_id": "ChIJcwb0bwO6yhQROd7RSqv_0Wo", "plus_code": {"compound_code": "2WJX+V4 Fatih/\u0130stanbul, Turkey", "global_code": "8GHC2WJX+V4"}, "rating": 4.8, "reference": "ChIJcwb0bwO6yhQROd7RSqv_0Wo", "scope": "GOOGLE", "types": ["cafe", "point_of_interest", "food", "establishment"], "user_ratings_total": 10, "vicinity": "Balat, Vodina Caddesi No:132"}, {"business_status": "CLOSED_TEMPORARILY", "geometry": {"location": {"lat": 41.0320673, "lng": 28.9482691}, "viewport": {"northeast": {"lat": 41.0334176302915, "lng": 28.9496154302915}, "southwest": {"lat": 41.0307196697085, "lng": 28.94691746970851}}}, "icon": "https://maps.gstatic.com/mapfiles/place_api/icons/v1/png_71/cafe-71.png", "icon_background_color": "#FF9E67", "icon_mask_base_uri": "https://maps.gstatic.com/mapfiles/place_api/icons/v2/cafe_pinlet", "name": "Cafe BALAT\u0130STAN", "permanently_closed": true, "photos": [{"height": 575, "html_attributions": ["<a href=\"https://maps.google.com/maps/contrib/115478185460114007288\">Munira Saleh</a>"], "photo_reference": "AW30NDxXCmxWWqA1aFIQDDZR6DgvhY_O0N7bgTwxGClbtKgX1T4V1Lgu0jXqmK76AcGj_HQzRr87aveLZ6CrR59vp7EdXhN1p-694NwXlfv5s2t5vQc-mKOPl0VLjXH6-jL3ZH21gmuLLuxpGpe5Du9ISmQ6CCCQdv_k843Xl8FK3awOx8Jn", "width": 575}], "place_id": "ChIJccRSbAO6yhQRNvrph-3VGyw", "plus_code": {"compound_code": "2WJX+R8 Fatih/\u0130stanbul, Turkey", "global_code": "8GHC2WJX+R8"}, "rating": 4.1, "reference": "ChIJccRSbAO6yhQRNvrph-3VGyw", "scope": "GOOGLE", "types": ["cafe", "point_of_interest", "store", "food", "establishment"], "user_ratings_total": 20, "vicinity": "Balat, Vodina Caddesi No:116 D:A"}, {"business_status": "CLOSED_TEMPORARILY", "geometry": {"location": {"lat": 41.03546649999999, "lng": 28.9369116}, "viewport": {"northeast": {"lat": 41.03685718029149, "lng": 28.9383171302915}, "southwest": {"lat": 41.03415921970849, "lng": 28.9356191697085}}}, "icon": "https://maps.gstatic.com/mapfiles/place_api/icons/v1/png_71/cafe-71.png", "icon_background_color": "#FF9E67", "icon_mask_base_uri": "https://maps.gstatic.com/mapfiles/place_api/icons/v2/cafe_pinlet", "name": "AH\u015eAP CAFE", "permanently_closed": true, "place_id": "ChIJVVWRXQ66yhQRYJ9-cR5dod8", "plus_code": {"compound_code": "2WPP+5Q Ey\u00fcpsultan/\u0130stanbul, Turkey", "global_code": "8GHC2WPP+5Q"}, "rating": 4.5, "reference": "ChIJVVWRXQ66yhQRYJ9-cR5dod8", "scope": "GOOGLE", "types": ["cafe", "point_of_interest", "food", "establishment"], "user_ratings_total": 4, "vicinity": "Defterdar, Muhtar As\u0131m Nury\u00fcz Sokak No:4"}, {"business_status": "OPERATIONAL", "geometry": {"location": {"lat": 41.0320284, "lng": 28.93650269999999}, "viewport": {"northeast": {"lat": 41.0334993802915, "lng": 28.93795408029149}, "southwest": {"lat": 41.0308014197085, "lng": 28.9352561197085}}}, "icon": "https://maps.gstatic.com/mapfiles/place_api/icons/v1/png_71/cafe-71.png", "icon_background_color": "#FF9E67", "icon_mask_base_uri": "https://maps.gstatic.com/mapfiles/place_api/icons/v2/cafe_pinlet", "name": "Kale \u0130stanbul Cafe", "opening_hours": {"open_now": true}, "photos": [{"height": 3120, "html_attributions": ["<a href=\"https://maps.google.com/maps/contrib/116086162914083665721\">Re\u015fat K\u00f6lemeno\u011flu</a>"], "photo_reference": "AW30NDyQSbEVfSVJAtxwFMEAsqY55J3cEDjGUwR9JX7McwqviynabxZsD0cW2ZjthwNrloiIbpa-K_06uASelpTa5x-r07N22pM4LuXon3Lcu4jEY8nbY3h3iIRZ-j-VMj-hvDmFFI0VIUaJqQedEEw-wYpk2Lpa4k-hMO3M0Jxmap7LOcE2", "width": 4160}], "place_id": "ChIJ7xIqRIS7yhQRnd2B6TWGe18", "plus_code": {"compound_code": "2WJP+RJ Ey\u00fcpsultan/\u0130stanbul, Turkey", "global_code": "8GHC2WJP+RJ"}, "rating": 4, "reference": "ChIJ7xIqRIS7yhQRnd2B6TWGe18", "scope": "GOOGLE", "types": ["cafe", "restaurant", "point_of_interest", "food", "establishment"], "user_ratings_total": 55, "vicinity": "Defterdar, Savaklar Caddesi"}, {"business_status": "CLOSED_TEMPORARILY", "geometry": {"location": {"lat": 41.03182959999999, "lng": 28.9373517}, "viewport": {"northeast": {"lat": 41.03318498029149, "lng": 28.9386947302915}, "southwest": {"lat": 41.0304870197085, "lng": 28.9359967697085}}}, "icon": "https://maps.gstatic.com/mapfiles/place_api/icons/v1/png_71/cafe-71.png", "icon_background_color": "#FF9E67", "icon_mask_base_uri": "https://maps.gstatic.com/mapfiles/place_api/icons/v2/cafe_pinlet", "name": "\u0130stanyol Cafe", "permanently_closed": true, "place_id": "ChIJKSFpuxG6yhQRSCWojhAZ5zo", "plus_code": {"compound_code": "2WJP+PW Fatih/\u0130stanbul, Turkey", "global_code": "8GHC2WJP+PW"}, "reference": "ChIJKSFpuxG6yhQRSCWojhAZ5zo", "scope": "GOOGLE", "types": ["cafe", "point_of_interest", "food", "establishment"], "vicinity": "Dervi\u015fali, Hoca \u00c7ak\u0131r Caddesi No:12"}, {"business_status": "OPERATIONAL", "geometry": {"location": {"lat": 41.03116109999999, "lng": 28.93632599999999}, "viewport": {"northeast": {"lat": 41.03245513029149, "lng": 28.9376019802915}, "southwest": {"lat": 41.0297571697085, "lng": 28.9349040197085}}}, "icon": "https://maps.gstatic.com/mapfiles/place_api/icons/v1/png_71/cafe-71.png", "icon_background_color": "#FF9E67", "icon_mask_base_uri": "https://maps.gstatic.com/mapfiles/place_api/icons/v2/cafe_pinlet", "name": "Sur Cafe", "opening_hours": {"open_now": true}, "photos": [{"height": 4032, "html_attributions": ["<a href=\"https://maps.google.com/maps/contrib/107184461383727573524\">betul dogan</a>"], "photo_reference": "AW30NDwNeyEpKv159roBcEINB4YsP6tOZjRkOh5LdPGMrsrRIs0oMuVhVWPZe7dmecDy4zUGv_SQpDstn-a8g-vLgKxfEq6I6pE5dhXyRmSgnVzJQWAqoizU7hpVCg6RiAnhBA9JQ2qspHmgx3IVns46xKJjjIF6WmOhUM05mijBeaY8e4Ss", "width": 2268}], "place_id": "ChIJa08rdxG6yhQRcu9h56fznMA", "plus_code": {"compound_code": "2WJP+FG Ey\u00fcpsultan/\u0130stanbul, Turkey", "global_code": "8GHC2WJP+FG"}, "price_level": 2, "rating": 3.9, "reference": "ChIJa08rdxG6yhQRcu9h56fznMA", "scope": "GOOGLE", "types": ["cafe", "point_of_interest", "food", "establishment"], "user_ratings_total": 692, "vicinity": "Dervi\u015fali, Edirnekap\u0131 Kav\u015fa\u011f\u0131"}], "status": "OK"}