{"html_attributions": [], "next_page_token": "AW30NDyL3OwMzbPn6Luit2B5mwVE3ArK6YHIqMp0cUVo-6SZVebYFawAyZJT1BO6X82hyb3tybb4nS9U92zgQViCFjhsFDSZzTeI4lHqsuWqPfKej5N4iAC6SOSDX0IITHTPVcJGoAm2yxaSwF28cr_ENXqO_5iP9FDBXZDyeKkJx0Ns0Pol86KPDcc87WUqDK9nIw9VnF7GwBvgWmxfTWdFKVP1B1kUN-X_fUoeZS_ox3Ol2JKxkvd3uEYwoKLwbmgtU52JuZxkVxj0Yj-eOF1nlXsebrdtBnyzaDV4shnthbCUhcRJ2hrsZR7heVqhq5KptXwCpQTkGCwZrU8sgosZ9aslMIqvGq7FBg_SDl9FdXQAp6uEzq7fxigwDi-vnzIJ4Qpwr3B0gp0rj5v65Nu2mrJVJ6Ma1ZP1A4VbHKkXp0GOFUdG60fY", "results": [{"business_status": "OPERATIONAL", "geometry": {"location": {"lat": 41.013154, "lng": 28.97773}, "viewport": {"northeast": {"lat": 41.0144618302915, "lng": 28.9790150802915}, "southwest": {"lat": 41.0117638697085, "lng": 28.9763171197085}}}, "icon": "https://maps.gstatic.com/mapfiles/place_api/icons/v1/png_71/lodging-71.png", "icon_background_color": "#909CE1", "icon_mask_base_uri": "https://maps.gstatic.com/mapfiles/place_api/icons/v2/hotel_pinlet", "name": "Orient Express & Spa by Orka Hotels", "opening_hours": {"open_now": true}, "photos": [{"height": 3449, "html_attributions": ["<a href=\"https://maps.google.com/maps/contrib/110921849677727866437\">Orient Express &amp; Spa by Orka Hotels</a>"], "photo_reference": "AW30NDxPyxtlx0hhwVPmsXY159qkELhSxM4buMwclnrzjWcdSgbSDMmltK23tvtBs3pz20zPzlxxqa0AhGzfLYAFdK4vX87LYm7AcQkCNwF9DtJ7IL_a-ZR0YahqgRwl37-NJGdOpogF-TI49Uuje1hOKyh07japOPorLrv0VHOUYmGd0s4i", "width": 2100}], "place_id": "ChIJbUDBCsC5yhQRrbehwLl8acs", "plus_code": {"compound_code": "2X7H+73 Fatih/\u0130stanbul, Turkey", "global_code": "8GHC2X7H+73"}, "rating": 4.2, "reference": "ChIJbUDBCsC5yhQRrbehwLl8acs", "scope": "GOOGLE", "types": ["bar", "cafe", "spa", "lodging", "restaurant", "food", "point_of_interest", "establishment"], "user_ratings_total": 707, "vicinity": "Hoca Pa\u015fa, Old City Sirkeci, H\u00fcdavendigar Caddesi No:24"}, {"business_status": "OPERATIONAL", "geometry": {"location": {"lat": 41.0081399, "lng": 28.9760521}, "viewport": {"northeast": {"lat": 41.0094379302915, "lng": 28.9773934802915}, "southwest": {"lat": 41.00673996970851, "lng": 28.9746955197085}}}, "icon": "https://maps.gstatic.com/mapfiles/place_api/icons/v1/png_71/restaurant-71.png", "icon_background_color": "#FF9E67", "icon_mask_base_uri": "https://maps.gstatic.com/mapfiles/place_api/icons/v2/restaurant_pinlet", "name": "Mado", "opening_hours": {"open_now": true}, "photos": [{"height": 3000, "html_attributions": ["<a href=\"https://maps.google.com/maps/contrib/118230918393891210030\">\u0410\u043b\u0435\u043a\u0441\u0430\u043d\u0434\u0440\u0430</a>"], "photo_reference": "AW30NDz3PwMDF0Y1M4SWBv_hA-gI7qDXOZH5Z7Ipsxa-D0BSk4l730BboNZX1mPFlftZSOmyWQnHYaTv6PtVinE6QdueQVZXZvpaNYwcriQp0Qd-CS1Zbe6fBJ9YhhyUH0QbGMwfwPJfx7Ji5i1AumHakAO8becmH58Cmnw8A6NSQnzXTa8t", "width": 4000}], "place_id": "ChIJC_89GZa5yhQRAenIvYOc_a0", "plus_code": {"compound_code": "2X5G+7C Fatih/\u0130stanbul, Turkey", "global_code": "8GHC2X5G+7C"}, "price_level": 3, "rating": 3.8, "reference": "ChIJC_89GZa5yhQRAenIvYOc_a0", "scope": "GOOGLE", "types": ["cafe", "bakery", "store", "restaurant", "food", "point_of_interest", "establishment"], "user_ratings_total": 1822, "vicinity": "Alemdar, Divan Yolu Caddesi No:24"}, {"business_status": "OPERATIONAL", "geometry": {"location": {"lat": 41.0084766, "lng": 28.9776073}, "viewport": {"northeast": {"lat": 41.0098363302915, "lng": 28.9790844302915}, "southwest": {"lat": 41.0071383697085, "lng": 28.9763864697085}}}, "icon": "https://maps.gstatic.com/mapfiles/place_api/icons/v1/png_71/cafe-71.png", "icon_background_color": "#FF9E67", "icon_mask_base_uri": "https://maps.gstatic.com/mapfiles/place_api/icons/v2/cafe_pinlet", "name": "Omar Cafe & Restaurant", "opening_hours": {"open_now": true}, "photos": [{"height": 1966, "html_attributions": ["<a href=\"https://maps.google.com/maps/contrib/117735397904241721778\">GHA</a>"], "photo_reference": "AW30NDy29kdFkZCIgfnWfF9ewe9EUrajL3T6vIeybqt5YGSg_LPBPh88_26Q6T63NUGfdIUdPWBM03IpvQ9L7ubxjhqv5E-0LPIotw1C_VvpO-naqzJaq7hgBABrScYp3M0_qnupmj_JsjgG2DY8e8SA42hX-4Zoji4Hd5YbvloVyLnRNv_F", "width": 1680}], "place_id": "ChIJ07B-4L25yhQRBaEzMbEjsw8", "plus_code": {"compound_code": "2X5H+92 Fatih/\u0130stanbul, Turkey", "global_code": "8GHC2X5H+92"}, "rating": 4.3, "reference": "ChIJ07B-4L25yhQRBaEzMbEjsw8", "scope": "GOOGLE", "types": ["cafe", "restaurant", "food", "point_of_interest", "establishment"], "user_ratings_total": 168, "vicinity": "Alemdar, \u015eeftali Sokak No:8"}, {"business_status": "CLOSED_TEMPORARILY", "geometry": {"location": {"lat": 41.0052589, "lng": 28.9754118}, "viewport": {"northeast": {"lat": 41.0066122802915, "lng": 28.97651913029149}, "southwest": {"lat": 41.0039143197085, "lng": 28.97382116970849}}}, "icon": "https://maps.gstatic.com/mapfiles/place_api/icons/v1/png_71/cafe-71.png", "icon_background_color": "#FF9E67", "icon_mask_base_uri": "https://maps.gstatic.com/mapfiles/place_api/icons/v2/cafe_pinlet", "name": "Grand Vezir Cafe", "permanently_closed": true, "photos": [{"height": 2976, "html_attributions": ["<a href=\"https://maps.google.com/maps/contrib/116377171943806717039\">Umar Gilani</a>"], "photo_reference": "AW30NDwynIK1QvvbRYMfu-ypYeBHTnZtsLwBpja_EPJ32UF4YspTELnF63ihcwnyLlEro3S0srceNVGZY7qkB2PvkDsNjDAexw3O694_ob-YBjv4qtIL6wnSxM5MhWRJZgLK4L-gDoL9bjNq9LOMqZ6G6gLmR5XRZnWzAvSqZv6cBMmMdtt8", "width": 3968}], "place_id": "ChIJhTM_75e5yhQRXGz_mQfNz18", "plus_code": {"compound_code": "2X4G+45 Fatih/\u0130stanbul, Turkey", "global_code": "8GHC2X4G+45"}, "rating": 3.6, "reference": "ChIJhTM_75e5yhQRXGz_mQfNz18", "scope": "GOOGLE", "types": ["cafe", "restaurant", "food", "point_of_interest", "establishment"], "user_ratings_total": 43, "vicinity": "Sultan Ahmet, At Meydan\u0131 Caddesi 27/1"}, {"business_status": "CLOSED_TEMPORARILY", "geometry": {"location": {"lat": 41.0081678, "lng": 28.9755379}, "viewport": {"northeast": {"lat": 41.00951678029149, "lng": 28.9768868802915}, "southwest": {"lat": 41.00681881970849, "lng": 28.9741889197085}}}, "icon": "https://maps.gstatic.com/mapfiles/place_api/icons/v1/png_71/restaurant-71.png", "icon_background_color": "#FF9E67", "icon_mask_base_uri": "https://maps.gstatic.com/mapfiles/place_api/icons/v2/restaurant_pinlet", "name": "Petrol Palace Restaurant", "permanently_closed": true, "photos": [{"height": 1920, "html_attributions": ["<a href=\"https://maps.google.com/maps/contrib/111400895931951310437\">Pavel Semashko</a>"], "photo_reference": "AW30NDwdezAjJGCpfjJERhB6I7PElo5vunIq7Qk6tyJNZMpwXeEW8lpb8XnuxJ93KSRc1Byf3MQA7sFCQUeFhjsxJ34Xr8ErPsZZ299AarhMzfZ1ia956x5vJHPAQxVpGFWaY3Q3ol0e1V0LhU8rQfysKdOMMHIsJKtPfyXMrozfez9od406", "width": 1080}], "place_id": "ChIJ0Z8Hif25yhQRaaOkMiqZPjI", "plus_code": {"compound_code": "2X5G+76 Fatih/\u0130stanbul, Turkey", "global_code": "8GHC2X5G+76"}, "rating": 3, "reference": "ChIJ0Z8Hif25yhQRaaOkMiqZPjI", "scope": "GOOGLE", "types": ["restaurant", "cafe", "food", "point_of_interest", "establishment"], "user_ratings_total": 2, "vicinity": "Turkey"}, {"business_status": "OPERATIONAL", "geometry": {"location": {"lat": 41.0093588, "lng": 28.9767798}, "viewport": {"northeast": {"lat": 41.0107401302915, "lng": 28.9781815802915}, "southwest": {"lat": 41.0080421697085, "lng": 28.9754836197085}}}, "icon": "https://maps.gstatic.com/mapfiles/place_api/icons/v1/png_71/cafe-71.png", "icon_background_color": "#FF9E67", "icon_mask_base_uri": "https://maps.gstatic.com/mapfiles/place_api/icons/v2/cafe_pinlet", "name": "Maya's Corner Cafe", "photos": [{"height": 1024, "html_attributions": ["<a href=\"https://maps.google.com/maps/contrib/100726985610563849024\">Maya&#39;s Corner Cafe</a>"], "photo_reference": "AW30NDwS7cS0M2wwEENi_HNWzatyXvn_1-NJfEeY_4cj8WHfHzgcixLqG9q1C8HwpAHHoXdkdFEHL1KeAgC2CAra5WYoVjV6dK9t_jd9I9oPehuJKbPRKBijYh0_LGldKyampDiwNPgVZUTrF6tkN86eyi7ZR5-F6aHcF26Ffk4DdZtbMutw", "width": 768}], "place_id": "ChIJ_zPXGr65yhQRkJAL0-6DY5k", "plus_code": {"compound_code": "2X5G+PP Fatih/\u0130stanbul, Turkey", "global_code": "8GHC2X5G+PP"}, "price_level": 1, "rating": 4.6, "reference": "ChIJ_zPXGr65yhQRkJAL0-6DY5k", "scope": "GOOGLE", "types": ["cafe", "store", "restaurant", "food", "point_of_interest", "establishment"], "user_ratings_total": 114, "vicinity": "Alemdar, Yerebatan Caddesi No:25"}, {"business_status": "OPERATIONAL", "geometry": {"location": {"lat": 41.00320490000001, "lng": 28.9743107}, "viewport": {"northeast": {"lat": 41.0045202302915, "lng": 28.9756580302915}, "southwest": {"lat": 41.00182226970851, "lng": 28.9729600697085}}}, "icon": "https://maps.gstatic.com/mapfiles/place_api/icons/v1/png_71/cafe-71.png", "icon_background_color": "#FF9E67", "icon_mask_base_uri": "https://maps.gstatic.com/mapfiles/place_api/icons/v2/cafe_pinlet", "name": "Nostra Casa Cafe & Restaurant", "opening_hours": {"open_now": false}, "photos": [{"height": 4000, "html_attributions": ["<a href=\"https://maps.google.com/maps/contrib/111535389153149039110\">Giorgio Sanseverino</a>"], "photo_reference": "AW30NDyd5WKsIuJ6MBpzML0IPX9yJL0zFYE2P4ROXyYtJG_1FU3Hu0vhM4KHBaw5yaZLyWSp8eR6X-QNViW-jRQSl_uPFteJEuHVYtqVczcgeabqUwMasfV52ZKKcQrPYX2KGrD6XujSJ2jWEuzoGRJ_LTxBOvyvCudreb_Lr-IG5Fiw2Yt0", "width": 6000}], "place_id": "ChIJkzSyRpi5yhQRW8SkLgYY-rM", "plus_code": {"compound_code": "2X3F+7P Fatih/\u0130stanbul, Turkey", "global_code": "8GHC2X3F+7P"}, "rating": 4.3, "reference": "ChIJkzSyRpi5yhQRW8SkLgYY-rM", "scope": "GOOGLE", "types": ["cafe", "restaurant", "food", "point_of_interest", "establishment"], "user_ratings_total": 141, "vicinity": "K\u00fc\u00e7\u00fck Ayasofya Mahallesi, Mustafa Pa\u015fa Sokak No:42"}, {"business_status": "OPERATIONAL", "geometry": {"location": {"lat": 41.00232189999999, "lng": 28.97820159999999}, "viewport": {"northeast": {"lat": 41.0035509302915, "lng": 28.9795539802915}, "southwest": {"lat": 41.0008529697085, "lng": 28.9768560197085}}}, "icon": "https://maps.gstatic.com/mapfiles/place_api/icons/v1/png_71/cafe-71.png", "icon_background_color": "#FF9E67", "icon_mask_base_uri": "https://maps.gstatic.com/mapfiles/place_api/icons/v2/cafe_pinlet", "name": "Semaver Cafe Hookah", "opening_hours": {"open_now": true}, "photos": [{"height": 4032, "html_attributions": ["<a href=\"https://maps.google.com/maps/contrib/106972076352797341251\">Semaver Cafe Nargile</a>"], "photo_reference": "AW30NDyMnvBKJBRkTpfuRlQSIfunwz3nGY72sGQlHQZDHsBCyaMhcxBDibtzUxa1z2Qxz5c-54guto_tlJzkmguF3bf7JujirspwXHCBQXhDsFqCeB4Cn_JzgCRlurzz3u8bpF-_GUeHbERJqgF6NSiuebikwla_EF8OBeU7mJoADxWXkEPx", "width": 3024}], "place_id": "ChIJtVWO7aK5yhQR4OAmtDsstXc", "plus_code": {"compound_code": "2X2H+W7 Fatih/\u0130stanbul, Turkey", "global_code": "8GHC2X2H+W7"}, "price_level": 1, "rating": 4.4, "reference": "ChIJtVWO7aK5yhQR4OAmtDsstXc", "scope": "GOOGLE", "types": ["cafe", "food", "point_of_interest", "establishment"], "user_ratings_total": 360, "vicinity": "Sultan Ahmet, Kennedy Caddesi No:26"}, {"business_status": "OPERATIONAL", "geometry": {"location": {"lat": 41.00963, "lng": 28.979444}, "viewport": {"northeast": {"lat": 41.01097888029149, "lng": 28.9807931802915}, "southwest": {"lat": 41.00828091970849, "lng": 28.9780952197085}}}, "icon": "https://maps.gstatic.com/mapfiles/place_api/icons/v1/png_71/cafe-71.png", "icon_background_color": "#FF9E67", "icon_mask_base_uri": "https://maps.gstatic.com/mapfiles/place_api/icons/v2/cafe_pinlet", "name": "Cafe Turing", "opening_hours": {"open_now": true}, "photos": [{"height": 1080, "html_attributions": ["<a href=\"https://maps.google.com/maps/contrib/108854334772985862780\">Azeema Faizunnisa</a>"], "photo_reference": "AW30NDz3ShD3DN1_mCS246_vJoza1OFPC_Jch6ppk4cBXXcPApDB24NCzuZlyOR8gvMj-5Nz9pSsJ9CDzhuectbH-CSsFvZsBV1uopi04zftH982niPcmdrOLvhdU0lnkiwvBokuxvLkgXfQXQX4OqhjZBx0Yt27ETSm71nBDNP7RIxNIALZ", "width": 1920}], "place_id": "ChIJv6aO-r65yhQR4iltIYgmZfM", "plus_code": {"compound_code": "2X5H+VQ Fatih/\u0130stanbul, Turkey", "global_code": "8GHC2X5H+VQ"}, "rating": 4.9, "reference": "ChIJv6aO-r65yhQR4iltIYgmZfM", "scope": "GOOGLE", "types": ["cafe", "food", "point_of_interest", "establishment"], "user_ratings_total": 14, "vicinity": "Cankurtaran, Caferiye Sokak No:2"}, {"business_status": "OPERATIONAL", "geometry": {"location": {"lat": 41.0080549, "lng": 28.97662870000001}, "viewport": {"northeast": {"lat": 41.0093663302915, "lng": 28.97796703029151}, "southwest": {"lat": 41.0066683697085, "lng": 28.97526906970851}}}, "icon": "https://maps.gstatic.com/mapfiles/place_api/icons/v1/png_71/restaurant-71.png", "icon_background_color": "#FF9E67", "icon_mask_base_uri": "https://maps.gstatic.com/mapfiles/place_api/icons/v2/restaurant_pinlet", "name": "Haf\u0131z Mustafa", "opening_hours": {"open_now": true}, "photos": [{"height": 9000, "html_attributions": ["<a href=\"https://maps.google.com/maps/contrib/106621184986402764066\">Erkan Saka</a>"], "photo_reference": "AW30NDzXRqdT_zpYP8UfII8CyXXjcI_KExq6Hda3la8iAuAeXkJ584MJ9H44VDBucRjy5j8CCEZC7x3sExmGCoPmhCpAO5-ycSmcMYxmLtBqhu1Fcl6mIc5RWnJROHlVlUiVTmHl0UkxYvP7a-znsGFkWMk7xICCFm75AatYc1oE8R-0hQgo", "width": 12000}], "place_id": "ChIJwUXy8b25yhQRwnPmaC7PlSU", "plus_code": {"compound_code": "2X5G+6M Fatih/\u0130stanbul, Turkey", "global_code": "8GHC2X5G+6M"}, "price_level": 2, "rating": 4.6, "reference": "ChIJwUXy8b25yhQRwnPmaC7PlSU", "scope": "GOOGLE", "types": ["cafe", "bakery", "store", "restaurant", "food", "point_of_interest", "establishment"], "user_ratings_total": 5840, "vicinity": "Binbirdirek, Divan Yolu Caddesi No:14"}, {"business_status": "OPERATIONAL", "geometry": {"location": {"lat": 41.0063288, "lng": 28.9800008}, "viewport": {"northeast": {"lat": 41.00766653029149, "lng": 28.9813357802915}, "southwest": {"lat": 41.0049685697085, "lng": 28.9786378197085}}}, "icon": "https://maps.gstatic.com/mapfiles/place_api/icons/v1/png_71/bar-71.png", "icon_background_color": "#FF9E67", "icon_mask_base_uri": "https://maps.gstatic.com/mapfiles/place_api/icons/v2/bar_pinlet", "name": "The Lounge", "opening_hours": {"open_now": true}, "photos": [{"height": 720, "html_attributions": ["<a href=\"https://maps.google.com/maps/contrib/111997794214383816114\">The Lounge</a>"], "photo_reference": "AW30NDzG5nN6IralZBzw2Co-oqMC3beLCh06-hk38OO1cBy7YWLVk1uD3fqmySjpa4_WG3c8AYOLXAb07OdZ0EXbGxoXwdrW6ZiqR7OZgIYHjCBsx8i0le_oKpg7JCKnkYdyQDJTljqk-rW1LVAdDDp48G6LozSwNkC-NLXAo5cC87w0UNMj", "width": 1280}], "place_id": "ChIJ7TpWRLy5yhQRtT1fydOXAis", "plus_code": {"compound_code": "2X4J+G2 Fatih/\u0130stanbul, Turkey", "global_code": "8GHC2X4J+G2"}, "rating": 5, "reference": "ChIJ7TpWRLy5yhQRtT1fydOXAis", "scope": "GOOGLE", "types": ["night_club", "bar", "cafe", "food", "point_of_interest", "establishment"], "user_ratings_total": 3, "vicinity": "Cankurtaran, Tevkifhane Sokak No. 1"}, {"business_status": "OPERATIONAL", "geometry": {"location": {"lat": 41.003912, "lng": 28.97697}, "viewport": {"northeast": {"lat": 41.0053521302915, "lng": 28.9783763302915}, "southwest": {"lat": 41.0026541697085, "lng": 28.9756783697085}}}, "icon": "https://maps.gstatic.com/mapfiles/place_api/icons/v1/png_71/cafe-71.png", "icon_background_color": "#FF9E67", "icon_mask_base_uri": "https://maps.gstatic.com/mapfiles/place_api/icons/v2/cafe_pinlet", "name": "Sultanahmet, Istanbul Bookstore Branch", "opening_hours": {"open_now": true}, "photos": [{"height": 2160, "html_attributions": ["<a href=\"https://maps.google.com/maps/contrib/117579535314960083006\">Dilek US</a>"], "photo_reference": "AW30NDztNrypl5H0HNsB4gCjqGuIe5xMxYo-53YgeoWgtcSeNQJ7iJHFl7wcb1jnbiNlC_Ei-fRYfgvRBob9Gl2waoyHPNMBYYKdyiwCwvLq_pQ0XVt-RywRJ6Sq17WPztwDHWrjjTFP7N2TPQhR_2Xb7ThqwfeM-NQiYRBE_AuzpPXeE2aB", "width": 3840}], "place_id": "ChIJOWjSTL25yhQRJJBop7PwuHI", "plus_code": {"compound_code": "2X3G+HQ Fatih/\u0130stanbul, Turkey", "global_code": "8GHC2X3G+HQ"}, "rating": 4.5, "reference": "ChIJOWjSTL25yhQRJJBop7PwuHI", "scope": "GOOGLE", "types": ["cafe", "book_store", "store", "food", "point_of_interest", "establishment"], "user_ratings_total": 46, "vicinity": "Sultan Ahmet, Torun Sokak No:23"}, {"business_status": "CLOSED_TEMPORARILY", "geometry": {"location": {"lat": 41.0123968, "lng": 28.97870009999999}, "viewport": {"northeast": {"lat": 41.0137712302915, "lng": 28.97995853029149}, "southwest": {"lat": 41.0110732697085, "lng": 28.97726056970849}}}, "icon": "https://maps.gstatic.com/mapfiles/place_api/icons/v1/png_71/cafe-71.png", "icon_background_color": "#FF9E67", "icon_mask_base_uri": "https://maps.gstatic.com/mapfiles/place_api/icons/v2/cafe_pinlet", "name": "Ala Turca Art Cafe", "permanently_closed": true, "photos": [{"height": 2645, "html_attributions": ["<a href=\"https://maps.google.com/maps/contrib/105180558797056999414\">\u05db\u05d5\u05db\u05d1\u05d4 \u05d6\u05dc\u05d3\u05de\u05df \u05d0\u05dc\u05e7\u05d1\u05e5</a>"], "photo_reference": "AW30NDzyPVhrp14kyDTwPFFyXq4dWfzcGohZsDmos7MIqAlA4o0cvANTYobrhlBv3j8vOL8qok-e1z3OSyT47TtQji7MAPiRP0W4o74IG2Y3aWPKUcWmlAEvEEw9v4RI4n3MzcFjdvvpBPVy5eOubJPBugm9lihy2oPdWj7AKjWqqJX71H3U", "width": 6048}], "place_id": "ChIJ0779g7-5yhQR9yslM_d8o6A", "plus_code": {"compound_code": "2X6H+XF Fatih/\u0130stanbul, Turkey", "global_code": "8GHC2X6H+XF"}, "rating": 4.2, "reference": "ChIJ0779g7-5yhQR9yslM_d8o6A", "scope": "GOOGLE", "types": ["cafe", "store", "food", "point_of_interest", "establishment"], "user_ratings_total": 9, "vicinity": "Cankurtaran, Taya Hatun Sokak No:2"}, {"business_status": "OPERATIONAL", "geometry": {"location": {"lat": 41.0126242, "lng": 28.9783824}, "viewport": {"northeast": {"lat": 41.01393813029149, "lng": 28.9796793302915}, "southwest": {"lat": 41.01124016970849, "lng": 28.9769813697085}}}, "icon": "https://maps.gstatic.com/mapfiles/place_api/icons/v1/png_71/cafe-71.png", "icon_background_color": "#FF9E67", "icon_mask_base_uri": "https://maps.gstatic.com/mapfiles/place_api/icons/v2/cafe_pinlet", "name": "\u202aOsmanlizadeler\u202c", "opening_hours": {"open_now": true}, "photos": [{"height": 1846, "html_attributions": ["<a href=\"https://maps.google.com/maps/contrib/104435811679032605050\">Kakha Khmelidze</a>"], "photo_reference": "AW30NDyWFvVrT5JEW4B-kBvQMxDfBNjFlOgh5FvIVzlPKEtjBUs-XI6yB3XDtjnxSD2B8C9hxXH2AnZof_qLBU5kUc_9fkqYML57TXofLnE4R5k1FcVm89uaZcfRF3l5AQ6HyWxNBIbM4knomg4YGoDKuWfNxmrg_vJhWmB7vVOL8Fr0lQSJ", "width": 4000}], "place_id": "ChIJP3gOhr-5yhQR5bDa6bcmY0A", "plus_code": {"compound_code": "2X7H+29 Fatih/\u0130stanbul, Turkey", "global_code": "8GHC2X7H+29"}, "price_level": 2, "rating": 3.8, "reference": "ChIJP3gOhr-5yhQR5bDa6bcmY0A", "scope": "GOOGLE", "types": ["cafe", "food", "point_of_interest", "establishment"], "user_ratings_total": 896, "vicinity": "Hoca Pa\u015fa, H\u00fcdavendigar Caddesi 2/A"}, {"business_status": "OPERATIONAL", "geometry": {"location": {"lat": 41.0129705, "lng": 28.9770832}, "viewport": {"northeast": {"lat": 41.01431633029149, "lng": 28.9784288802915}, "southwest": {"lat": 41.01161836970849, "lng": 28.9757309197085}}}, "icon": "https://maps.gstatic.com/mapfiles/place_api/icons/v1/png_71/restaurant-71.png", "icon_background_color": "#FF9E67", "icon_mask_base_uri": "https://maps.gstatic.com/mapfiles/place_api/icons/v2/restaurant_pinlet", "name": "Constantine's Ark Restaurant & Cafe", "opening_hours": {"open_now": true}, "photos": [{"height": 699, "html_attributions": ["<a href=\"https://maps.google.com/maps/contrib/111092433995394340539\">Constantine&#39;s Ark Restaurant &amp; Cafe</a>"], "photo_reference": "AW30NDw9DDZRQsk935WPpaV7ChwHqB8XvkvH6ePWTt3JILal_cBIzkAqtubFnWOxuEXZ1LqvDVGvwaiGpw4p2MWy7gsxqWrtbAZvvRBwQBYxmIVwoRUD3AvYYxcgZRueil3p8Ep9czl4ViRuXUCNVrUeELGFxF7twIJsN_uR1Kgke9r7jHwS", "width": 1242}], "place_id": "ChIJnWxS8r-5yhQRw-ZA1EKxl5s", "plus_code": {"compound_code": "2X7G+5R Fatih/\u0130stanbul, Turkey", "global_code": "8GHC2X7G+5R"}, "price_level": 2, "rating": 4.6, "reference": "ChIJnWxS8r-5yhQRw-ZA1EKxl5s", "scope": "GOOGLE", "types": ["restaurant", "cafe", "food", "point_of_interest", "establishment"], "user_ratings_total": 600, "vicinity": "Hoca Pa\u015fa, \u0130bni Kemal Caddesi No:13"}, {"business_status": "CLOSED_TEMPORARILY", "geometry": {"location": {"lat": 41.0133772, "lng": 28.9774685}, "viewport": {"northeast": {"lat": 41.0146969802915, "lng": 28.9787600802915}, "southwest": {"lat": 41.0119990197085, "lng": 28.9760621197085}}}, "icon": "https://maps.gstatic.com/mapfiles/place_api/icons/v1/png_71/cafe-71.png", "icon_background_color": "#FF9E67", "icon_mask_base_uri": "https://maps.gstatic.com/mapfiles/place_api/icons/v2/cafe_pinlet", "name": "MUHAMMAD SAID Baklavaci", "permanently_closed": true, "photos": [{"height": 3000, "html_attributions": ["<a href=\"https://maps.google.com/maps/contrib/100856371269322283233\">Apollinaria Tumina</a>"], "photo_reference": "AW30NDw5VpNMgDTyt1KaPPY_Gxz7UbkJrJfQeEKIoX9X8k4n1q4BV0PeyNRI6UJQPkkjH67oO9wrjR6YX8MibTqFEIhkI1j5Jz4I_KNCrgs8fWViTOyIF9_63l1aRzvV-lstSakmibfxNEWJXUz8uqAKPwjw9Qa4jkiOQUOvBpEk1qpAZnxf", "width": 4000}], "place_id": "ChIJ7W71GsC5yhQRhGoDs6JEB9Q", "plus_code": {"compound_code": "2X7G+9X Fatih/\u0130stanbul, Turkey", "global_code": "8GHC2X7G+9X"}, "rating": 5, "reference": "ChIJ7W71GsC5yhQRhGoDs6JEB9Q", "scope": "GOOGLE", "types": ["cafe", "food", "point_of_interest", "establishment"], "user_ratings_total": 4, "vicinity": "Hoca Pa\u015fa, H\u00fcdavendigar Caddesi 40/A"}, {"business_status": "CLOSED_TEMPORARILY", "geometry": {"location": {"lat": 41.0117143, "lng": 28.9712946}, "viewport": {"northeast": {"lat": 41.01304528029149, "lng": 28.9726438802915}, "southwest": {"lat": 41.01034731970849, "lng": 28.9699459197085}}}, "icon": "https://maps.gstatic.com/mapfiles/place_api/icons/v1/png_71/cafe-71.png", "icon_background_color": "#FF9E67", "icon_mask_base_uri": "https://maps.gstatic.com/mapfiles/place_api/icons/v2/cafe_pinlet", "name": "34-18 Tuzcafe", "permanently_closed": true, "photos": [{"height": 4128, "html_attributions": ["<a href=\"https://maps.google.com/maps/contrib/111745892587895645420\">Bilal Karabacak</a>"], "photo_reference": "AW30NDzMvgFgoxrbnk74dCQCX8zm_FX5yl8GXMYrV46xC1ZuAA2iUDKUD9HLCySmrVK9Mr9e4kthakOWliyWLAFuN0zdz9ErHc5reH_c7AijRYc0t5nVmIHv3p6rvDtB1NW4FNa2aFmL8o4aiBthVt7D5lwZMU9NnI5RnSmRbZsF1hVeCtpR", "width": 3096}], "place_id": "ChIJf6WRbpS5yhQROED0CyahATg", "plus_code": {"compound_code": "2X6C+MG Fatih/\u0130stanbul, Turkey", "global_code": "8GHC2X6C+MG"}, "rating": 5, "reference": "ChIJf6WRbpS5yhQROED0CyahATg", "scope": "GOOGLE", "types": ["cafe", "food", "point_of_interest", "establishment"], "user_ratings_total": 1, "vicinity": "Sururi, Bezciler Sokak No:12"}, {"business_status": "CLOSED_TEMPORARILY", "geometry": {"location": {"lat": 41.0135738, "lng": 28.9787417}, "viewport": {"northeast": {"lat": 41.0149068802915, "lng": 28.9801441302915}, "southwest": {"lat": 41.0122089197085, "lng": 28.9774461697085}}}, "icon": "https://maps.gstatic.com/mapfiles/place_api/icons/v1/png_71/restaurant-71.png", "icon_background_color": "#FF9E67", "icon_mask_base_uri": "https://maps.gstatic.com/mapfiles/place_api/icons/v2/restaurant_pinlet", "name": "G\u00fclhane House", "permanently_closed": true, "photos": [{"height": 3024, "html_attributions": ["<a href=\"https://maps.google.com/maps/contrib/112886481436028286582\">cassandra 21grammi</a>"], "photo_reference": "AW30NDyqsMp-sw2UNRH5GySMvcBOrhuGy_MEuk8S-hq2JkROeJAR8447Pqc21DTTc5jBBko1S3r_5rOixHS5RzAJKN5NzgEccrsx2CuuPZOpFu5zKsQqvBjkiQgXjh4Q8n7KHdh459Zq2piL6RpHf8slY3Ziu2groxHQmYXdMB5gTMFqTuQV", "width": 4032}], "place_id": "ChIJ6aF89sC5yhQRpEgpgbtvDko", "plus_code": {"compound_code": "2X7H+CF Fatih/\u0130stanbul, Turkey", "global_code": "8GHC2X7H+CF"}, "rating": 4.7, "reference": "ChIJ6aF89sC5yhQRpEgpgbtvDko", "scope": "GOOGLE", "types": ["restaurant", "cafe", "food", "point_of_interest", "establishment"], "user_ratings_total": 15, "vicinity": "Cankurtaran, N\u00f6bethane Caddesi & Taya Hatun Sok., Sirkeci No:30, Fatih"}, {"business_status": "OPERATIONAL", "geometry": {"location": {"lat": 41.0145355, "lng": 28.9757083}, "viewport": {"northeast": {"lat": 41.0159286302915, "lng": 28.9771328302915}, "southwest": {"lat": 41.0132306697085, "lng": 28.9744348697085}}}, "icon": "https://maps.gstatic.com/mapfiles/place_api/icons/v1/png_71/restaurant-71.png", "icon_background_color": "#FF9E67", "icon_mask_base_uri": "https://maps.gstatic.com/mapfiles/place_api/icons/v2/restaurant_pinlet", "name": "Ali Usta Burma Kadayif & Baklava", "opening_hours": {"open_now": true}, "photos": [{"height": 4032, "html_attributions": ["<a href=\"https://maps.google.com/maps/contrib/109762720935943166031\">D\u0130OR MEDYA</a>"], "photo_reference": "AW30NDxWZ1FXE4q5yRWN0dx74EipTpBT0Ya89Qzz9dbhAMIe8bmrSQ8dw-VVWnekrnOLx3kJh7GPNGZeDm7OqwATOqHaBjldU0iAFeAU6kpbh7WOVpGtxWnuh-U15F1B9jn84KGCpZFLDPuADFN31tb3NEEbx5isn4E7IYiuCe2pSY74G_aQ", "width": 3024}], "place_id": "ChIJr0i-o-q5yhQRTSNH0BDJHDg", "plus_code": {"compound_code": "2X7G+R7 Fatih/\u0130stanbul, Turkey", "global_code": "8GHC2X7G+R7"}, "rating": 3.8, "reference": "ChIJr0i-o-q5yhQRTSNH0BDJHDg", "scope": "GOOGLE", "types": ["cafe", "bakery", "store", "restaurant", "food", "point_of_interest", "establishment"], "user_ratings_total": 101, "vicinity": "Hoca Pa\u015fa, Muradiye Caddesi No:25/A"}, {"business_status": "OPERATIONAL", "geometry": {"location": {"lat": 41.0143084, "lng": 28.97536719999999}, "viewport": {"northeast": {"lat": 41.01567078029149, "lng": 28.9766601802915}, "southwest": {"lat": 41.01297281970849, "lng": 28.9739622197085}}}, "icon": "https://maps.gstatic.com/mapfiles/place_api/icons/v1/png_71/cafe-71.png", "icon_background_color": "#FF9E67", "icon_mask_base_uri": "https://maps.gstatic.com/mapfiles/place_api/icons/v2/cafe_pinlet", "name": "Kahve D\u00fcnyas\u0131 Alg\u00f6t\u00fcr - Sirkeci", "opening_hours": {"open_now": true}, "photos": [{"height": 2998, "html_attributions": ["<a href=\"https://maps.google.com/maps/contrib/106384143416088090871\">Onur \u00d6zbek</a>"], "photo_reference": "AW30NDxI6Cd6bUNI6Qcaaj3b2wY4zxJicsiQ7kf35099y8FPDgZH7UQrAGODx2cURtbUweDb1CEf7PtE-nNdG7dFUzUn6LpYTNH41VHnd1o1FduTUXrFitmvuOtcdUk_55nzhEipAK0xciJgf4SW54eUYbRAo7M0w1b165xuJEIfFkQ9LFt8", "width": 3998}], "place_id": "ChIJz6G8W5W5yhQRAHFVD8r19ww", "plus_code": {"compound_code": "2X7G+P4 Fatih/\u0130stanbul, Turkey", "global_code": "8GHC2X7G+P4"}, "price_level": 2, "rating": 4.1, "reference": "ChIJz6G8W5W5yhQRAHFVD8r19ww", "scope": "GOOGLE", "types": ["cafe", "store", "food", "point_of_interest", "establishment"], "user_ratings_total": 282, "vicinity": "Hoca Pa\u015fa, Ankara Caddesi No:42"}], "status": "OK"}