{"html_attributions": [], "next_page_token": "AW30NDzbsMveZ5GV4t-mgqg2R84U2rV2QiPlfdez7Kqol_EPWCPomw6_veLP5xdIXsSGYsC7Nkqa4Iev3tJAEPlsPTnALFtT0GVflAYCehlDOjCVfUs5YGG_5-dgSZMRJXidtse_SYnlbXvwjR9CgkWsV7JPflUY9tLEepPAhDxcbEmshAKsOh4i4KnebdCh-LN9G1-bG2qfdorPW8x6m5aJ5vFtC5oJp7SROaWCXEK4-BQ3PSsKI2s-b-pB1SgYD5WoWPuzhC8GoYsxZs7pBTKdg7uRwHW54j5AfebQP4ryA579MPOL462wixtM2RONyQpLOAaRFI2YmrLpkiPsdyG901wV7RB-4_4Lk9gaCZd6EAPRmoQo8jN5P6XH_LjznCWLohzGgjulWDcPpEYA0bn3fQN0lGEWvlWp-Ldg1Dpi60NHAtDKtZ9F", "results": [{"business_status": "OPERATIONAL", "geometry": {"location": {"lat": 41.02689799999999, "lng": 28.975531}, "viewport": {"northeast": {"lat": 41.02824228029149, "lng": 28.9768876302915}, "southwest": {"lat": 41.02554431970849, "lng": 28.9741896697085}}}, "icon": "https://maps.gstatic.com/mapfiles/place_api/icons/v1/png_71/lodging-71.png", "icon_background_color": "#909CE1", "icon_mask_base_uri": "https://maps.gstatic.com/mapfiles/place_api/icons/v2/hotel_pinlet", "name": "Georges Hotel Galata", "opening_hours": {"open_now": true}, "photos": [{"height": 3744, "html_attributions": ["<a href=\"https://maps.google.com/maps/contrib/112645193343133014210\">Georges Hotel Galata</a>"], "photo_reference": "AW30NDxT_3-MeLryfVw-vDsk7hJpoh-ZNU6X8EFXlVS0OtRXqNsKwcelcFwrio7Y0kql7VXaMJXR1eu8-gGDp2ux7SK3fj_JIrHsPrZazgn4lBfPF5q3iSaQumACqdb0DPSt3ObxIMhsSloT9SVoAUAW0FGPYUCdoUw3rKgFr2QqqQ5Ifj3K", "width": 5616}], "place_id": "ChIJf7cjW-e5yhQReQJOcLddVxg", "plus_code": {"compound_code": "2XGG+Q6 Beyo\u011flu/\u0130stanbul, Turkey", "global_code": "8GHC2XGG+Q6"}, "rating": 4.5, "reference": "ChIJf7cjW-e5yhQReQJOcLddVxg", "scope": "GOOGLE", "types": ["bar", "cafe", "lodging", "restaurant", "food", "point_of_interest", "store", "establishment"], "user_ratings_total": 464, "vicinity": "M\u00fceyyedzade, Serdar-\u0131 Ekrem Caddesi No:24"}, {"business_status": "OPERATIONAL", "geometry": {"location": {"lat": 41.03113330000001, "lng": 28.9741806}, "viewport": {"northeast": {"lat": 41.0325701302915, "lng": 28.97563338029149}, "southwest": {"lat": 41.02987216970851, "lng": 28.9729354197085}}}, "icon": "https://maps.gstatic.com/mapfiles/place_api/icons/v1/png_71/lodging-71.png", "icon_background_color": "#909CE1", "icon_mask_base_uri": "https://maps.gstatic.com/mapfiles/place_api/icons/v2/hotel_pinlet", "name": "The Marmara Pera", "opening_hours": {"open_now": true}, "photos": [{"height": 1142, "html_attributions": ["<a href=\"https://maps.google.com/maps/contrib/117240233082937548966\">The Marmara Pera</a>"], "photo_reference": "AW30NDyYTKB6ZupifkXzIM_dveGS2Ni1PO0rVmfAbXmwgFeVoPaX1OQZP9uLgpLGUeo5eISQpmnLeMYIdZiAi3heaNQ9lbJiKtLOSuIraYIXycvSAzVZyOM72cKvYJFV8nIHoTI0SDY9Ow7NtIqwR-mN3hyEjP4Rgnlc8KS8873NX5olSMSU", "width": 2048}], "place_id": "ChIJi_me3-iUyhQRwSMYHJX1drw", "plus_code": {"compound_code": "2XJF+FM Beyo\u011flu/\u0130stanbul, Turkey", "global_code": "8GHC2XJF+FM"}, "rating": 4.3, "reference": "ChIJi_me3-iUyhQRwSMYHJX1drw", "scope": "GOOGLE", "types": ["bar", "cafe", "lodging", "restaurant", "food", "point_of_interest", "establishment"], "user_ratings_total": 3039, "vicinity": "Asmal\u0131 Mescit, Me\u015frutiyet Caddesi No:15"}, {"business_status": "OPERATIONAL", "geometry": {"location": {"lat": 41.03225440000001, "lng": 28.9822603}, "viewport": {"northeast": {"lat": 41.0336010302915, "lng": 28.9836237302915}, "southwest": {"lat": 41.0309030697085, "lng": 28.9809257697085}}}, "icon": "https://maps.gstatic.com/mapfiles/place_api/icons/v1/png_71/lodging-71.png", "icon_background_color": "#909CE1", "icon_mask_base_uri": "https://maps.gstatic.com/mapfiles/place_api/icons/v2/hotel_pinlet", "name": "Suiteness Taksim Hotel", "opening_hours": {"open_now": true}, "photos": [{"height": 901, "html_attributions": ["<a href=\"https://maps.google.com/maps/contrib/100528272897255859000\">Orka Taksim Suites &amp; Hotel</a>"], "photo_reference": "AW30NDyCkkfKcdYKbmGMae0nG0G8iDh1BqKWfNT-zbdatvWIm9C0jqzIVu8a_bARmnRIkUUgAsEskDOFPXxH_mnPmEqQpjjocGbwZWz2mqYtg8lrizOFQKMANwMY5svlMa7lo-6DsJDQ4D5LQUd-RfGjYjvDOC865QlJKTW739SM21oAa5UE", "width": 1600}], "place_id": "ChIJX9BmKWK3yhQRffLxnWOzyMs", "plus_code": {"compound_code": "2XJJ+WW Beyo\u011flu/\u0130stanbul, Turkey", "global_code": "8GHC2XJJ+WW"}, "rating": 3.4, "reference": "ChIJX9BmKWK3yhQRffLxnWOzyMs", "scope": "GOOGLE", "types": ["cafe", "lodging", "restaurant", "food", "point_of_interest", "establishment"], "user_ratings_total": 322, "vicinity": "Cihangir, Kulo\u011flu Mh, A\u011fa Hamam\u0131 Sokak No:18"}, {"business_status": "OPERATIONAL", "geometry": {"location": {"lat": 41.0241198, "lng": 28.97050059999999}, "viewport": {"northeast": {"lat": 41.0254542302915, "lng": 28.9718646302915}, "southwest": {"lat": 41.0227562697085, "lng": 28.9691666697085}}}, "icon": "https://maps.gstatic.com/mapfiles/place_api/icons/v1/png_71/cafe-71.png", "icon_background_color": "#FF9E67", "icon_mask_base_uri": "https://maps.gstatic.com/mapfiles/place_api/icons/v2/cafe_pinlet", "name": "Roots Studio Cafe", "opening_hours": {"open_now": true}, "photos": [{"height": 4032, "html_attributions": ["<a href=\"https://maps.google.com/maps/contrib/113547935259359829415\">Roots Studio Cafe</a>"], "photo_reference": "AW30NDxdNYfVGncZyL0_phNpg5OJ4U6F3ybRQmqamaASbMV5TEUk5olZJznENfR8gJfA_t4pyMcG3bzd0_7i5wWGMbunFXG_x9qp1nrjnh9rqPblVSD244xjuuse64e0mclxNDIhAJJzv1DayYf-YDWI15zRnPmePgPdJzCADPQ22BBRWmdH", "width": 3024}], "place_id": "ChIJ5azXAua5yhQRbIM6LPlYxXs", "plus_code": {"compound_code": "2XFC+J6 Beyo\u011flu/\u0130stanbul, Turkey", "global_code": "8GHC2XFC+J6"}, "rating": 4.8, "reference": "ChIJ5azXAua5yhQRbIM6LPlYxXs", "scope": "GOOGLE", "types": ["cafe", "food", "point_of_interest", "establishment"], "user_ratings_total": 2511, "vicinity": "Tersane Caddesi, Karak\u00f6y, Hediye Sokak D:No:6"}, {"business_status": "OPERATIONAL", "geometry": {"location": {"lat": 41.0329795, "lng": 28.97746700000001}, "viewport": {"northeast": {"lat": 41.0343373302915, "lng": 28.9788335802915}, "southwest": {"lat": 41.0316393697085, "lng": 28.9761356197085}}}, "icon": "https://maps.gstatic.com/mapfiles/place_api/icons/v1/png_71/movies-71.png", "icon_background_color": "#13B5C7", "icon_mask_base_uri": "https://maps.gstatic.com/mapfiles/place_api/icons/v2/movie_pinlet", "name": "Kafika Kacirdiginiz Filmler Kahvesi", "opening_hours": {"open_now": true}, "photos": [{"height": 3024, "html_attributions": ["<a href=\"https://maps.google.com/maps/contrib/108906011721986342385\">Artur Voznenko</a>"], "photo_reference": "AW30NDyUwyK6ziOOtYhndzfjb4i5wuZ_Axvb-25swN19Lp1m2hDAWeUvTD-qVkI3pqL4eFZ5v1i18-mzBdqvTYxOIKpkCekHejwGpCVnkNxeeTvoFwGCh_zRjYtbdpfjdxgr0ZGwsemONh1p4l3zuVTYGx6zoRmupK3Na7UoWJI-6w7slwL8", "width": 4032}], "place_id": "ChIJfXL0VWO3yhQRXM1Mi98qU3I", "plus_code": {"compound_code": "2XMG+5X Beyo\u011flu/\u0130stanbul, Turkey", "global_code": "8GHC2XMG+5X"}, "rating": 4.4, "reference": "ChIJfXL0VWO3yhQRXM1Mi98qU3I", "scope": "GOOGLE", "types": ["movie_theater", "night_club", "bar", "cafe", "food", "point_of_interest", "establishment"], "user_ratings_total": 196, "vicinity": "Tomtom, Yeni \u00c7ar\u015f\u0131 Caddesi No: 10"}, {"business_status": "OPERATIONAL", "geometry": {"location": {"lat": 41.02684619999999, "lng": 28.974023}, "viewport": {"northeast": {"lat": 41.0282590802915, "lng": 28.9754062802915}, "southwest": {"lat": 41.0255611197085, "lng": 28.97270831970851}}}, "icon": "https://maps.gstatic.com/mapfiles/place_api/icons/v1/png_71/restaurant-71.png", "icon_background_color": "#FF9E67", "icon_mask_base_uri": "https://maps.gstatic.com/mapfiles/place_api/icons/v2/restaurant_pinlet", "name": "Cafe Privato Restaurant", "opening_hours": {"open_now": true}, "photos": [{"height": 3680, "html_attributions": ["<a href=\"https://maps.google.com/maps/contrib/115862515008129222382\">ST</a>"], "photo_reference": "AW30NDyhl-wrvPXZeZ4p0S3kb4EXYGDRDtO-J51CeTmIIjNoTKQcKavmyNQYviJtPoyiUu1u5-c3LLKMYepdTZ7NcOPOKojbMrLSOfo3evrmhP7XQhFods9QkhPBxPkFOtte6ZR25y6EVQvChU1SV3Ot2iJnPXh6ZBKaAhADmWy3xhXbSC37", "width": 7082}], "place_id": "ChIJO-XpIue5yhQRS7LIDoXNTug", "plus_code": {"compound_code": "2XGF+PJ Beyo\u011flu/\u0130stanbul, Turkey", "global_code": "8GHC2XGF+PJ"}, "price_level": 2, "rating": 4.4, "reference": "ChIJO-XpIue5yhQRS7LIDoXNTug", "scope": "GOOGLE", "types": ["cafe", "restaurant", "food", "point_of_interest", "establishment"], "user_ratings_total": 1546, "vicinity": "\u015eahkulu, T\u0131marc\u0131 Sokak No:3"}, {"business_status": "CLOSED_TEMPORARILY", "geometry": {"location": {"lat": 41.0255287, "lng": 28.9737407}, "viewport": {"northeast": {"lat": 41.0269214802915, "lng": 28.9752325302915}, "southwest": {"lat": 41.0242235197085, "lng": 28.9725345697085}}}, "icon": "https://maps.gstatic.com/mapfiles/place_api/icons/v1/png_71/cafe-71.png", "icon_background_color": "#FF9E67", "icon_mask_base_uri": "https://maps.gstatic.com/mapfiles/place_api/icons/v2/cafe_pinlet", "name": "Velvet Cafe, Galata", "permanently_closed": true, "photos": [{"height": 699, "html_attributions": ["<a href=\"https://maps.google.com/maps/contrib/110521895685252975646\">Velvet Cafe, Galata</a>"], "photo_reference": "AW30NDzexe4nFU59Hvmift2DNdXzYJNSHWSKwvOW2K5soDfHhvsYoH0k19Z5c_Nh0JVTHuOYhtDiHXUX1upTczOhCeCc7tzwTW4w2o3MQi2K9viAa3CQZsUkSh16UZegM-7zJ5eZzEPwWAFuTpQ4qCtZ_DviwOxH_oRLvmw7UsBT0I0QwhfT", "width": 1242}], "place_id": "ChIJk_u2Eue5yhQReKnCNMb4Y3E", "plus_code": {"compound_code": "2XGF+6F Beyo\u011flu/\u0130stanbul, Turkey", "global_code": "8GHC2XGF+6F"}, "price_level": 2, "rating": 4.6, "reference": "ChIJk_u2Eue5yhQReKnCNMb4Y3E", "scope": "GOOGLE", "types": ["cafe", "restaurant", "food", "point_of_interest", "store", "establishment"], "user_ratings_total": 846, "vicinity": "Bereketzade, B\u00fcy\u00fck Hendek Caddesi D:7a"}, {"business_status": "OPERATIONAL", "geometry": {"location": {"lat": 41.0206422, "lng": 28.9734712}, "viewport": {"northeast": {"lat": 41.0226015802915, "lng": 28.9747605802915}, "southwest": {"lat": 41.0199036197085, "lng": 28.9720626197085}}}, "icon": "https://maps.gstatic.com/mapfiles/place_api/icons/v1/png_71/restaurant-71.png", "icon_background_color": "#FF9E67", "icon_mask_base_uri": "https://maps.gstatic.com/mapfiles/place_api/icons/v2/restaurant_pinlet", "name": "Kalyan", "opening_hours": {"open_now": true}, "photos": [{"height": 590, "html_attributions": ["<a href=\"https://maps.google.com/maps/contrib/114984817423755681724\">Azdine Adriano</a>"], "photo_reference": "AW30NDwXz_ee1YDV2h1n5tMzcKsbamhhpxBBrAYF4LMckNJadgSA7aMmDF_KXnON_zrSZGDsx2T3FnKYp8OsbvlfHfcE3PzKL4iJ1RZjTlhUOn6v-wlmzOxiPCLxi_FmuWRFbtYliN120HSLg-seoxjplgO7dWW350vq8W9S7MlmHAns6nUx", "width": 1280}], "place_id": "ChIJTR2XqOm5yhQRuVQHxqKhrfo", "plus_code": {"compound_code": "2XCF+79 Beyo\u011flu/\u0130stanbul, Turkey", "global_code": "8GHC2XCF+79"}, "rating": 4, "reference": "ChIJTR2XqOm5yhQRuVQHxqKhrfo", "scope": "GOOGLE", "types": ["restaurant", "cafe", "food", "point_of_interest", "establishment"], "user_ratings_total": 70, "vicinity": "Yeni Galata K\u00f6pr\u00fcs\u00fc Alt\u0131 Hali\u00e7 Taraf\u0131 KB:3, Fatih"}, {"business_status": "OPERATIONAL", "geometry": {"location": {"lat": 41.0262739, "lng": 28.9736633}, "viewport": {"northeast": {"lat": 41.0276256802915, "lng": 28.97501648029149}, "southwest": {"lat": 41.02492771970851, "lng": 28.9723185197085}}}, "icon": "https://maps.gstatic.com/mapfiles/place_api/icons/v1/png_71/cafe-71.png", "icon_background_color": "#FF9E67", "icon_mask_base_uri": "https://maps.gstatic.com/mapfiles/place_api/icons/v2/cafe_pinlet", "name": "Federal Galata", "opening_hours": {"open_now": true}, "photos": [{"height": 3024, "html_attributions": ["<a href=\"https://maps.google.com/maps/contrib/110360040665046564459\">Shane Z</a>"], "photo_reference": "AW30NDzAEbisi7d1P9kdD5zyokAqKzn28iuGHa31qlQcxesNg41tFZOYVV_0cWiO07qaJJJWhAFAu4bvR9SYQgjYmptAv0ZLih7T2CGp57eYcPatlVu5JiG83o5lSiBLze1UbFZKAWW8dlci2VwFZ0kh8rjYqVOl3_ZLXzgpIg_T1eFJ9b7S", "width": 4032}], "place_id": "ChIJFRCRBOe5yhQRHp-GIttVB-k", "plus_code": {"compound_code": "2XGF+GF Beyo\u011flu/\u0130stanbul, Turkey", "global_code": "8GHC2XGF+GF"}, "price_level": 2, "rating": 4.4, "reference": "ChIJFRCRBOe5yhQRHp-GIttVB-k", "scope": "GOOGLE", "types": ["cafe", "restaurant", "food", "point_of_interest", "store", "establishment"], "user_ratings_total": 1011, "vicinity": "\u015eahkulu, K\u00fc\u00e7\u00fck Hendek Caddesi No:7"}, {"business_status": "CLOSED_TEMPORARILY", "geometry": {"location": {"lat": 41.0250235, "lng": 28.9741957}, "viewport": {"northeast": {"lat": 41.0263098302915, "lng": 28.9755848802915}, "southwest": {"lat": 41.0236118697085, "lng": 28.9728869197085}}}, "icon": "https://maps.gstatic.com/mapfiles/place_api/icons/v1/png_71/cafe-71.png", "icon_background_color": "#FF9E67", "icon_mask_base_uri": "https://maps.gstatic.com/mapfiles/place_api/icons/v2/cafe_pinlet", "name": "Cherrybeancoffees - Galata", "permanently_closed": true, "photos": [{"height": 666, "html_attributions": ["<a href=\"https://maps.google.com/maps/contrib/110985837602999820321\">Cherrybeancoffees - Galata</a>"], "photo_reference": "AW30NDyN0zn2xFkgKyHcZt9XmV8oThyIfxl1mBl68ed6OU5qAdC4PG0nALg67TsEfO3GIlNkdz0a0ErVs1JoLou9Kjya5WwuEnO6UNt3zK57Eo86m-SKBRmVnxkNKkwZYlu6zbTRS-Muc8u7718bjDkRmAp9Wv11tB1zhwRH8MxjNulzFRFr", "width": 960}], "place_id": "ChIJkeWtpOe5yhQRVIetKjfjZ6o", "plus_code": {"compound_code": "2XGF+2M Beyo\u011flu/\u0130stanbul, Turkey", "global_code": "8GHC2XGF+2M"}, "rating": 4.3, "reference": "ChIJkeWtpOe5yhQRVIetKjfjZ6o", "scope": "GOOGLE", "types": ["cafe", "food", "point_of_interest", "store", "establishment"], "user_ratings_total": 28, "vicinity": "Bereketzade, Camekan Sokak No:10"}, {"business_status": "OPERATIONAL", "geometry": {"location": {"lat": 41.0263511, "lng": 28.9734052}, "viewport": {"northeast": {"lat": 41.0276902802915, "lng": 28.9747375802915}, "southwest": {"lat": 41.0249923197085, "lng": 28.9720396197085}}}, "icon": "https://maps.gstatic.com/mapfiles/place_api/icons/v1/png_71/restaurant-71.png", "icon_background_color": "#FF9E67", "icon_mask_base_uri": "https://maps.gstatic.com/mapfiles/place_api/icons/v2/restaurant_pinlet", "name": "Sirinfirin bakery", "opening_hours": {"open_now": true}, "photos": [{"height": 9000, "html_attributions": ["<a href=\"https://maps.google.com/maps/contrib/102674979902276118027\">Y\u0131lmaz Emino\u011flu</a>"], "photo_reference": "AW30NDwQ2cr1Lng7G9xcJ4jqfJRWLcjZhRQ9tQPEeHQl9HoIezeEApmFjd6xQgZOkNoFkafjPzZpOfR30ZzH6tjPrRhUavMRxHeOMEp7Q8fCzStuuVy9SMFPcDHYP15EHTmorDebaAhp-FI_sReL5AjcKM2aohXL02Xo_4TPum5tXaZXrVmI", "width": 12000}], "place_id": "ChIJSyPsAue5yhQRerB1kjwjZdA", "plus_code": {"compound_code": "2XGF+G9 Beyo\u011flu/\u0130stanbul, Turkey", "global_code": "8GHC2XGF+G9"}, "price_level": 2, "rating": 4.4, "reference": "ChIJSyPsAue5yhQRerB1kjwjZdA", "scope": "GOOGLE", "types": ["bakery", "cafe", "food", "point_of_interest", "store", "establishment"], "user_ratings_total": 1071, "vicinity": "\u015eahkulu, B\u00fcy\u00fck Hendek Caddesi No:16/A"}, {"business_status": "OPERATIONAL", "geometry": {"location": {"lat": 41.0256, "lng": 28.9753575}, "viewport": {"northeast": {"lat": 41.02694478029151, "lng": 28.9767288802915}, "southwest": {"lat": 41.02424681970851, "lng": 28.9740309197085}}}, "icon": "https://maps.gstatic.com/mapfiles/place_api/icons/v1/png_71/restaurant-71.png", "icon_background_color": "#FF9E67", "icon_mask_base_uri": "https://maps.gstatic.com/mapfiles/place_api/icons/v2/restaurant_pinlet", "name": "Smyrna Art-Gallery Cafe", "opening_hours": {"open_now": true}, "photos": [{"height": 4192, "html_attributions": ["<a href=\"https://maps.google.com/maps/contrib/115653638267706170151\">Galata Restaurant Art Smyrna</a>"], "photo_reference": "AW30NDyrMTfFYXxSBaJ-f3uklTGq3uOXSArH1E_IYNn7eOu7XnvzpaWRbKTeaSHaAHRBf-oU6l6xds78pkgyx3GF7F_Y7qI-0vgWDBl4fRx5AuisMioAks2YYT2CxIfUFy47tQWT1eNIDLHMGwCrN_M4ZGv9S_lQqo_ShHaj5fDruuRC1A4V", "width": 3144}], "place_id": "ChIJPQ0fd-e5yhQRbSJNJ2cxD-w", "plus_code": {"compound_code": "2XGG+64 Beyo\u011flu/\u0130stanbul, Turkey", "global_code": "8GHC2XGG+64"}, "price_level": 2, "rating": 4.8, "reference": "ChIJPQ0fd-e5yhQRbSJNJ2cxD-w", "scope": "GOOGLE", "types": ["restaurant", "tourist_attraction", "cafe", "food", "point_of_interest", "store", "establishment"], "user_ratings_total": 982, "vicinity": "M\u00fceyyedzade, Tatar Beyi Sokak No:3"}, {"business_status": "OPERATIONAL", "geometry": {"location": {"lat": 41.0258648, "lng": 28.97548239999999}, "viewport": {"northeast": {"lat": 41.0272160802915, "lng": 28.9768200302915}, "southwest": {"lat": 41.0245181197085, "lng": 28.9741220697085}}}, "icon": "https://maps.gstatic.com/mapfiles/place_api/icons/v1/png_71/cafe-71.png", "icon_background_color": "#FF9E67", "icon_mask_base_uri": "https://maps.gstatic.com/mapfiles/place_api/icons/v2/cafe_pinlet", "name": "Old Java Coffee Roasters Galata", "opening_hours": {"open_now": true}, "photos": [{"height": 2269, "html_attributions": ["<a href=\"https://maps.google.com/maps/contrib/110987748593121661537\">Old Java Coffee Roasters</a>"], "photo_reference": "AW30NDyRPCcTrC32PMdgjg2FOwjcow0wDvQhf1Ykci6r9JRTAtRVcDUuMT7Y3Viq-G8WlIpfm8RV980t4PUVzFLX-gSok1SZCtFEZZoMR-fVeQgzx0IdkbVH5eAxBU4bfLSIsIyvoWwXZKGSP4rBBRY7A3qo58CHFcuBpd6p0BRezZ5bB50J", "width": 4032}], "place_id": "ChIJV1VKZee5yhQRs-fPFhwDLJU", "plus_code": {"compound_code": "2XGG+85 Beyo\u011flu/\u0130stanbul, Turkey", "global_code": "8GHC2XGG+85"}, "rating": 4.5, "reference": "ChIJV1VKZee5yhQRs-fPFhwDLJU", "scope": "GOOGLE", "types": ["cafe", "restaurant", "food", "point_of_interest", "store", "establishment"], "user_ratings_total": 298, "vicinity": "M\u00fceyyedzade, Tatar Beyi Sokak No:8"}, {"business_status": "OPERATIONAL", "geometry": {"location": {"lat": 41.02636260000001, "lng": 28.9757298}, "viewport": {"northeast": {"lat": 41.0277163302915, "lng": 28.9770672802915}, "southwest": {"lat": 41.0250183697085, "lng": 28.97436931970851}}}, "icon": "https://maps.gstatic.com/mapfiles/place_api/icons/v1/png_71/shopping-71.png", "icon_background_color": "#4B96F3", "icon_mask_base_uri": "https://maps.gstatic.com/mapfiles/place_api/icons/v2/shopping_pinlet", "name": "Bonne Nuit & Willy Wonka Galata", "opening_hours": {"open_now": true}, "photos": [{"height": 1441, "html_attributions": ["<a href=\"https://maps.google.com/maps/contrib/114287751603007852681\">Bonne Nuit &amp; Willy Wonka Galata</a>"], "photo_reference": "AW30NDyCZBypPGk4_ctaP_hJdWQP7Bb_4djzmoIBqFdoCfz219loLxopzPm3bkWWxmWr8lL61VMO0kRk8dodcJe0OuaD3c0vOStO891yMGoINtOkN6ietdbIMQmdm-IHxVbXRGhZmxGEWuCNcdLbrF3BqP7vAzOxQz5J0GCgcItg2PZyMlEZ", "width": 2560}], "place_id": "ChIJVVFZZ-e5yhQRcRwZKoHLv_E", "plus_code": {"compound_code": "2XGG+G7 Beyo\u011flu/\u0130stanbul, Turkey", "global_code": "8GHC2XGG+G7"}, "rating": 4.2, "reference": "ChIJVVFZZ-e5yhQRcRwZKoHLv_E", "scope": "GOOGLE", "types": ["cafe", "food", "point_of_interest", "store", "establishment"], "user_ratings_total": 697, "vicinity": "M\u00fceyyedzade, Tatar Beyi Sokak 24A D:24A"}, {"business_status": "OPERATIONAL", "geometry": {"location": {"lat": 41.0273323, "lng": 28.9757004}, "viewport": {"northeast": {"lat": 41.02866623029149, "lng": 28.9770951802915}, "southwest": {"lat": 41.02596826970849, "lng": 28.9743972197085}}}, "icon": "https://maps.gstatic.com/mapfiles/place_api/icons/v1/png_71/cafe-71.png", "icon_background_color": "#FF9E67", "icon_mask_base_uri": "https://maps.gstatic.com/mapfiles/place_api/icons/v2/cafe_pinlet", "name": "Coffee Lattas", "opening_hours": {"open_now": true}, "photos": [{"height": 2333, "html_attributions": ["<a href=\"https://maps.google.com/maps/contrib/114944219225468990347\">Lattas Coffee</a>"], "photo_reference": "AW30NDyvxg309tQg14hIs05uWkHyH--8wQjyW4iDHcvyVUo0MKeU7AgYX5rgF0cy143iDwVuRTQFCiKeXiwsgvJYGhFgSgrARFro1sdsp8cqAmcnn89LWxJHGVzBN2Wy3bvBiUR-1B_3jf246KVS67e6ICIZ9xN_tIL5roqL0QW5AI_D0Mon", "width": 3500}], "place_id": "ChIJbfnyU-e5yhQRv5D9LzJ5AD4", "plus_code": {"compound_code": "2XGG+W7 Beyo\u011flu/\u0130stanbul, Turkey", "global_code": "8GHC2XGG+W7"}, "rating": 4.1, "reference": "ChIJbfnyU-e5yhQRv5D9LzJ5AD4", "scope": "GOOGLE", "types": ["cafe", "restaurant", "food", "point_of_interest", "store", "establishment"], "user_ratings_total": 219, "vicinity": "\u015eahkulu, Serdar-\u0131 Ekrem Caddesi No:29"}, {"business_status": "OPERATIONAL", "geometry": {"location": {"lat": 41.0279098, "lng": 28.9761358}, "viewport": {"northeast": {"lat": 41.0292219302915, "lng": 28.9775433802915}, "southwest": {"lat": 41.0265239697085, "lng": 28.9748454197085}}}, "icon": "https://maps.gstatic.com/mapfiles/place_api/icons/v1/png_71/cafe-71.png", "icon_background_color": "#FF9E67", "icon_mask_base_uri": "https://maps.gstatic.com/mapfiles/place_api/icons/v2/cafe_pinlet", "name": "Cha'ya Galata", "opening_hours": {"open_now": true}, "photos": [{"height": 900, "html_attributions": ["<a href=\"https://maps.google.com/maps/contrib/109248714499166615788\">Bee Bubble</a>"], "photo_reference": "AW30NDyvUKpTajeOjXtAY7ie8eGstxUCx0itXXQjqxl95y6yhMXRY2zLYhjQgUFMo7gX-X4QzRYxa5Q6NZFxPo-UqsbWjnUXVjmOTJ157j9vpk49stP3oulQQ7wfZaOAHx_hXCdg-35009zapsOEv_OBBEoi-bYYFszmgU9ozPDpLb81roJh", "width": 1600}], "place_id": "ChIJkfKAAt65yhQRKXaF6lB6O2M", "plus_code": {"compound_code": "2XHG+5F Beyo\u011flu/\u0130stanbul, Turkey", "global_code": "8GHC2XHG+5F"}, "price_level": 2, "rating": 4.1, "reference": "ChIJkfKAAt65yhQRKXaF6lB6O2M", "scope": "GOOGLE", "types": ["cafe", "food", "point_of_interest", "establishment"], "user_ratings_total": 344, "vicinity": "\u015eahkulu, \u015eahkulu, No:, Serdar-\u0131 Ekrem Caddesi No:45, 34421"}, {"business_status": "OPERATIONAL", "geometry": {"location": {"lat": 41.0228714, "lng": 28.9737245}, "viewport": {"northeast": {"lat": 41.0241562302915, "lng": 28.97505863029149}, "southwest": {"lat": 41.0214582697085, "lng": 28.97236066970849}}}, "icon": "https://maps.gstatic.com/mapfiles/place_api/icons/v1/png_71/cafe-71.png", "icon_background_color": "#FF9E67", "icon_mask_base_uri": "https://maps.gstatic.com/mapfiles/place_api/icons/v2/cafe_pinlet", "name": "Momento Tunel Cafe&Restaurant", "opening_hours": {"open_now": true}, "photos": [{"height": 2112, "html_attributions": ["<a href=\"https://maps.google.com/maps/contrib/116222569780321834005\">Momento Tunel Cafe&amp;Restaurant</a>"], "photo_reference": "AW30NDxe-CMMWluC-zgRQooL8-eROBZVMxzMwdmJmvAN9YIFf4xXmhjroFYDeg86QA8r0Xn3_tN2TetrAgC8enbcPD8749p2zn2zdgo7Tvq0QITiqp6B7SYJgoLVlyS13qJu9oHAbAaXpLgr-Pud6kE99UcSqav-VT7x6ZXuVzWeNptsyHYB", "width": 3168}], "place_id": "ChIJHQY1ZOi5yhQRNSlcY37cVJ8", "plus_code": {"compound_code": "2XFF+4F Beyo\u011flu/\u0130stanbul, Turkey", "global_code": "8GHC2XFF+4F"}, "rating": 4.2, "reference": "ChIJHQY1ZOi5yhQRNSlcY37cVJ8", "scope": "GOOGLE", "types": ["cafe", "food", "point_of_interest", "establishment"], "user_ratings_total": 102, "vicinity": "Azapkap\u0131, Tersane Caddesi No:24"}, {"business_status": "OPERATIONAL", "geometry": {"location": {"lat": 41.02481679999999, "lng": 28.9778581}, "viewport": {"northeast": {"lat": 41.0261346302915, "lng": 28.9792633302915}, "southwest": {"lat": 41.0234366697085, "lng": 28.9765653697085}}}, "icon": "https://maps.gstatic.com/mapfiles/place_api/icons/v1/png_71/cafe-71.png", "icon_background_color": "#FF9E67", "icon_mask_base_uri": "https://maps.gstatic.com/mapfiles/place_api/icons/v2/cafe_pinlet", "name": "Kava Coffee", "opening_hours": {"open_now": true}, "photos": [{"height": 490, "html_attributions": ["<a href=\"https://maps.google.com/maps/contrib/103651892557201831175\">Kava Coffee</a>"], "photo_reference": "AW30NDzunBr86pyQjlXqd-l1yCrVfIM6fIn-j38DcE72Tw2A5C16Xabs6TYv2gvkX_6-LYMAefA-7NuG1AiGZowXuTguF5hzVtDhCWu8diV8OcGri8sTZa084ot2379nJknz1nhTt7peMqeiUIR2c3udRnrmVbXBBe8UnupRK_cowYx8FTA1", "width": 750}], "place_id": "ChIJP4TdoN25yhQRB0qJxhKO__Q", "plus_code": {"compound_code": "2XFH+W4 Beyo\u011flu/\u0130stanbul, Turkey", "global_code": "8GHC2XFH+W4"}, "price_level": 2, "rating": 4.6, "reference": "ChIJP4TdoN25yhQRB0qJxhKO__Q", "scope": "GOOGLE", "types": ["cafe", "food", "point_of_interest", "store", "establishment"], "user_ratings_total": 378, "vicinity": "Hac\u0131mimi, Necatibey Caddesi No:63/A"}, {"business_status": "OPERATIONAL", "geometry": {"location": {"lat": 41.026594, "lng": 28.97813499999999}, "viewport": {"northeast": {"lat": 41.0279545302915, "lng": 28.9794647302915}, "southwest": {"lat": 41.0252565697085, "lng": 28.9767667697085}}}, "icon": "https://maps.gstatic.com/mapfiles/place_api/icons/v1/png_71/restaurant-71.png", "icon_background_color": "#FF9E67", "icon_mask_base_uri": "https://maps.gstatic.com/mapfiles/place_api/icons/v2/restaurant_pinlet", "name": "Arada Cafe", "opening_hours": {"open_now": true}, "photos": [{"height": 547, "html_attributions": ["<a href=\"https://maps.google.com/maps/contrib/109425989312601925246\">Arada Beyrut</a>"], "photo_reference": "AW30NDxoz0z_ZAlPJMdcvsMMDIIYgC0PozV10-SUf-V3eVycimHtxr4NFqURHJk4z-0DIcyDWnLYH717BUXnjzQXc_i9L4vHbPc8d2685oO7-d0Fkf3QB7KcbiHO8CWuS39WPdTnzgilJudFyBRA_laZL8DLX15TLWsPlt7_LJMLTRYcIOa4", "width": 972}], "place_id": "ChIJZw8keN65yhQR_PUJ_MK942o", "plus_code": {"compound_code": "2XGH+J7 Beyo\u011flu/\u0130stanbul, Turkey", "global_code": "8GHC2XGH+J7"}, "price_level": 2, "rating": 4.2, "reference": "ChIJZw8keN65yhQR_PUJ_MK942o", "scope": "GOOGLE", "types": ["cafe", "restaurant", "food", "point_of_interest", "store", "establishment"], "user_ratings_total": 4187, "vicinity": "Hac\u0131mimi, L\u00fcleci Hendek Caddesi 23a"}, {"business_status": "OPERATIONAL", "geometry": {"location": {"lat": 41.028985, "lng": 28.97329999999999}, "viewport": {"northeast": {"lat": 41.0303845302915, "lng": 28.9746515302915}, "southwest": {"lat": 41.0276865697085, "lng": 28.9719535697085}}}, "icon": "https://maps.gstatic.com/mapfiles/place_api/icons/v1/png_71/restaurant-71.png", "icon_background_color": "#FF9E67", "icon_mask_base_uri": "https://maps.gstatic.com/mapfiles/place_api/icons/v2/restaurant_pinlet", "name": "Le Cuistot Bistro by Chef Carlos", "opening_hours": {"open_now": false}, "photos": [{"height": 808, "html_attributions": ["<a href=\"https://maps.google.com/maps/contrib/104070765113434453104\">Le Cuistot Bistro by Chef Carlos</a>"], "photo_reference": "AW30NDz4NRZqVpWb870gOEyXT2kI8ZQ35ARoQjVhCJ42020K_NajR_EOeqhhtMwNtv_w-bkWo4fxn3CuKHn4H81iJl_G1t2HEzbUNRBesaxY98_V0A3ohbHN-6SV3HKBrTLr4NG1757AlyiFkNHce_PGf3qoAMQnATHY1QFTtB0m9LPyBo3N", "width": 1440}], "place_id": "ChIJxQliF4LKyhQRbmkZBzvhvX4", "plus_code": {"compound_code": "2XHF+H8 Beyo\u011flu/\u0130stanbul, Turkey", "global_code": "8GHC2XHF+H8"}, "rating": 4.6, "reference": "ChIJxQliF4LKyhQRbmkZBzvhvX4", "scope": "GOOGLE", "types": ["restaurant", "cafe", "food", "point_of_interest", "store", "establishment"], "user_ratings_total": 366, "vicinity": "Asmal\u0131 Mescit, General Yazgan Sokak No:13"}], "status": "OK"}