{"html_attributions": [], "next_page_token": "AW30NDzEh86KzNN4N-GgybUdconopEtGTteiVrSKB8qFFKbtg0ilJwiO1Zo8-sZ7hZhZQGOzWwKsIVaxCt6tq7rFIFQPPXvvEe71798-id3A9bloBbmHqfnp_IiBPSvrv6jguMVc6nUwWbqQLlwRNGK61UGQOgDgzsQ0t7D8KPN2A9Y_ImmKPOGa1B4U9Jw6c1WyPLGg_4qjWVOLakI6XViIz9Yyf0T0z03yS81Gu90BI6b6KCmAdAkJbQDtqEiXuxSchXFc0POpQKKrW5FR7ld0x64nVMOU67P2CeIoIRpzZ8viKSf0CQJqqwai8intzAGcYY5QSE3tI-PSkfTWA11UComfYIxIHWca3a3nGPuC4m84jX3cGt7Df4_DcnN4VZauMw8Tdph4fS6vAv2FunJ3g3W5pb7kx6P2y6MuRG1pWOS1trCQ6EN4", "results": [{"business_status": "OPERATIONAL", "geometry": {"location": {"lat": 41.013154, "lng": 28.97773}, "viewport": {"northeast": {"lat": 41.0144618302915, "lng": 28.9790150802915}, "southwest": {"lat": 41.0117638697085, "lng": 28.9763171197085}}}, "icon": "https://maps.gstatic.com/mapfiles/place_api/icons/v1/png_71/lodging-71.png", "icon_background_color": "#909CE1", "icon_mask_base_uri": "https://maps.gstatic.com/mapfiles/place_api/icons/v2/hotel_pinlet", "name": "Orient Express & Spa by Orka Hotels", "opening_hours": {"open_now": true}, "photos": [{"height": 3449, "html_attributions": ["<a href=\"https://maps.google.com/maps/contrib/110921849677727866437\">Orient Express &amp; Spa by Orka Hotels</a>"], "photo_reference": "AW30NDw9iapmJR9K_QRgLppVQLG4AtZohAAAGDDO0rCqVTuVmYoV3j7jyDwIGgFJf8veY5cka5EeqjFWC5xN_bK7niythPJdNYZ6574MqGZ6_qYuLvNF1l3abIBACyMvhIsgB5FvRBmyAtx0ViT6gKq65QUYC2LJv_Jr62oId0p1j1phW6ss", "width": 2100}], "place_id": "ChIJbUDBCsC5yhQRrbehwLl8acs", "plus_code": {"compound_code": "2X7H+73 Fatih/\u0130stanbul, Turkey", "global_code": "8GHC2X7H+73"}, "rating": 4.2, "reference": "ChIJbUDBCsC5yhQRrbehwLl8acs", "scope": "GOOGLE", "types": ["bar", "cafe", "spa", "lodging", "restaurant", "food", "point_of_interest", "establishment"], "user_ratings_total": 707, "vicinity": "Hoca Pa\u015fa, Old City Sirkeci, H\u00fcdavendigar Caddesi No:24"}, {"business_status": "OPERATIONAL", "geometry": {"location": {"lat": 41.0081399, "lng": 28.9760521}, "viewport": {"northeast": {"lat": 41.0094379302915, "lng": 28.9773934802915}, "southwest": {"lat": 41.00673996970851, "lng": 28.9746955197085}}}, "icon": "https://maps.gstatic.com/mapfiles/place_api/icons/v1/png_71/restaurant-71.png", "icon_background_color": "#FF9E67", "icon_mask_base_uri": "https://maps.gstatic.com/mapfiles/place_api/icons/v2/restaurant_pinlet", "name": "Mado", "opening_hours": {"open_now": true}, "photos": [{"height": 3000, "html_attributions": ["<a href=\"https://maps.google.com/maps/contrib/118230918393891210030\">\u0410\u043b\u0435\u043a\u0441\u0430\u043d\u0434\u0440\u0430</a>"], "photo_reference": "AW30NDxer7k76RPeYiiDYhzrwxNS-bTWfhYjAyPmXnQfu2tHdhXIYG1olm--5Rit9oAD-cClE_35W7MUEqS1GPjWciBNdeF0yRGmIlYsYsaLgvF3vmYK5bGc-UyWImWG7TvL4knN5ybVYU8cfyj0K1aAUZVJVTnsBp3zODvJdM4BQPQ-FzQX", "width": 4000}], "place_id": "ChIJC_89GZa5yhQRAenIvYOc_a0", "plus_code": {"compound_code": "2X5G+7C Fatih/\u0130stanbul, Turkey", "global_code": "8GHC2X5G+7C"}, "price_level": 3, "rating": 3.8, "reference": "ChIJC_89GZa5yhQRAenIvYOc_a0", "scope": "GOOGLE", "types": ["cafe", "bakery", "store", "restaurant", "food", "point_of_interest", "establishment"], "user_ratings_total": 1823, "vicinity": "Alemdar, Divan Yolu Caddesi No:24"}, {"business_status": "OPERATIONAL", "geometry": {"location": {"lat": 41.0084766, "lng": 28.9776073}, "viewport": {"northeast": {"lat": 41.0098363302915, "lng": 28.9790844302915}, "southwest": {"lat": 41.0071383697085, "lng": 28.9763864697085}}}, "icon": "https://maps.gstatic.com/mapfiles/place_api/icons/v1/png_71/cafe-71.png", "icon_background_color": "#FF9E67", "icon_mask_base_uri": "https://maps.gstatic.com/mapfiles/place_api/icons/v2/cafe_pinlet", "name": "Omar Cafe & Restaurant", "opening_hours": {"open_now": true}, "photos": [{"height": 1966, "html_attributions": ["<a href=\"https://maps.google.com/maps/contrib/117735397904241721778\">GHA</a>"], "photo_reference": "AW30NDzhpED8leYa_-wsk2IYaxiSNxK2krNpEsZmDz2vsh3-beldQPXzTVu6jr2eypzJ5vFMXVq5kgPEhN4t7g70BweR4Su3KkkNhYTQrSHOEpSpAkoKycO0MzYhXUhc8bQ64tpTxuHb3uHM_JagqIXywAcZA40UmXkrL5dcNF4YB6OwEgp1", "width": 1680}], "place_id": "ChIJ07B-4L25yhQRBaEzMbEjsw8", "plus_code": {"compound_code": "2X5H+92 Fatih/\u0130stanbul, Turkey", "global_code": "8GHC2X5H+92"}, "rating": 4.3, "reference": "ChIJ07B-4L25yhQRBaEzMbEjsw8", "scope": "GOOGLE", "types": ["cafe", "restaurant", "food", "point_of_interest", "establishment"], "user_ratings_total": 168, "vicinity": "Alemdar, \u015eeftali Sokak No:8"}, {"business_status": "OPERATIONAL", "geometry": {"location": {"lat": 41.00963, "lng": 28.979444}, "viewport": {"northeast": {"lat": 41.01097888029149, "lng": 28.9807931802915}, "southwest": {"lat": 41.00828091970849, "lng": 28.9780952197085}}}, "icon": "https://maps.gstatic.com/mapfiles/place_api/icons/v1/png_71/cafe-71.png", "icon_background_color": "#FF9E67", "icon_mask_base_uri": "https://maps.gstatic.com/mapfiles/place_api/icons/v2/cafe_pinlet", "name": "Cafe Turing", "opening_hours": {"open_now": true}, "photos": [{"height": 1080, "html_attributions": ["<a href=\"https://maps.google.com/maps/contrib/108854334772985862780\">Azeema Faizunnisa</a>"], "photo_reference": "AW30NDxWGTvW_3hVAQyTjXRwb7Oq2qBjMB5CGai-ZCRX0dl9H9YR4Sn0dGKPvcLJ7WMezSkSEmco9snrz2rrNgNpjrNJYrRo75aUHfOOz71Jld7-cKG5Zzlrk-l3sD7shMd6kvGO4nfKDZz1o5rCC8TnqQ3X7FE3Q9dK8eUsuT-cekwlpy_U", "width": 1920}], "place_id": "ChIJv6aO-r65yhQR4iltIYgmZfM", "plus_code": {"compound_code": "2X5H+VQ Fatih/\u0130stanbul, Turkey", "global_code": "8GHC2X5H+VQ"}, "rating": 4.9, "reference": "ChIJv6aO-r65yhQR4iltIYgmZfM", "scope": "GOOGLE", "types": ["cafe", "food", "point_of_interest", "establishment"], "user_ratings_total": 14, "vicinity": "Cankurtaran, Caferiye Sokak No:2"}, {"business_status": "OPERATIONAL", "geometry": {"location": {"lat": 41.0093588, "lng": 28.9767798}, "viewport": {"northeast": {"lat": 41.0107401302915, "lng": 28.9781815802915}, "southwest": {"lat": 41.0080421697085, "lng": 28.9754836197085}}}, "icon": "https://maps.gstatic.com/mapfiles/place_api/icons/v1/png_71/cafe-71.png", "icon_background_color": "#FF9E67", "icon_mask_base_uri": "https://maps.gstatic.com/mapfiles/place_api/icons/v2/cafe_pinlet", "name": "Maya's Corner Cafe", "photos": [{"height": 1024, "html_attributions": ["<a href=\"https://maps.google.com/maps/contrib/100726985610563849024\">Maya&#39;s Corner Cafe</a>"], "photo_reference": "AW30NDx1X0kqJsKso2ba4dgTnRCZzBGiB6iIQgGl3ZXZbqLCGQXy2h1kRjQv9vMeodGBjlSxKI028luvmQi7UkkpRn3fxjmckeckuBTDqaQDLEA4vbuMt_D-a6eUpgNDkPCWeNGUbPV3weFMAj0_saF8P-F6I0nQypRhqMlt5KZG-pKeBgLj", "width": 768}], "place_id": "ChIJ_zPXGr65yhQRkJAL0-6DY5k", "plus_code": {"compound_code": "2X5G+PP Fatih/\u0130stanbul, Turkey", "global_code": "8GHC2X5G+PP"}, "price_level": 1, "rating": 4.6, "reference": "ChIJ_zPXGr65yhQRkJAL0-6DY5k", "scope": "GOOGLE", "types": ["cafe", "store", "restaurant", "food", "point_of_interest", "establishment"], "user_ratings_total": 114, "vicinity": "Alemdar, Yerebatan Caddesi No:25"}, {"business_status": "CLOSED_TEMPORARILY", "geometry": {"location": {"lat": 41.0123968, "lng": 28.97870009999999}, "viewport": {"northeast": {"lat": 41.0137712302915, "lng": 28.97995853029149}, "southwest": {"lat": 41.0110732697085, "lng": 28.97726056970849}}}, "icon": "https://maps.gstatic.com/mapfiles/place_api/icons/v1/png_71/cafe-71.png", "icon_background_color": "#FF9E67", "icon_mask_base_uri": "https://maps.gstatic.com/mapfiles/place_api/icons/v2/cafe_pinlet", "name": "Ala Turca Art Cafe", "permanently_closed": true, "photos": [{"height": 2645, "html_attributions": ["<a href=\"https://maps.google.com/maps/contrib/105180558797056999414\">\u05db\u05d5\u05db\u05d1\u05d4 \u05d6\u05dc\u05d3\u05de\u05df \u05d0\u05dc\u05e7\u05d1\u05e5</a>"], "photo_reference": "AW30NDx-YXk_MIEDKnkghvzwmZEtPS-z2cPrqUL1vVDqoeKoBFy6hNP1JGD-PAVWpMNhOCy7hUOERfA_VHThknbLcCO4HHhok_1fB1D_45zAyUmw20f5fYS93Fhsz053fMJBGLtoL3bMuMgUPc9R6sTGEM90ovpFKb_iDBZ2hDRRcgNDnhuB", "width": 6048}], "place_id": "ChIJ0779g7-5yhQR9yslM_d8o6A", "plus_code": {"compound_code": "2X6H+XF Fatih/\u0130stanbul, Turkey", "global_code": "8GHC2X6H+XF"}, "rating": 4.2, "reference": "ChIJ0779g7-5yhQR9yslM_d8o6A", "scope": "GOOGLE", "types": ["cafe", "store", "food", "point_of_interest", "establishment"], "user_ratings_total": 9, "vicinity": "Cankurtaran, Taya Hatun Sokak No:2"}, {"business_status": "OPERATIONAL", "geometry": {"location": {"lat": 41.0126242, "lng": 28.9783824}, "viewport": {"northeast": {"lat": 41.01393813029149, "lng": 28.9796793302915}, "southwest": {"lat": 41.01124016970849, "lng": 28.9769813697085}}}, "icon": "https://maps.gstatic.com/mapfiles/place_api/icons/v1/png_71/cafe-71.png", "icon_background_color": "#FF9E67", "icon_mask_base_uri": "https://maps.gstatic.com/mapfiles/place_api/icons/v2/cafe_pinlet", "name": "\u202aOsmanlizadeler\u202c", "opening_hours": {"open_now": true}, "photos": [{"height": 1846, "html_attributions": ["<a href=\"https://maps.google.com/maps/contrib/104435811679032605050\">Kakha Khmelidze</a>"], "photo_reference": "AW30NDwFBuEzBitgeJlM8a3kNYXdgPoSxCd-pQsYqmUoo2IGa5omc1T5saYW0RRzmdxOIVgMd-HvIlFFriEKAxALjVeguHzkFskRA0rDKUpvIPdp6wQMjg3SXyLY9AndFAn25oOg4JWVM5q17v8SwVkavI6tYLl1iDC56Tf_u5A3FjByUnkI", "width": 4000}], "place_id": "ChIJP3gOhr-5yhQR5bDa6bcmY0A", "plus_code": {"compound_code": "2X7H+29 Fatih/\u0130stanbul, Turkey", "global_code": "8GHC2X7H+29"}, "price_level": 2, "rating": 3.8, "reference": "ChIJP3gOhr-5yhQR5bDa6bcmY0A", "scope": "GOOGLE", "types": ["cafe", "food", "point_of_interest", "establishment"], "user_ratings_total": 896, "vicinity": "Hoca Pa\u015fa, H\u00fcdavendigar Caddesi 2/A"}, {"business_status": "CLOSED_TEMPORARILY", "geometry": {"location": {"lat": 41.0135738, "lng": 28.9787417}, "viewport": {"northeast": {"lat": 41.0149068802915, "lng": 28.9801441302915}, "southwest": {"lat": 41.0122089197085, "lng": 28.9774461697085}}}, "icon": "https://maps.gstatic.com/mapfiles/place_api/icons/v1/png_71/restaurant-71.png", "icon_background_color": "#FF9E67", "icon_mask_base_uri": "https://maps.gstatic.com/mapfiles/place_api/icons/v2/restaurant_pinlet", "name": "G\u00fclhane House", "permanently_closed": true, "photos": [{"height": 3024, "html_attributions": ["<a href=\"https://maps.google.com/maps/contrib/112886481436028286582\">cassandra 21grammi</a>"], "photo_reference": "AW30NDyheCheza1GWTzpx4os36ZACbpun1K7v6wVuAYNme9Clgzyvw4QRdYhm9kelZDoxYKB17-CRfhzT9CeKOtC9ozUH-aDjC90IK6dbtMMYfXv2n1qvbd_iZCtPs91-gOgnXkp_ZF301Gl6eaV0UNAch2B800d8BNUA9jIVtuw4CyouuJW", "width": 4032}], "place_id": "ChIJ6aF89sC5yhQRpEgpgbtvDko", "plus_code": {"compound_code": "2X7H+CF Fatih/\u0130stanbul, Turkey", "global_code": "8GHC2X7H+CF"}, "rating": 4.7, "reference": "ChIJ6aF89sC5yhQRpEgpgbtvDko", "scope": "GOOGLE", "types": ["restaurant", "cafe", "food", "point_of_interest", "establishment"], "user_ratings_total": 15, "vicinity": "Cankurtaran, N\u00f6bethane Caddesi & Taya Hatun Sok., Sirkeci No:30, Fatih"}, {"business_status": "CLOSED_TEMPORARILY", "geometry": {"location": {"lat": 41.0133772, "lng": 28.9774685}, "viewport": {"northeast": {"lat": 41.0146969802915, "lng": 28.9787600802915}, "southwest": {"lat": 41.0119990197085, "lng": 28.9760621197085}}}, "icon": "https://maps.gstatic.com/mapfiles/place_api/icons/v1/png_71/cafe-71.png", "icon_background_color": "#FF9E67", "icon_mask_base_uri": "https://maps.gstatic.com/mapfiles/place_api/icons/v2/cafe_pinlet", "name": "MUHAMMAD SAID Baklavaci", "permanently_closed": true, "photos": [{"height": 3000, "html_attributions": ["<a href=\"https://maps.google.com/maps/contrib/100856371269322283233\">Apollinaria Tumina</a>"], "photo_reference": "AW30NDwca6IdKwoMWUjnFZ_eXiObtUM-YJ2WVTYjxQu86RTdMMun87c8MxYHFQ04HIj1-SkEWIM3KAGgM_j1wtQk_6rBkW-D785_e067EFnJ72F9_DkUIvP_4knoubohL-MHs0elOKrdzCWGXAT8wClzavxCIqHzAmQe-C-WMr8vbKU6i6Le", "width": 4000}], "place_id": "ChIJ7W71GsC5yhQRhGoDs6JEB9Q", "plus_code": {"compound_code": "2X7G+9X Fatih/\u0130stanbul, Turkey", "global_code": "8GHC2X7G+9X"}, "rating": 5, "reference": "ChIJ7W71GsC5yhQRhGoDs6JEB9Q", "scope": "GOOGLE", "types": ["cafe", "food", "point_of_interest", "establishment"], "user_ratings_total": 4, "vicinity": "Hoca Pa\u015fa, H\u00fcdavendigar Caddesi 40/A"}, {"business_status": "OPERATIONAL", "geometry": {"location": {"lat": 41.0129705, "lng": 28.9770832}, "viewport": {"northeast": {"lat": 41.01431633029149, "lng": 28.9784288802915}, "southwest": {"lat": 41.01161836970849, "lng": 28.9757309197085}}}, "icon": "https://maps.gstatic.com/mapfiles/place_api/icons/v1/png_71/restaurant-71.png", "icon_background_color": "#FF9E67", "icon_mask_base_uri": "https://maps.gstatic.com/mapfiles/place_api/icons/v2/restaurant_pinlet", "name": "Constantine's Ark Restaurant & Cafe", "opening_hours": {"open_now": true}, "photos": [{"height": 699, "html_attributions": ["<a href=\"https://maps.google.com/maps/contrib/111092433995394340539\">Constantine&#39;s Ark Restaurant &amp; Cafe</a>"], "photo_reference": "AW30NDxYN5CfFXwXwdJuiGjD2Cp25xcvxga5pMT6538DgjxSI4y9JfBmrpI0t7csj5Z6KM0VAer0c3qS-Dhc_jB2iNxbw6nbeTItIp1fm4KuNaUxc4EKr3cdGittwviM5nWK3loIEEoQtcp6G1bBiqTebbqbParDzzdQ5VD9Y17orIHbZvv9", "width": 1242}], "place_id": "ChIJnWxS8r-5yhQRw-ZA1EKxl5s", "plus_code": {"compound_code": "2X7G+5R Fatih/\u0130stanbul, Turkey", "global_code": "8GHC2X7G+5R"}, "price_level": 2, "rating": 4.6, "reference": "ChIJnWxS8r-5yhQRw-ZA1EKxl5s", "scope": "GOOGLE", "types": ["restaurant", "cafe", "food", "point_of_interest", "establishment"], "user_ratings_total": 600, "vicinity": "Hoca Pa\u015fa, \u0130bni Kemal Caddesi No:13"}, {"business_status": "OPERATIONAL", "geometry": {"location": {"lat": 41.0145355, "lng": 28.9757083}, "viewport": {"northeast": {"lat": 41.0159286302915, "lng": 28.9771328302915}, "southwest": {"lat": 41.0132306697085, "lng": 28.9744348697085}}}, "icon": "https://maps.gstatic.com/mapfiles/place_api/icons/v1/png_71/restaurant-71.png", "icon_background_color": "#FF9E67", "icon_mask_base_uri": "https://maps.gstatic.com/mapfiles/place_api/icons/v2/restaurant_pinlet", "name": "Ali Usta Burma Kadayif & Baklava", "opening_hours": {"open_now": true}, "photos": [{"height": 4032, "html_attributions": ["<a href=\"https://maps.google.com/maps/contrib/109762720935943166031\">D\u0130OR MEDYA</a>"], "photo_reference": "AW30NDypc_bZsGv0i_nVfkULuy4dkyaS0U4vDzoyXQM-ungWzG9x4DYmokZ8cHlfkjE6jpWqUXq9md4dwpA4LdevMPS7UH_s_AG9YWHFQfNN8CrWWI07GszMe-6bxpwaWwv4rxQvzl5DQurU1dBybcUxV72YV7d5ccrGAjwkQmQX6WHR5LWp", "width": 3024}], "place_id": "ChIJr0i-o-q5yhQRTSNH0BDJHDg", "plus_code": {"compound_code": "2X7G+R7 Fatih/\u0130stanbul, Turkey", "global_code": "8GHC2X7G+R7"}, "rating": 3.8, "reference": "ChIJr0i-o-q5yhQRTSNH0BDJHDg", "scope": "GOOGLE", "types": ["cafe", "bakery", "store", "restaurant", "food", "point_of_interest", "establishment"], "user_ratings_total": 101, "vicinity": "Hoca Pa\u015fa, Muradiye Caddesi No:25/A"}, {"business_status": "OPERATIONAL", "geometry": {"location": {"lat": 41.0063288, "lng": 28.9800008}, "viewport": {"northeast": {"lat": 41.00766653029149, "lng": 28.9813357802915}, "southwest": {"lat": 41.0049685697085, "lng": 28.9786378197085}}}, "icon": "https://maps.gstatic.com/mapfiles/place_api/icons/v1/png_71/bar-71.png", "icon_background_color": "#FF9E67", "icon_mask_base_uri": "https://maps.gstatic.com/mapfiles/place_api/icons/v2/bar_pinlet", "name": "The Lounge", "opening_hours": {"open_now": true}, "photos": [{"height": 720, "html_attributions": ["<a href=\"https://maps.google.com/maps/contrib/111997794214383816114\">The Lounge</a>"], "photo_reference": "AW30NDwrEecKBvFIUahUaqNWOKeUpSbSXtYDLaMKHP_eUjLhWQBzEBXLy5SEZam6BXjQgm8i31hkPGBoO475hzqz28LNfyOh7LVtXKIZcfnIHfa_2tmV3pQjqw9xRTgLqCIb1c1ar_WfAZrZ_IHONOkw0Uks5waZnw_wTEGFas_3rHO0ZnTw", "width": 1280}], "place_id": "ChIJ7TpWRLy5yhQRtT1fydOXAis", "plus_code": {"compound_code": "2X4J+G2 Fatih/\u0130stanbul, Turkey", "global_code": "8GHC2X4J+G2"}, "rating": 5, "reference": "ChIJ7TpWRLy5yhQRtT1fydOXAis", "scope": "GOOGLE", "types": ["night_club", "bar", "cafe", "food", "point_of_interest", "establishment"], "user_ratings_total": 3, "vicinity": "Cankurtaran, Tevkifhane Sokak No. 1"}, {"business_status": "OPERATIONAL", "geometry": {"location": {"lat": 41.0080549, "lng": 28.97662870000001}, "viewport": {"northeast": {"lat": 41.0093663302915, "lng": 28.97796703029151}, "southwest": {"lat": 41.0066683697085, "lng": 28.97526906970851}}}, "icon": "https://maps.gstatic.com/mapfiles/place_api/icons/v1/png_71/restaurant-71.png", "icon_background_color": "#FF9E67", "icon_mask_base_uri": "https://maps.gstatic.com/mapfiles/place_api/icons/v2/restaurant_pinlet", "name": "Haf\u0131z Mustafa", "opening_hours": {"open_now": true}, "photos": [{"height": 9000, "html_attributions": ["<a href=\"https://maps.google.com/maps/contrib/106621184986402764066\">Erkan Saka</a>"], "photo_reference": "AW30NDxC6nU0vuqJWDhp9S1hceHU5k9KLwEMPjjEs1YNQ2jwHUa1j81G-ZLG7zolOXD0n1UcVoSX3gZ4gvStS-fcBfRgE5IbeKZuOv4iB_Gw1eBQs_9HVq5asDsMWTK7ra3VO5j8WGzX2sep3wPPasuzAyEmGVeeQEXccxJhyMJFG0Bzp3Rj", "width": 12000}], "place_id": "ChIJwUXy8b25yhQRwnPmaC7PlSU", "plus_code": {"compound_code": "2X5G+6M Fatih/\u0130stanbul, Turkey", "global_code": "8GHC2X5G+6M"}, "price_level": 2, "rating": 4.6, "reference": "ChIJwUXy8b25yhQRwnPmaC7PlSU", "scope": "GOOGLE", "types": ["cafe", "bakery", "store", "restaurant", "food", "point_of_interest", "establishment"], "user_ratings_total": 5862, "vicinity": "Binbirdirek, Divan Yolu Caddesi No:14"}, {"business_status": "CLOSED_TEMPORARILY", "geometry": {"location": {"lat": 41.0081678, "lng": 28.9755379}, "viewport": {"northeast": {"lat": 41.00951678029149, "lng": 28.9768868802915}, "southwest": {"lat": 41.00681881970849, "lng": 28.9741889197085}}}, "icon": "https://maps.gstatic.com/mapfiles/place_api/icons/v1/png_71/restaurant-71.png", "icon_background_color": "#FF9E67", "icon_mask_base_uri": "https://maps.gstatic.com/mapfiles/place_api/icons/v2/restaurant_pinlet", "name": "Petrol Palace Restaurant", "permanently_closed": true, "photos": [{"height": 1920, "html_attributions": ["<a href=\"https://maps.google.com/maps/contrib/111400895931951310437\">Pavel Semashko</a>"], "photo_reference": "AW30NDyO7HJur4g8sIJOEbjUZMyOtIx22A6XQZoyBZ1JiN1cBnsK2clNrwmv2uhsSohEQCzHQbzAFNx3A-gVt8kj9c7VZ3XGYAyOBnBIyYHG7llSccj_7EbmVgu1S-nLkQEElbfjGfqAZFv13TmJmxG96E8TTtGuqGavJ9MluQA0MRpstjql", "width": 1080}], "place_id": "ChIJ0Z8Hif25yhQRaaOkMiqZPjI", "plus_code": {"compound_code": "2X5G+76 Fatih/\u0130stanbul, Turkey", "global_code": "8GHC2X5G+76"}, "rating": 3, "reference": "ChIJ0Z8Hif25yhQRaaOkMiqZPjI", "scope": "GOOGLE", "types": ["restaurant", "cafe", "food", "point_of_interest", "establishment"], "user_ratings_total": 2, "vicinity": "Turkey"}, {"business_status": "OPERATIONAL", "geometry": {"location": {"lat": 41.0143084, "lng": 28.97536719999999}, "viewport": {"northeast": {"lat": 41.01567078029149, "lng": 28.9766601802915}, "southwest": {"lat": 41.01297281970849, "lng": 28.9739622197085}}}, "icon": "https://maps.gstatic.com/mapfiles/place_api/icons/v1/png_71/cafe-71.png", "icon_background_color": "#FF9E67", "icon_mask_base_uri": "https://maps.gstatic.com/mapfiles/place_api/icons/v2/cafe_pinlet", "name": "Kahve D\u00fcnyas\u0131 Alg\u00f6t\u00fcr - Sirkeci", "opening_hours": {"open_now": true}, "photos": [{"height": 2998, "html_attributions": ["<a href=\"https://maps.google.com/maps/contrib/106384143416088090871\">Onur \u00d6zbek</a>"], "photo_reference": "AW30NDwYW7CBxvb7cbdy8WOeCvl0C8Bhv0epZItWbxbhClc7_RpHRJ8pzpIk4wuKhves8aXdPlPDanYXXR92LQb7JwzypomPliHnNbC3YWVYOQ8RITpQKLRcJQ-ITR-jhK9kvh9anWS6w8kzPQe-pm0fh8LfS-jpNeTt90LpUxU01-qRIaiA", "width": 3998}], "place_id": "ChIJz6G8W5W5yhQRAHFVD8r19ww", "plus_code": {"compound_code": "2X7G+P4 Fatih/\u0130stanbul, Turkey", "global_code": "8GHC2X7G+P4"}, "price_level": 2, "rating": 4.1, "reference": "ChIJz6G8W5W5yhQRAHFVD8r19ww", "scope": "GOOGLE", "types": ["cafe", "store", "food", "point_of_interest", "establishment"], "user_ratings_total": 282, "vicinity": "Hoca Pa\u015fa, Ankara Caddesi No:42"}, {"business_status": "OPERATIONAL", "geometry": {"location": {"lat": 41.015175, "lng": 28.97567}, "viewport": {"northeast": {"lat": 41.01650893029149, "lng": 28.9770580302915}, "southwest": {"lat": 41.0138109697085, "lng": 28.9743600697085}}}, "icon": "https://maps.gstatic.com/mapfiles/place_api/icons/v1/png_71/cafe-71.png", "icon_background_color": "#FF9E67", "icon_mask_base_uri": "https://maps.gstatic.com/mapfiles/place_api/icons/v2/cafe_pinlet", "name": "MADO", "opening_hours": {"open_now": true}, "photos": [{"height": 4032, "html_attributions": ["<a href=\"https://maps.google.com/maps/contrib/105743173758903205868\">NK Q8</a>"], "photo_reference": "AW30NDwhpWZnE5qbH1bVSQGPISwW_O5gGGfwykDFcX2hWlg7QTJGlmFF_-68FhrOLAOopX4UGYMABKQ4UX4EyprBbYlA-zxM03QFkI-P_l5Qs9f6CQVQ_fAwV-02xDeaP78L1SVSm636RUAyQymRt8orbTGuc4Lr9Yljw6LgQxUPKX4pVmmk", "width": 3024}], "place_id": "ChIJLaG4m-q5yhQR7ZqyvW-XZco", "plus_code": {"compound_code": "2X8G+37 Fatih/\u0130stanbul, Turkey", "global_code": "8GHC2X8G+37"}, "price_level": 3, "rating": 3.1, "reference": "ChIJLaG4m-q5yhQR7ZqyvW-XZco", "scope": "GOOGLE", "types": ["cafe", "store", "restaurant", "food", "point_of_interest", "establishment"], "user_ratings_total": 1198, "vicinity": "Hobyar, Giri\u015f, Ankara Caddesi No:67 Z"}, {"business_status": "OPERATIONAL", "geometry": {"location": {"lat": 41.01555560000001, "lng": 28.9758333}, "viewport": {"northeast": {"lat": 41.0169045802915, "lng": 28.97718228029149}, "southwest": {"lat": 41.01420661970851, "lng": 28.9744843197085}}}, "icon": "https://maps.gstatic.com/mapfiles/place_api/icons/v1/png_71/restaurant-71.png", "icon_background_color": "#FF9E67", "icon_mask_base_uri": "https://maps.gstatic.com/mapfiles/place_api/icons/v2/restaurant_pinlet", "name": "Cafe Esmer Shef", "photos": [{"height": 1280, "html_attributions": ["<a href=\"https://maps.google.com/maps/contrib/101647139786264868665\">Ashwag Alanzy</a>"], "photo_reference": "AW30NDw4fvw7DNrF4xdq306qvw1ABDdR918IOtRd1uXsTR4gnMd6gQoGRSX7KhmvbJyW5mQn5BK6ZpFukGAS470gx3LQ9L8uMQ3oGpxFu9FdroLU1uMGenOW8sRIAy44-ita2CTasR5HLNNzXMrr5RiRizBEhSAkBrWCm0oDj6iu7pZ4aBKl", "width": 1047}], "place_id": "ChIJC5hp1cG5yhQRbcfNJFEomLM", "plus_code": {"compound_code": "2X8G+68 Fatih/\u0130stanbul, Turkey", "global_code": "8GHC2X8G+68"}, "price_level": 2, "rating": 4.2, "reference": "ChIJC5hp1cG5yhQRbcfNJFEomLM", "scope": "GOOGLE", "types": ["restaurant", "cafe", "food", "point_of_interest", "establishment"], "user_ratings_total": 2329, "vicinity": "Hobyar Mah., Ankara Cad. 73/B, Fatih"}, {"business_status": "OPERATIONAL", "geometry": {"location": {"lat": 41.0163118, "lng": 28.9760341}, "viewport": {"northeast": {"lat": 41.01768318029149, "lng": 28.9773588302915}, "southwest": {"lat": 41.01498521970849, "lng": 28.9746608697085}}}, "icon": "https://maps.gstatic.com/mapfiles/place_api/icons/v1/png_71/restaurant-71.png", "icon_background_color": "#FF9E67", "icon_mask_base_uri": "https://maps.gstatic.com/mapfiles/place_api/icons/v2/restaurant_pinlet", "name": "D\u00fcrb\u00fcn Cafe", "opening_hours": {"open_now": true}, "photos": [{"height": 3024, "html_attributions": ["<a href=\"https://maps.google.com/maps/contrib/109685421100412380140\">Mikail Ok\u00e7u</a>"], "photo_reference": "AW30NDyCS_pNgY6SqhiZ8m9lydFAPku74Mivm05AEnKZV14ylX3x5zvOX17OPNPLRSpdLnVfcbTc3Cy65jKuUVxNhZuxg1ArjLiUd4kwsGXDpfvqgPsaUs31a8os_oloYIGkFlm2hzOX7PJZ7KH-r9d0v3YBAchRA9ooVFo7ev625aMREMc", "width": 4032}], "place_id": "ChIJu_R3eOq5yhQR0MnZa2XP5SA", "plus_code": {"compound_code": "2X8G+GC Fatih/\u0130stanbul, Turkey", "global_code": "8GHC2X8G+GC"}, "price_level": 2, "rating": 4.1, "reference": "ChIJu_R3eOq5yhQR0MnZa2XP5SA", "scope": "GOOGLE", "types": ["restaurant", "cafe", "food", "point_of_interest", "establishment"], "user_ratings_total": 1341, "vicinity": "Hobyar Mah, Yal\u0131 K\u00f6\u015fk\u00fc Caddesi No:22 Kat:4"}, {"business_status": "OPERATIONAL", "geometry": {"location": {"lat": 41.0083237, "lng": 28.9773568}, "viewport": {"northeast": {"lat": 41.0094438802915, "lng": 28.97873003029149}, "southwest": {"lat": 41.0067459197085, "lng": 28.9760320697085}}}, "icon": "https://maps.gstatic.com/mapfiles/place_api/icons/v1/png_71/restaurant-71.png", "icon_background_color": "#FF9E67", "icon_mask_base_uri": "https://maps.gstatic.com/mapfiles/place_api/icons/v2/restaurant_pinlet", "name": "Palmiye Cafe Restaurant", "opening_hours": {"open_now": true}, "photos": [{"height": 4032, "html_attributions": ["<a href=\"https://maps.google.com/maps/contrib/111778416829696050309\">Daniel Santos Caballero</a>"], "photo_reference": "AW30NDzk41nKL4ivGxMKaqWTd7Itpep2vyssA2JisxhazkRc17U1qnQhfu8-qIqCeCRDcYywn58Y240OPJARf6iYTS_WUQaRXoXn7Q0noNFtEYyMBGISZ14Gp326fgENO640zsmdIb1ZpVOozePGHv36pr7TjZu2UfcaHN53n3tG_R7quKFe", "width": 3024}], "place_id": "ChIJr1ys5725yhQRVbFpMc7kq1A", "plus_code": {"compound_code": "2X5G+8W Fatih/\u0130stanbul, Turkey", "global_code": "8GHC2X5G+8W"}, "rating": 4.1, "reference": "ChIJr1ys5725yhQRVbFpMc7kq1A", "scope": "GOOGLE", "types": ["restaurant", "cafe", "food", "point_of_interest", "establishment"], "user_ratings_total": 46, "vicinity": "Alemdar, Ares Hotel, \u0130ncili \u00c7avu\u015f Sokak No:17"}, {"business_status": "OPERATIONAL", "geometry": {"location": {"lat": 41.0157081, "lng": 28.9738891}, "viewport": {"northeast": {"lat": 41.01703173029149, "lng": 28.9752223802915}, "southwest": {"lat": 41.0143337697085, "lng": 28.9725244197085}}}, "icon": "https://maps.gstatic.com/mapfiles/place_api/icons/v1/png_71/cafe-71.png", "icon_background_color": "#FF9E67", "icon_mask_base_uri": "https://maps.gstatic.com/mapfiles/place_api/icons/v2/cafe_pinlet", "name": "Brew Coffee Works", "opening_hours": {"open_now": true}, "photos": [{"height": 4000, "html_attributions": ["<a href=\"https://maps.google.com/maps/contrib/112141457444096334867\">Brew Coffee Works</a>"], "photo_reference": "AW30NDy-EZgkBHhC56XitIq06LR9bQtcwC4huUSaYdvehkzl5UHl3NtxRRu7eUJ2pvNr78h6i1j_RqvjCL-W0nfB0yYeZ_vEHENfPSNpOGtJ9sr78C3B9PH4Vhl2uj71nIVuTO_dWNbTSrKyPZEriKePX1kfMWehmsjv3jUHF69YcnBB1nb5", "width": 6000}], "place_id": "ChIJkRdr7-q5yhQRNRVLOVhAUn4", "plus_code": {"compound_code": "2X8F+7H Fatih/\u0130stanbul, Turkey", "global_code": "8GHC2X8F+7H"}, "price_level": 2, "rating": 4.3, "reference": "ChIJkRdr7-q5yhQRNRVLOVhAUn4", "scope": "GOOGLE", "types": ["cafe", "store", "restaurant", "food", "point_of_interest", "establishment"], "user_ratings_total": 920, "vicinity": "Hobyar, Hamidiye Caddesi No:16"}], "status": "OK"}