{"html_attributions": [], "next_page_token": "AW30NDwMfmF91zRUB77Coagh8JqkMf5fO4K7sntjb-3Sok50TOvPbsg7VJ4RSiHqt_gr9fg_a5HmmSKL1NYnUHsL-aDOnQF8WQDuyiiHgUEWAx3fBhb0KKI5mNCK5RJIV6C_NaB_Rfe-C9SFpEeicRlOjLbB0SbvxaHyaT7baHF5ijmPhgpUFe_DXeSh18eAEVEE4CsiMDl9DqPkUUj9Taoq6Tz0IUZSDLkp1h8AFi1d0XlMEiXBeGDh75c5yehYJv56IDkQFRhxqZnGYUvmiICzAOdMan94rXhV2r9GiMcXMcL3kZL5GtUZJ6DAtiH-jeXBf4dbQjgxif1uf_cDyyxBdD0iB60g7jI-uXv3PUAAHmwFgY-PFcMVy1ogpLa7cBGLHwLXoMTiNz7hY5CMUlWKtp2rxMkGS_EQCyMD3quSu4igoJKlKfUy", "results": [{"business_status": "OPERATIONAL", "geometry": {"location": {"lat": 41.04996879999999, "lng": 29.0128717}, "viewport": {"northeast": {"lat": 41.05131523029149, "lng": 29.0141522302915}, "southwest": {"lat": 41.0486172697085, "lng": 29.0114542697085}}}, "icon": "https://maps.gstatic.com/mapfiles/place_api/icons/v1/png_71/restaurant-71.png", "icon_background_color": "#FF9E67", "icon_mask_base_uri": "https://maps.gstatic.com/mapfiles/place_api/icons/v2/restaurant_pinlet", "name": "Y\u0131ld\u0131z Park\u0131 K\u0131rkahvesi, Beltur", "opening_hours": {"open_now": true}, "photos": [{"height": 3739, "html_attributions": ["<a href=\"https://maps.google.com/maps/contrib/116572681212883671548\">Beltur K\u0131rkahvesi</a>"], "photo_reference": "AW30NDwnyFtXeoQNpphuJmLDPAal_pL5G5WtDXmDIh3knHSLSM9TR9EwgCAnAZeOPDpCH4p_sUyd-vPft3cSvp5vhkMSLbMfQCHoZ5y7ytU31CStDu0o6NzF2nTHfWe8aOyjTWk4jc0bbdTglvMeoOrwmSn1MqVWIC6kokrXJJAVGeN9XEne", "width": 5609}], "place_id": "ChIJfwtedrC3yhQRxQsqvtmoGLc", "plus_code": {"compound_code": "22X7+X4 Be\u015fikta\u015f/\u0130stanbul, Turkey", "global_code": "8GHF22X7+X4"}, "price_level": 2, "rating": 4, "reference": "ChIJfwtedrC3yhQRxQsqvtmoGLc", "scope": "GOOGLE", "types": ["restaurant", "cafe", "food", "point_of_interest", "establishment"], "user_ratings_total": 729, "vicinity": "Y\u0131ld\u0131z Mah, Y\u0131ld\u0131z Caddesi No.62"}, {"business_status": "CLOSED_TEMPORARILY", "geometry": {"location": {"lat": 41.0504356, "lng": 29.0069958}, "viewport": {"northeast": {"lat": 41.0517556302915, "lng": 29.0084041302915}, "southwest": {"lat": 41.0490576697085, "lng": 29.0057061697085}}}, "icon": "https://maps.gstatic.com/mapfiles/place_api/icons/v1/png_71/cafe-71.png", "icon_background_color": "#FF9E67", "icon_mask_base_uri": "https://maps.gstatic.com/mapfiles/place_api/icons/v2/cafe_pinlet", "name": "Be\u015fikta\u015f Tu\u011fba Pasta & Cafe", "permanently_closed": true, "photos": [{"height": 2290, "html_attributions": ["<a href=\"https://maps.google.com/maps/contrib/114151641322431085583\">ersavas</a>"], "photo_reference": "AW30NDxkopZhusdGF9X26JWiSeMRN6PYVe_go0uHFFd-ncnPqoCF0Bpuzxv-amIisMgW1gwZ2SSHYLxrXjaBqqASwvnjklqbTEF5Z4d8wpgQibDdjg3wmRosTdb_a7bQiQyUY0bYjD4tCMg7Gkr8AOYHWkX1xm71yiZw7EGHUGthRsVEUVUX", "width": 2581}], "place_id": "ChIJ9d2TlqW3yhQRFTwe1VJFuZc", "plus_code": {"compound_code": "3224+5Q Be\u015fikta\u015f/\u0130stanbul, Turkey", "global_code": "8GHF3224+5Q"}, "rating": 4.4, "reference": "ChIJ9d2TlqW3yhQRFTwe1VJFuZc", "scope": "GOOGLE", "types": ["cafe", "bakery", "food", "store", "point_of_interest", "establishment"], "user_ratings_total": 10, "vicinity": "Abbasa\u011fa, Y\u0131ld\u0131z Caddesi No:53"}, {"business_status": "OPERATIONAL", "geometry": {"location": {"lat": 41.0508769, "lng": 29.0075917}, "viewport": {"northeast": {"lat": 41.0521948302915, "lng": 29.0089794302915}, "southwest": {"lat": 41.0494968697085, "lng": 29.0062814697085}}}, "icon": "https://maps.gstatic.com/mapfiles/place_api/icons/v1/png_71/cafe-71.png", "icon_background_color": "#FF9E67", "icon_mask_base_uri": "https://maps.gstatic.com/mapfiles/place_api/icons/v2/cafe_pinlet", "name": "Cicek Pasta Cafe", "opening_hours": {"open_now": true}, "photos": [{"height": 500, "html_attributions": ["<a href=\"https://maps.google.com/maps/contrib/100225796205232315070\">KIR \u00c7\u0130\u00c7E\u011e\u0130 PASTA CAFE</a>"], "photo_reference": "AW30NDyQ1ca6tYGwqUMRNTPlKnTgZlRd6mhRdfSxEey4_3BKvQKlSgR86mKLvqgbPffa-8Mm-QDdNpRVNmZ2Fa8VyQwu69T4mREzXvBwT46G7PLCXnNk3_Q7KqkrAWZT7ByVVNmjTRyJbWtxd3nngt0gXOvYAjwaJCDyQKf4pNyuNUbZGmgU", "width": 750}], "place_id": "ChIJH89JnFG2yhQR6OhklCAmLLg", "plus_code": {"compound_code": "3225+92 Be\u015fikta\u015f/\u0130stanbul, Turkey", "global_code": "8GHF3225+92"}, "rating": 4.2, "reference": "ChIJH89JnFG2yhQR6OhklCAmLLg", "scope": "GOOGLE", "types": ["cafe", "food", "point_of_interest", "establishment"], "user_ratings_total": 13, "vicinity": "Abbasa\u011fa, Y\u0131ld\u0131z Caddesi No:63"}, {"business_status": "OPERATIONAL", "geometry": {"location": {"lat": 41.0504655, "lng": 29.0070627}, "viewport": {"northeast": {"lat": 41.0517925802915, "lng": 29.00845653029149}, "southwest": {"lat": 41.0490946197085, "lng": 29.0057585697085}}}, "icon": "https://maps.gstatic.com/mapfiles/place_api/icons/v1/png_71/cafe-71.png", "icon_background_color": "#FF9E67", "icon_mask_base_uri": "https://maps.gstatic.com/mapfiles/place_api/icons/v2/cafe_pinlet", "name": "Deal Coffee Co.", "opening_hours": {"open_now": true}, "photos": [{"height": 1096, "html_attributions": ["<a href=\"https://maps.google.com/maps/contrib/113825001245880918296\">kaz\u0131m \u00e7elik</a>"], "photo_reference": "AW30NDxtHx_cemKfSy1JaiiU5kVYeFWeH1Re5RJF2eN2ppqoRS3UlQO2G8DZzI7Kz5FBtOI58wAKQszr0HeycfYHpAgdGT0DthiUdh9ui3Il9ytWmDHXtVM6BgWamqQ8O16VUjb3QRA-v9XYh8796djRbwnTfTnnQzhSfewvebwU35s0nN64", "width": 1096}], "place_id": "ChIJCdNgMaS3yhQRprx8_fufz3c", "plus_code": {"compound_code": "3224+5R Be\u015fikta\u015f/\u0130stanbul, Turkey", "global_code": "8GHF3224+5R"}, "rating": 4.4, "reference": "ChIJCdNgMaS3yhQRprx8_fufz3c", "scope": "GOOGLE", "types": ["cafe", "food", "store", "point_of_interest", "establishment"], "user_ratings_total": 110, "vicinity": "Abbasa\u011fa, Y\u0131ld\u0131z Caddesi 53/A"}, {"business_status": "OPERATIONAL", "geometry": {"location": {"lat": 41.0481961, "lng": 29.005686}, "viewport": {"northeast": {"lat": 41.04953353029149, "lng": 29.00697723029149}, "southwest": {"lat": 41.04683556970849, "lng": 29.00427926970849}}}, "icon": "https://maps.gstatic.com/mapfiles/place_api/icons/v1/png_71/generic_business-71.png", "icon_background_color": "#7B9EB0", "icon_mask_base_uri": "https://maps.gstatic.com/mapfiles/place_api/icons/v2/generic_pinlet", "name": "eggstra", "opening_hours": {"open_now": true}, "photos": [{"height": 3968, "html_attributions": ["<a href=\"https://maps.google.com/maps/contrib/101115127350174674375\">M. Serdar K\u0131l\u0131\u00e7 (mserdarkilic)</a>"], "photo_reference": "AW30NDynepLrJnvDcBk9SrX4KL9aByb-2iRehsWDOAwVheygAMjHkFIFF2KGDpp5WTXs3nC3hWcg5hVnhaGyLzK4GEuxAm-qN7H-L3JliDSQE_NwIzwFq222C42PVNh22OahkA_u4FG6CM_2n95zuSRjpCpHNXbYOpEJ09L_SC9Kv7-Xb4cU", "width": 2976}], "place_id": "ChIJm7i5GKS3yhQRy_TvNhc3MDk", "plus_code": {"compound_code": "22X4+77 Be\u015fikta\u015f/\u0130stanbul, Turkey", "global_code": "8GHF22X4+77"}, "rating": 4.3, "reference": "ChIJm7i5GKS3yhQRy_TvNhc3MDk", "scope": "GOOGLE", "types": ["cafe", "food", "point_of_interest", "establishment"], "user_ratings_total": 17, "vicinity": "Abbasa\u011fa, Jandarma Mektebi Sokak No:8"}, {"business_status": "CLOSED_TEMPORARILY", "geometry": {"location": {"lat": 41.0491633, "lng": 29.0041734}, "viewport": {"northeast": {"lat": 41.05045533029149, "lng": 29.0055488302915}, "southwest": {"lat": 41.04775736970849, "lng": 29.00285086970851}}}, "icon": "https://maps.gstatic.com/mapfiles/place_api/icons/v1/png_71/cafe-71.png", "icon_background_color": "#FF9E67", "icon_mask_base_uri": "https://maps.gstatic.com/mapfiles/place_api/icons/v2/cafe_pinlet", "name": "1/4 Quarter Coffee Co.", "permanently_closed": true, "photos": [{"height": 1080, "html_attributions": ["<a href=\"https://maps.google.com/maps/contrib/116838030802794057457\">Emre Yetim</a>"], "photo_reference": "AW30NDwb7pJVYCqDSXfnaS7C1cbuUKeeHa9aHjqXOG2RFKdNhPKbVHCR3OIpwA5ZNUdI4X0Zwhxct5ami2uGs54RMTw7E4vvgYEss_3J2hvzx_6dmd2rPYX8lZeHbbuegAhti1hNo9O7vATE_7TdzqXoRJfAwRi3xGmcxifhxssXvtfYoF2T", "width": 1080}], "place_id": "ChIJGz2rnKa3yhQRnt1s6U8Mxb4", "plus_code": {"compound_code": "22X3+MM Be\u015fikta\u015f/\u0130stanbul, Turkey", "global_code": "8GHF22X3+MM"}, "rating": 3.8, "reference": "ChIJGz2rnKa3yhQRnt1s6U8Mxb4", "scope": "GOOGLE", "types": ["cafe", "food", "point_of_interest", "establishment"], "user_ratings_total": 5, "vicinity": "Abbasa\u011fa, Jandarma Mektebi Sk., D:3 No:27, Be\u015fikta\u015f"}, {"business_status": "CLOSED_TEMPORARILY", "geometry": {"location": {"lat": 41.045557, "lng": 29.00718599999999}, "viewport": {"northeast": {"lat": 41.04689253029149, "lng": 29.0086337302915}, "southwest": {"lat": 41.04419456970849, "lng": 29.0059357697085}}}, "icon": "https://maps.gstatic.com/mapfiles/place_api/icons/v1/png_71/cafe-71.png", "icon_background_color": "#FF9E67", "icon_mask_base_uri": "https://maps.gstatic.com/mapfiles/place_api/icons/v2/cafe_pinlet", "name": "Cafe Benim", "permanently_closed": true, "photos": [{"height": 487, "html_attributions": ["<a href=\"https://maps.google.com/maps/contrib/115301563886366222484\">Cafe Benim</a>"], "photo_reference": "AW30NDwfNU6l_-I1sljmaCRlKhgKtNMNofXdkmscKDXsepw4oDhyov-ImfLnCNoOg07Plyhe2odIqN6R-UPxt26YFBKPcAxgy3wiconHzaShHISNIv1e_-anoqmO0wELHQf-fSEPGxqcAmE86h5qJ1zJoWLuvV0aYZWgPyzlgg_rHH6JLjqg", "width": 800}], "place_id": "ChIJzzkhlqO3yhQR1J0QNfOcjsE", "plus_code": {"compound_code": "22W4+6V Be\u015fikta\u015f/\u0130stanbul, Turkey", "global_code": "8GHF22W4+6V"}, "price_level": 2, "rating": 4.5, "reference": "ChIJzzkhlqO3yhQR1J0QNfOcjsE", "scope": "GOOGLE", "types": ["cafe", "restaurant", "food", "point_of_interest", "establishment"], "user_ratings_total": 12, "vicinity": "Cihann\u00fcma, Barbaros Bulvar\u0131 De\u011fer Palas Apt. 37/A, Be\u015fikta\u015f"}, {"business_status": "OPERATIONAL", "geometry": {"location": {"lat": 41.05435910000001, "lng": 29.0218031}, "viewport": {"northeast": {"lat": 41.05574453029151, "lng": 29.0231734302915}, "southwest": {"lat": 41.05304656970851, "lng": 29.0204754697085}}}, "icon": "https://maps.gstatic.com/mapfiles/place_api/icons/v1/png_71/restaurant-71.png", "icon_background_color": "#FF9E67", "icon_mask_base_uri": "https://maps.gstatic.com/mapfiles/place_api/icons/v2/restaurant_pinlet", "name": "Mora Cakes&More", "opening_hours": {"open_now": true}, "photos": [{"height": 670, "html_attributions": ["<a href=\"https://maps.google.com/maps/contrib/111847609419493413695\">Mora Cakes&amp;More</a>"], "photo_reference": "AW30NDwY1rRS8ayc7yVcgmR3UsftKItAwejeKCRKJQRaYiRot5IFqUKBtdZjtWDXAb-miL6KCtjUSfBO0X3GgSp4EYaYl2GagVEYTX5TbSgVd3rSwETmiA6HYWjLhaR368sZDNlmjZnt0sB1v3mgS51E94D0Us0F9KNwa-LFGPijEgOKts2H", "width": 670}], "place_id": "ChIJGQmnd7W3yhQRrAqqZGazx38", "plus_code": {"compound_code": "323C+PP Be\u015fikta\u015f/\u0130stanbul, Turkey", "global_code": "8GHF323C+PP"}, "rating": 4.2, "reference": "ChIJGQmnd7W3yhQRrAqqZGazx38", "scope": "GOOGLE", "types": ["cafe", "bakery", "food", "store", "point_of_interest", "establishment"], "user_ratings_total": 5, "vicinity": "Mecidiye, B\u00fcy\u00fck Kuyu Sokak 23B"}, {"business_status": "OPERATIONAL", "geometry": {"location": {"lat": 41.045976, "lng": 29.002953}, "viewport": {"northeast": {"lat": 41.0473440802915, "lng": 29.0042903302915}, "southwest": {"lat": 41.0446461197085, "lng": 29.0015923697085}}}, "icon": "https://maps.gstatic.com/mapfiles/place_api/icons/v1/png_71/cafe-71.png", "icon_background_color": "#FF9E67", "icon_mask_base_uri": "https://maps.gstatic.com/mapfiles/place_api/icons/v2/cafe_pinlet", "name": "Symbol Cafe Be\u015fikta\u015f", "opening_hours": {"open_now": true}, "photos": [{"height": 1280, "html_attributions": ["<a href=\"https://maps.google.com/maps/contrib/108707172364574823684\">Symbol Cafe Be\u015fikta\u015f</a>"], "photo_reference": "AW30NDwJrPEGBhBR3w2Pc93Vk6U9-Obp-LMk8mDnUpP1OOVDOSczhX4J22SVEpEycrnVxDrg7z3xkLmh8m5kW7HEvTpOijgSJ6zANrFyvUQPPemWv6R4M0nM71RMdUgi6nca4INEv_g56eNWa-HMN9uYP99TU5rmOkyHX0XPzpC8JUzEwFX-", "width": 1062}], "place_id": "ChIJP_hjqaG3yhQR65_j2AHmjLY", "plus_code": {"compound_code": "22W3+95 Be\u015fikta\u015f/\u0130stanbul, Turkey", "global_code": "8GHF22W3+95"}, "price_level": 2, "rating": 4.1, "reference": "ChIJP_hjqaG3yhQR65_j2AHmjLY", "scope": "GOOGLE", "types": ["cafe", "restaurant", "food", "point_of_interest", "establishment"], "user_ratings_total": 277, "vicinity": "T\u00fcrkali, Ihlamurdere Cad. Yavera\u011fa Sok. 3/5, Be\u015fikta\u015f"}, {"business_status": "OPERATIONAL", "geometry": {"location": {"lat": 41.043979, "lng": 29.0062}, "viewport": {"northeast": {"lat": 41.0453651802915, "lng": 29.0075601302915}, "southwest": {"lat": 41.0426672197085, "lng": 29.0048621697085}}}, "icon": "https://maps.gstatic.com/mapfiles/place_api/icons/v1/png_71/bar-71.png", "icon_background_color": "#FF9E67", "icon_mask_base_uri": "https://maps.gstatic.com/mapfiles/place_api/icons/v2/bar_pinlet", "name": "\u015eino Nargile Cafe & Restaurant", "opening_hours": {"open_now": true}, "photos": [{"height": 1200, "html_attributions": ["<a href=\"https://maps.google.com/maps/contrib/117622268147758688869\">taylan ya\u015far</a>"], "photo_reference": "AW30NDwcIhCUMiHXIPbzYAiuH_PwVdlqxr8M3Y8HPLXkmx9rkymsgqPzU0_0GYg7vakW-cmep7ZhN9K7RoAtmv1jK8ZDS-KTpP9CP7-915RIy8wBt6o0aLkkSiFIU-JC0hjoR49hS1NG_hhQ-LWfywUBo7HhrbTHGq7vDK4RDyZgkI2sht37", "width": 1600}], "place_id": "ChIJS-eVO6K3yhQRLWckmPBA_UI", "plus_code": {"compound_code": "22V4+HF Be\u015fikta\u015f/\u0130stanbul, Turkey", "global_code": "8GHF22V4+HF"}, "rating": 3.9, "reference": "ChIJS-eVO6K3yhQRLWckmPBA_UI", "scope": "GOOGLE", "types": ["cafe", "bar", "restaurant", "food", "point_of_interest", "establishment"], "user_ratings_total": 233, "vicinity": "Cihann\u00fcma, Akmaz \u00c7e\u015fme Sokak No:13"}, {"business_status": "OPERATIONAL", "geometry": {"location": {"lat": 41.04800240000001, "lng": 29.0020417}, "viewport": {"northeast": {"lat": 41.0493520802915, "lng": 29.00339923029149}, "southwest": {"lat": 41.0466541197085, "lng": 29.00070126970849}}}, "icon": "https://maps.gstatic.com/mapfiles/place_api/icons/v1/png_71/shopping-71.png", "icon_background_color": "#4B96F3", "icon_mask_base_uri": "https://maps.gstatic.com/mapfiles/place_api/icons/v2/shopping_pinlet", "name": "Elit Profiterol", "opening_hours": {"open_now": true}, "photos": [{"height": 4000, "html_attributions": ["<a href=\"https://maps.google.com/maps/contrib/101121750022746623497\">Ozan Y\u0131ld\u0131r\u0131m</a>"], "photo_reference": "AW30NDxTlEZhL0BeptldUtXHvTZX0jwLek6Bd1d9threlRfYyjz5Bw1X1sfh9wpn1J3xLy9LNL9-IN_0aA5WUL_4xlEc8mPJnYhrApyI0pKxxyXCjzAysWvjKvcqbQHOYBCIO4PDlBpdUXbULuUIzMA_hTuPam3Hrb7BVijN6eKjShoMX4Dq", "width": 3000}], "place_id": "ChIJIecd4qC3yhQRZT9CjC9Z21g", "plus_code": {"compound_code": "22X2+6R Be\u015fikta\u015f/\u0130stanbul, Turkey", "global_code": "8GHF22X2+6R"}, "rating": 4.3, "reference": "ChIJIecd4qC3yhQRZT9CjC9Z21g", "scope": "GOOGLE", "types": ["cafe", "food", "store", "point_of_interest", "establishment"], "user_ratings_total": 56, "vicinity": "T\u00fcrkali, Ihlamurdere Caddesi No:109"}, {"business_status": "CLOSED_TEMPORARILY", "geometry": {"location": {"lat": 41.0449208, "lng": 29.0044528}, "viewport": {"northeast": {"lat": 41.0462469802915, "lng": 29.0058037802915}, "southwest": {"lat": 41.0435490197085, "lng": 29.0031058197085}}}, "icon": "https://maps.gstatic.com/mapfiles/place_api/icons/v1/png_71/restaurant-71.png", "icon_background_color": "#FF9E67", "icon_mask_base_uri": "https://maps.gstatic.com/mapfiles/place_api/icons/v2/restaurant_pinlet", "name": "Cr\u00e9pe Box Restaurant & Coffee", "permanently_closed": true, "photos": [{"height": 1836, "html_attributions": ["<a href=\"https://maps.google.com/maps/contrib/102247022804810884319\">Cihan At\u0131l Naml\u0131</a>"], "photo_reference": "AW30NDxv9KRsf2NKFTS_LIgl9vP06pyrn8LMQwuSemaFv8SHUISfrxNHeh64uc6iQudcqQEV-dntQ5qk_PBReoNaOqCx7cBLTeSbR5s1e58748rHLOf_fsqrbq-qXA5J7a3x3YVcVcAK0URsZpeFJYJJSpNoCUo70VtW1ua0QHum-NPeSD_1", "width": 3264}], "place_id": "ChIJyw5Cg6G3yhQRHKLM5Uc8RGo", "plus_code": {"compound_code": "22V3+XQ Be\u015fikta\u015f/\u0130stanbul, Turkey", "global_code": "8GHF22V3+XQ"}, "rating": 4.2, "reference": "ChIJyw5Cg6G3yhQRHKLM5Uc8RGo", "scope": "GOOGLE", "types": ["restaurant", "cafe", "food", "store", "point_of_interest", "establishment"], "user_ratings_total": 40, "vicinity": "T\u00fcrkali, Alt\u0131nta\u015f Sokak 2/A"}, {"business_status": "CLOSED_TEMPORARILY", "geometry": {"location": {"lat": 41.0436932, "lng": 29.0062787}, "viewport": {"northeast": {"lat": 41.0450434802915, "lng": 29.00762003029149}, "southwest": {"lat": 41.0423455197085, "lng": 29.0049220697085}}}, "icon": "https://maps.gstatic.com/mapfiles/place_api/icons/v1/png_71/cafe-71.png", "icon_background_color": "#FF9E67", "icon_mask_base_uri": "https://maps.gstatic.com/mapfiles/place_api/icons/v2/cafe_pinlet", "name": "\u00d6YK\u00dc S\u0130M\u0130T CAFE", "permanently_closed": true, "place_id": "ChIJa9N2PKK3yhQRAbV3nqiEEts", "plus_code": {"compound_code": "22V4+FG Be\u015fikta\u015f/\u0130stanbul, Turkey", "global_code": "8GHF22V4+FG"}, "rating": 1, "reference": "ChIJa9N2PKK3yhQRAbV3nqiEEts", "scope": "GOOGLE", "types": ["cafe", "food", "point_of_interest", "establishment"], "user_ratings_total": 1, "vicinity": "Cihann\u00fcma, Akmaz \u00c7e\u015fme Sokak No:10"}, {"business_status": "CLOSED_TEMPORARILY", "geometry": {"location": {"lat": 41.04607010000001, "lng": 29.0030621}, "viewport": {"northeast": {"lat": 41.04744823029151, "lng": 29.00439343029149}, "southwest": {"lat": 41.04475026970851, "lng": 29.00169546970849}}}, "icon": "https://maps.gstatic.com/mapfiles/place_api/icons/v1/png_71/cafe-71.png", "icon_background_color": "#FF9E67", "icon_mask_base_uri": "https://maps.gstatic.com/mapfiles/place_api/icons/v2/cafe_pinlet", "name": "Food Time Cafe Lounge", "permanently_closed": true, "photos": [{"height": 1200, "html_attributions": ["<a href=\"https://maps.google.com/maps/contrib/107819423630418957796\">ahmet akbel</a>"], "photo_reference": "AW30NDyCOiY0yVl_iAH_CkdUQOkLRXw6I3Sp2yc5UC-7h135ROnHP9vFp4i5bNt-0kHhGzu3-UcbaOZF0TCTBkaL7NkP4FlfTEmwQMw53-wnmhhDCqdTduC69kNsCyJjb9qd9nKFZ6a8rZOfcafBsc55IjPcBd061B6PmVcAzzT1obPxztGl", "width": 1600}], "place_id": "ChIJAZ1lBaG3yhQR1ZdkO8pZj4w", "plus_code": {"compound_code": "22W3+C6 Be\u015fikta\u015f/\u0130stanbul, Turkey", "global_code": "8GHF22W3+C6"}, "price_level": 1, "rating": 4.9, "reference": "ChIJAZ1lBaG3yhQR1ZdkO8pZj4w", "scope": "GOOGLE", "types": ["cafe", "food", "point_of_interest", "establishment"], "user_ratings_total": 12, "vicinity": "T\u00fcrkali, Yavera\u011fa Sokak No:5"}, {"business_status": "OPERATIONAL", "geometry": {"location": {"lat": 41.0435981, "lng": 29.0061261}, "viewport": {"northeast": {"lat": 41.0449429302915, "lng": 29.0075059802915}, "southwest": {"lat": 41.0422449697085, "lng": 29.0048080197085}}}, "icon": "https://maps.gstatic.com/mapfiles/place_api/icons/v1/png_71/restaurant-71.png", "icon_background_color": "#FF9E67", "icon_mask_base_uri": "https://maps.gstatic.com/mapfiles/place_api/icons/v2/restaurant_pinlet", "name": "Mega Cafe&Restaurant", "opening_hours": {"open_now": true}, "photos": [{"height": 3264, "html_attributions": ["<a href=\"https://maps.google.com/maps/contrib/103510063121220112631\">Nataliya Ilicheva</a>"], "photo_reference": "AW30NDxjSTaYBH5ZqBsbOQUlQc5u85mkbDUlmhIEZJOx5OB1BSe0tXCRmaTh2po_vvJby4GNdCBwYvVyhRFMpu5ooghEmlpl5cLMwTHfFQoV8zaDbskX0QPtDyrEQSbl3THG5imic8pvxjbLvt0OgNMksemFkBxTAlnqO785WZgSbUg3xn_m", "width": 2448}], "place_id": "ChIJvacKPaK3yhQRT333R1VLowo", "plus_code": {"compound_code": "22V4+CF Be\u015fikta\u015f/\u0130stanbul, Turkey", "global_code": "8GHF22V4+CF"}, "price_level": 2, "rating": 4, "reference": "ChIJvacKPaK3yhQRT333R1VLowo", "scope": "GOOGLE", "types": ["restaurant", "cafe", "food", "point_of_interest", "establishment"], "user_ratings_total": 58, "vicinity": "Cihann\u00fcma, Akmaz \u00c7e\u015fme Sokak No:8"}, {"business_status": "OPERATIONAL", "geometry": {"location": {"lat": 41.0459699, "lng": 29.0029248}, "viewport": {"northeast": {"lat": 41.0473349802915, "lng": 29.0042639302915}, "southwest": {"lat": 41.0446370197085, "lng": 29.0015659697085}}}, "icon": "https://maps.gstatic.com/mapfiles/place_api/icons/v1/png_71/restaurant-71.png", "icon_background_color": "#FF9E67", "icon_mask_base_uri": "https://maps.gstatic.com/mapfiles/place_api/icons/v2/restaurant_pinlet", "name": "Tarihi Oktay Kurabiye F\u0131r\u0131n\u0131", "opening_hours": {"open_now": true}, "photos": [{"height": 4032, "html_attributions": ["<a href=\"https://maps.google.com/maps/contrib/103094224975388836964\">Tarihi Oktay Kurabiye F\u0131r\u0131n\u0131</a>"], "photo_reference": "AW30NDwekmh_yV9JrHinwKeGNJIozfbZATmV8LvYMbYGORa4yvRFFEQACBvyCN0cwZFtyg8GfIOz7as9Y5EGiZMyAmJY19FDjPztfXE3-YiUtSjPCEg92dVHjx7rBMy_7uooF21esgTObFuWx0fnB5tF3E-dNn2hmRifeNT5-5qNAB4Lls_5", "width": 3024}], "place_id": "ChIJKS3BD6G3yhQRjGijtHoNJ0Y", "plus_code": {"compound_code": "22W3+95 Be\u015fikta\u015f/\u0130stanbul, Turkey", "global_code": "8GHF22W3+95"}, "price_level": 2, "rating": 4.6, "reference": "ChIJKS3BD6G3yhQRjGijtHoNJ0Y", "scope": "GOOGLE", "types": ["bakery", "cafe", "food", "store", "point_of_interest", "establishment"], "user_ratings_total": 521, "vicinity": "T\u00fcrkali, Yavera\u011fa Sokak 1/A"}, {"business_status": "OPERATIONAL", "geometry": {"location": {"lat": 41.0458835, "lng": 29.0029731}, "viewport": {"northeast": {"lat": 41.0471942802915, "lng": 29.0042535302915}, "southwest": {"lat": 41.0444963197085, "lng": 29.0015555697085}}}, "icon": "https://maps.gstatic.com/mapfiles/place_api/icons/v1/png_71/cafe-71.png", "icon_background_color": "#FF9E67", "icon_mask_base_uri": "https://maps.gstatic.com/mapfiles/place_api/icons/v2/cafe_pinlet", "name": "Ekinciler", "opening_hours": {"open_now": true}, "photos": [{"height": 1680, "html_attributions": ["<a href=\"https://maps.google.com/maps/contrib/113096927841488302720\">W B</a>"], "photo_reference": "AW30NDxoHb39hqf5SI5Q8cP8MbRP-bwdIhi4-qOGIDVdiTO-TBVLSsWkwWtWy359RawljTpHbqc2dvLW8evv5X8angoNNNcqmV4AFKSfHU9qT5Qg33B3djmVOhrVTMOb45HttCLFtrUS-Nsbjb-kYATT0WN65iPw7SWYSENfaL4xV38m0wx9", "width": 3648}], "place_id": "ChIJRz3aBaG3yhQRa4Gr4Y17yvk", "plus_code": {"compound_code": "22W3+95 Be\u015fikta\u015f/\u0130stanbul, Turkey", "global_code": "8GHF22W3+95"}, "rating": 4, "reference": "ChIJRz3aBaG3yhQRa4Gr4Y17yvk", "scope": "GOOGLE", "types": ["cafe", "bakery", "food", "store", "point_of_interest", "establishment"], "user_ratings_total": 355, "vicinity": "T\u00fcrkali, No:, Ihlamurdere Caddesi No:60"}, {"business_status": "OPERATIONAL", "geometry": {"location": {"lat": 41.04344469999999, "lng": 29.0060819}, "viewport": {"northeast": {"lat": 41.04479188029149, "lng": 29.0074775802915}, "southwest": {"lat": 41.0420939197085, "lng": 29.0047796197085}}}, "icon": "https://maps.gstatic.com/mapfiles/place_api/icons/v1/png_71/cafe-71.png", "icon_background_color": "#FF9E67", "icon_mask_base_uri": "https://maps.gstatic.com/mapfiles/place_api/icons/v2/cafe_pinlet", "name": "Zalatta", "opening_hours": {"open_now": true}, "photos": [{"height": 2260, "html_attributions": ["<a href=\"https://maps.google.com/maps/contrib/104422288212949352575\">Aa Aa</a>"], "photo_reference": "AW30NDxLgAoE3_zyjNwBmXdCHoGbSx2aHw7IjV5koEk9dIOkOaotYCMn1ufzZhP2GfqaqrakyYxLq5QNTljtbvK0x85sl4g3bb4WkgVw9aPw1ALUp2rQTlM39okd0TVyQ5WcywPNitKrZltN7d-LVBg7aoi3vxl-1977ePuTZS5_bYulcair", "width": 2260}], "place_id": "ChIJmXKuF6K3yhQRVWjp_E2L0e4", "plus_code": {"compound_code": "22V4+9C Be\u015fikta\u015f/\u0130stanbul, Turkey", "global_code": "8GHF22V4+9C"}, "rating": 3.7, "reference": "ChIJmXKuF6K3yhQRVWjp_E2L0e4", "scope": "GOOGLE", "types": ["cafe", "food", "point_of_interest", "establishment"], "user_ratings_total": 30, "vicinity": "Cihann\u00fcma, Akmaz \u00c7e\u015fme Sokak No:3"}, {"business_status": "OPERATIONAL", "geometry": {"location": {"lat": 41.0519979, "lng": 29.0240391}, "viewport": {"northeast": {"lat": 41.0533533802915, "lng": 29.02540473029149}, "southwest": {"lat": 41.0506554197085, "lng": 29.0227067697085}}}, "icon": "https://maps.gstatic.com/mapfiles/place_api/icons/v1/png_71/cafe-71.png", "icon_background_color": "#FF9E67", "icon_mask_base_uri": "https://maps.gstatic.com/mapfiles/place_api/icons/v2/cafe_pinlet", "name": "Bond Coffee Co. Ortak\u00f6y", "opening_hours": {"open_now": true}, "photos": [{"height": 4000, "html_attributions": ["<a href=\"https://maps.google.com/maps/contrib/100448701947014981073\">Gurme Rehber</a>"], "photo_reference": "AW30NDxYiyv_-RAC_DuCsVJMdYEieLGIR-bIX71tnH0gwZBM2yZIx8CWyCen02J_EYvk1bciwAh5fE_mL6SK7EJ_2D4sfmyFLZuNO5379vvr9X36bk-SmAz4_WTbKq1bOYBkNNqQZKkP-SRc6dfVSpo6ySk6G6rxg2C4kKrvI2wckh153yd_", "width": 3000}], "place_id": "ChIJCxO7F8q3yhQRPytglrua1mY", "plus_code": {"compound_code": "322F+QJ Be\u015fikta\u015f/\u0130stanbul, Turkey", "global_code": "8GHF322F+QJ"}, "price_level": 2, "rating": 4.5, "reference": "ChIJCxO7F8q3yhQRPytglrua1mY", "scope": "GOOGLE", "types": ["cafe", "food", "store", "point_of_interest", "establishment"], "user_ratings_total": 804, "vicinity": "Mecidiye, Dereboyu Caddesi No: 121-123/B"}, {"business_status": "CLOSED_TEMPORARILY", "geometry": {"location": {"lat": 41.0425366, "lng": 29.0084448}, "viewport": {"northeast": {"lat": 41.04385618029149, "lng": 29.0098006302915}, "southwest": {"lat": 41.0411582197085, "lng": 29.0071026697085}}}, "icon": "https://maps.gstatic.com/mapfiles/place_api/icons/v1/png_71/cafe-71.png", "icon_background_color": "#FF9E67", "icon_mask_base_uri": "https://maps.gstatic.com/mapfiles/place_api/icons/v2/cafe_pinlet", "name": "\u00c7\u0131ra\u011fan Kahvesi", "permanently_closed": true, "photos": [{"height": 3264, "html_attributions": ["<a href=\"https://maps.google.com/maps/contrib/106139642034458862816\">Ahmed Said Calik</a>"], "photo_reference": "AW30NDyQ5KQxH7Pei9cX28hZgir_lIyJAMDAbwuWIc79t-ZM2n3Vre0FMRn90xG3qXvk-XlYqtMWY6iIIOCt-aHdK9IaJGJKV2HREDp-APkwtVHutCaKgdgf-fkP38rsfmNLEI4wa2OURKGQPyHat77Wwzlw1zbqjMGwJy0QgGOceOP9ueUv", "width": 2448}], "place_id": "ChIJi_JBiaK3yhQRq9z38eBg7o8", "plus_code": {"compound_code": "22V5+29 Be\u015fikta\u015f/\u0130stanbul, Turkey", "global_code": "8GHF22V5+29"}, "rating": 3.9, "reference": "ChIJi_JBiaK3yhQRq9z38eBg7o8", "scope": "GOOGLE", "types": ["cafe", "food", "point_of_interest", "establishment"], "user_ratings_total": 16, "vicinity": "Y\u0131ld\u0131z, \u00c7\u0131ra\u011fan Caddesi No:5"}], "status": "OK"}